[{"town":"神久保","koaza":"","lat":35.771972,"lng":140.092925,"version":"13.0b/18.0a"},{"town":"大和田","koaza":"","lat":35.715003,"lng":140.105085,"version":"13.0b/18.0a"},{"town":"大和田新田","koaza":"","lat":35.730495,"lng":140.090714,"version":"13.0b/18.0a"},{"town":"尾崎","koaza":"","lat":35.743128,"lng":140.093111,"version":"13.0b/18.0a"},{"town":"勝田","koaza":"","lat":35.703386,"lng":140.125872,"version":"13.0b/18.0a"},{"town":"勝田台一丁目","koaza":"","lat":35.713482,"lng":140.125796,"version":"13.0b/18.0a"},{"town":"勝田台二丁目","koaza":"","lat":35.710311,"lng":140.126167,"version":"13.0b/18.0a"},{"town":"勝田台三丁目","koaza":"","lat":35.708582,"lng":140.128101,"version":"13.0b/18.0a"},{"town":"勝田台四丁目","koaza":"","lat":35.707038,"lng":140.130575,"version":"13.0b/18.0a"},{"town":"勝田台五丁目","koaza":"","lat":35.705169,"lng":140.132193,"version":"13.0b/18.0a"},{"town":"勝田台六丁目","koaza":"","lat":35.703884,"lng":140.135081,"version":"13.0b/18.0a"},{"town":"勝田台七丁目","koaza":"","lat":35.713703,"lng":140.130699,"version":"13.0b/18.0a"},{"town":"勝田台北一丁目","koaza":"","lat":35.716277,"lng":140.122695,"version":"13.0b/18.0a"},{"town":"勝田台北二丁目","koaza":"","lat":35.71782,"lng":140.122555,"version":"13.0b/18.0a"},{"town":"勝田台北三丁目","koaza":"","lat":35.718661,"lng":140.127253,"version":"13.0b/18.0a"},{"town":"勝田台南一丁目","koaza":"","lat":35.713429,"lng":140.120857,"version":"13.0b/18.0a"},{"town":"勝田台南二丁目","koaza":"","lat":35.710276,"lng":140.121579,"version":"13.0b/18.0a"},{"town":"勝田台南三丁目","koaza":"","lat":35.71156,"lng":140.117496,"version":"13.0b/18.0a"},{"town":"神野","koaza":"","lat":35.766858,"lng":140.129691,"version":"13.0b/18.0a"},{"town":"上高野","koaza":"","lat":35.732643,"lng":140.132602,"version":"13.0b/18.0a"},{"town":"萱田","koaza":"","lat":35.73419,"lng":140.109593,"version":"13.0b/18.0a"},{"town":"萱田町","koaza":"","lat":35.72103,"lng":140.106757,"version":"13.0b/18.0a"},{"town":"桑納","koaza":"","lat":35.755521,"lng":140.100338,"version":"13.0b/18.0a"},{"town":"小池","koaza":"","lat":35.778728,"lng":140.092264,"version":"13.0b/18.0a"},{"town":"佐山","koaza":"","lat":35.776646,"lng":140.113948,"version":"13.0b/18.0a"},{"town":"島田","koaza":"","lat":35.763607,"lng":140.101948,"version":"13.0b/18.0a"},{"town":"島田台","koaza":"","lat":35.763768,"lng":140.090199,"version":"13.0b/18.0a"},{"town":"下市場一丁目","koaza":"","lat":35.716798,"lng":140.118161,"version":"13.0b/18.0a"},{"town":"下市場二丁目","koaza":"","lat":35.717051,"lng":140.115299,"version":"13.0b/18.0a"},{"town":"下高野","koaza":"","lat":35.74746,"lng":140.136456,"version":"13.0b/18.0a"},{"town":"桑橋","koaza":"","lat":35.751461,"lng":140.080884,"version":"13.0b/18.0a"},{"town":"大学町一丁目","koaza":"","lat":35.773258,"lng":140.098923,"version":"13.0b/18.0a"},{"town":"大学町二丁目","koaza":"","lat":35.771826,"lng":140.101803,"version":"13.0b/18.0a"},{"town":"大学町三丁目","koaza":"","lat":35.773707,"lng":140.102603,"version":"13.0b/18.0a"},{"town":"大学町四丁目","koaza":"","lat":35.773417,"lng":140.10532,"version":"13.0b/18.0a"},{"town":"大学町五丁目","koaza":"","lat":35.775028,"lng":140.107674,"version":"13.0b/18.0a"},{"town":"大学町六丁目","koaza":"","lat":35.775702,"lng":140.10445,"version":"13.0b/18.0a"},{"town":"高津","koaza":"","lat":35.712651,"lng":140.078349,"version":"13.0b/18.0a"},{"town":"高津東一丁目","koaza":"","lat":35.711922,"lng":140.088803,"version":"13.0b/18.0a"},{"town":"高津東二丁目","koaza":"","lat":35.715292,"lng":140.090383,"version":"13.0b/18.0a"},{"town":"高津東三丁目","koaza":"","lat":35.716203,"lng":140.093833,"version":"13.0b/18.0a"},{"town":"高津東四丁目","koaza":"","lat":35.713996,"lng":140.092516,"version":"13.0b/18.0a"},{"town":"平戸","koaza":"","lat":35.771265,"lng":140.114179,"version":"13.0b/18.0a"},{"town":"保品","koaza":"","lat":35.758606,"lng":140.138168,"version":"13.0b/18.0a"},{"town":"堀の内","koaza":"","lat":35.771194,"lng":140.133192,"version":"13.0b/18.0a"},{"town":"真木野","koaza":"","lat":35.776541,"lng":140.099135,"version":"13.0b/18.0a"},{"town":"緑が丘一丁目","koaza":"","lat":35.730675,"lng":140.076559,"version":"13.0b/18.0a"},{"town":"緑が丘二丁目","koaza":"","lat":35.725406,"lng":140.071748,"version":"13.0b/18.0a"},{"town":"緑が丘三丁目","koaza":"","lat":35.727209,"lng":140.07583,"version":"13.0b/18.0a"},{"town":"緑が丘四丁目","koaza":"","lat":35.727973,"lng":140.077712,"version":"13.0b/18.0a"},{"town":"緑が丘五丁目","koaza":"","lat":35.730743,"lng":140.081562,"version":"13.0b/18.0a"},{"town":"麦丸","koaza":"","lat":35.746414,"lng":140.102716,"version":"13.0b/18.0a"},{"town":"村上","koaza":"","lat":35.728399,"lng":140.1194,"version":"13.0b/18.0a"},{"town":"村上南一丁目","koaza":"","lat":35.723137,"lng":140.119017,"version":"13.0b/18.0a"},{"town":"村上南二丁目","koaza":"","lat":35.725861,"lng":140.115524,"version":"13.0b/18.0a"},{"town":"村上南三丁目","koaza":"","lat":35.72159,"lng":140.115421,"version":"13.0b/18.0a"},{"town":"村上南四丁目","koaza":"","lat":35.719247,"lng":140.118382,"version":"13.0b/18.0a"},{"town":"村上南五丁目","koaza":"","lat":35.720619,"lng":140.121221,"version":"13.0b/18.0a"},{"town":"八千代台北十丁目","koaza":"","lat":35.710536,"lng":140.090904,"version":"13.0b/18.0a"},{"town":"八千代台北十一丁目","koaza":"","lat":35.707935,"lng":140.093779,"version":"13.0b/18.0a"},{"town":"八千代台北十二丁目","koaza":"","lat":35.708996,"lng":140.098509,"version":"13.0b/18.0a"},{"town":"八千代台北十三丁目","koaza":"","lat":35.710401,"lng":140.095072,"version":"13.0b/18.0a"},{"town":"八千代台北十四丁目","koaza":"","lat":35.712179,"lng":140.096243,"version":"13.0b/18.0a"},{"town":"八千代台北十五丁目","koaza":"","lat":35.710703,"lng":140.100946,"version":"13.0b/18.0a"},{"town":"八千代台北十六丁目","koaza":"","lat":35.712282,"lng":140.100769,"version":"13.0b/18.0a"},{"town":"八千代台北十七丁目","koaza":"","lat":35.71421,"lng":140.097223,"version":"13.0b/18.0a"},{"town":"八千代台北一丁目","koaza":"","lat":35.702449,"lng":140.091079,"version":"13.0b/18.0a"},{"town":"八千代台北二丁目","koaza":"","lat":35.703314,"lng":140.092201,"version":"13.0b/18.0a"},{"town":"八千代台北三丁目","koaza":"","lat":35.704649,"lng":140.092615,"version":"13.0b/18.0a"},{"town":"八千代台北四丁目","koaza":"","lat":35.705656,"lng":140.094137,"version":"13.0b/18.0a"},{"town":"八千代台北五丁目","koaza":"","lat":35.704513,"lng":140.090414,"version":"13.0b/18.0a"},{"town":"八千代台北六丁目","koaza":"","lat":35.703494,"lng":140.088817,"version":"13.0b/18.0a"},{"town":"八千代台北七丁目","koaza":"","lat":35.70633,"lng":140.08854,"version":"13.0b/18.0a"},{"town":"八千代台北八丁目","koaza":"","lat":35.706605,"lng":140.091346,"version":"13.0b/18.0a"},{"town":"八千代台北九丁目","koaza":"","lat":35.708101,"lng":140.089017,"version":"13.0b/18.0a"},{"town":"八千代台西十丁目","koaza":"","lat":35.698089,"lng":140.079017,"version":"13.0b/18.0a"},{"town":"八千代台西一丁目","koaza":"","lat":35.701373,"lng":140.088551,"version":"13.0b/18.0a"},{"town":"八千代台西二丁目","koaza":"","lat":35.701896,"lng":140.087111,"version":"13.0b/18.0a"},{"town":"八千代台西三丁目","koaza":"","lat":35.699926,"lng":140.086782,"version":"13.0b/18.0a"},{"town":"八千代台西四丁目","koaza":"","lat":35.698547,"lng":140.085588,"version":"13.0b/18.0a"},{"town":"八千代台西五丁目","koaza":"","lat":35.699873,"lng":140.083894,"version":"13.0b/18.0a"},{"town":"八千代台西六丁目","koaza":"","lat":35.7014,"lng":140.085052,"version":"13.0b/18.0a"},{"town":"八千代台西七丁目","koaza":"","lat":35.703406,"lng":140.086236,"version":"13.0b/18.0a"},{"town":"八千代台西八丁目","koaza":"","lat":35.699112,"lng":140.081105,"version":"13.0b/18.0a"},{"town":"八千代台西九丁目","koaza":"","lat":35.696212,"lng":140.082287,"version":"13.0b/18.0a"},{"town":"八千代台東一丁目","koaza":"","lat":35.70129,"lng":140.092874,"version":"13.0b/18.0a"},{"town":"八千代台東二丁目","koaza":"","lat":35.700081,"lng":140.096495,"version":"13.0b/18.0a"},{"town":"八千代台東三丁目","koaza":"","lat":35.703394,"lng":140.099611,"version":"13.0b/18.0a"},{"town":"八千代台東四丁目","koaza":"","lat":35.704647,"lng":140.096717,"version":"13.0b/18.0a"},{"town":"八千代台東五丁目","koaza":"","lat":35.708246,"lng":140.101227,"version":"13.0b/18.0a"},{"town":"八千代台東六丁目","koaza":"","lat":35.707657,"lng":140.103284,"version":"13.0b/18.0a"},{"town":"八千代台南一丁目","koaza":"","lat":35.698613,"lng":140.090509,"version":"13.0b/18.0a"},{"town":"八千代台南二丁目","koaza":"","lat":35.695585,"lng":140.092734,"version":"13.0b/18.0a"},{"town":"八千代台南三丁目","koaza":"","lat":35.695836,"lng":140.08784,"version":"13.0b/18.0a"},{"town":"ゆりのき台一丁目","koaza":"","lat":35.726831,"lng":140.101186,"version":"13.0b/18.0a"},{"town":"ゆりのき台二丁目","koaza":"","lat":35.726026,"lng":140.106098,"version":"13.0b/18.0a"},{"town":"ゆりのき台三丁目","koaza":"","lat":35.730894,"lng":140.10065,"version":"13.0b/18.0a"},{"town":"ゆりのき台四丁目","koaza":"","lat":35.729228,"lng":140.106518,"version":"13.0b/18.0a"},{"town":"ゆりのき台五丁目","koaza":"","lat":35.733178,"lng":140.103001,"version":"13.0b/18.0a"},{"town":"ゆりのき台六丁目","koaza":"","lat":35.733678,"lng":140.105458,"version":"13.0b/18.0a"},{"town":"ゆりのき台七丁目","koaza":"","lat":35.737356,"lng":140.102945,"version":"13.0b/18.0a"},{"town":"ゆりのき台八丁目","koaza":"","lat":35.738108,"lng":140.106501,"version":"13.0b/18.0a"},{"town":"吉橋","koaza":"","lat":35.740059,"lng":140.078473,"version":"13.0b/18.0a"},{"town":"米本","koaza":"","lat":35.755818,"lng":140.116032,"version":"13.0b/18.0a"},{"town":"緑が丘西一丁目","koaza":"","lat":35.730146,"lng":140.069284,"version":"13.0b/18.0a"},{"town":"緑が丘西二丁目","koaza":"","lat":35.731764,"lng":140.071975,"version":"13.0b/18.0a"},{"town":"緑が丘西三丁目","koaza":"","lat":35.736655,"lng":140.071581,"version":"13.0b/18.0a"},{"town":"緑が丘西四丁目","koaza":"","lat":35.736712,"lng":140.068912,"version":"13.0b/18.0a"},{"town":"緑が丘西五丁目","koaza":"","lat":35.740159,"lng":140.068172,"version":"13.0b/18.0a"},{"town":"緑が丘西六丁目","koaza":"","lat":35.743217,"lng":140.069375,"version":"13.0b/18.0a"},{"town":"緑が丘西七丁目","koaza":"","lat":35.74131,"lng":140.074058,"version":"13.0b/18.0a"},{"town":"緑が丘西八丁目","koaza":"","lat":35.744167,"lng":140.072585,"version":"13.0b/18.0a"},{"town":"神久保","koaza":"","lat":35.771972,"lng":140.092925,"version":"14.0b/19.0a"},{"town":"大和田","koaza":"","lat":35.715003,"lng":140.105085,"version":"14.0b/19.0a"},{"town":"大和田新田","koaza":"","lat":35.730495,"lng":140.090714,"version":"14.0b/19.0a"},{"town":"尾崎","koaza":"","lat":35.743128,"lng":140.093111,"version":"14.0b/19.0a"},{"town":"勝田","koaza":"","lat":35.703386,"lng":140.125872,"version":"14.0b/19.0a"},{"town":"勝田台一丁目","koaza":"","lat":35.713482,"lng":140.125796,"version":"14.0b/19.0a"},{"town":"勝田台二丁目","koaza":"","lat":35.710311,"lng":140.126167,"version":"14.0b/19.0a"},{"town":"勝田台三丁目","koaza":"","lat":35.708582,"lng":140.128101,"version":"14.0b/19.0a"},{"town":"勝田台四丁目","koaza":"","lat":35.707038,"lng":140.130575,"version":"14.0b/19.0a"},{"town":"勝田台五丁目","koaza":"","lat":35.705169,"lng":140.132193,"version":"14.0b/19.0a"},{"town":"勝田台六丁目","koaza":"","lat":35.703884,"lng":140.135081,"version":"14.0b/19.0a"},{"town":"勝田台七丁目","koaza":"","lat":35.713703,"lng":140.130699,"version":"14.0b/19.0a"},{"town":"勝田台北一丁目","koaza":"","lat":35.716277,"lng":140.122695,"version":"14.0b/19.0a"},{"town":"勝田台北二丁目","koaza":"","lat":35.71782,"lng":140.122555,"version":"14.0b/19.0a"},{"town":"勝田台北三丁目","koaza":"","lat":35.718661,"lng":140.127253,"version":"14.0b/19.0a"},{"town":"勝田台南一丁目","koaza":"","lat":35.713429,"lng":140.120857,"version":"14.0b/19.0a"},{"town":"勝田台南二丁目","koaza":"","lat":35.710276,"lng":140.121579,"version":"14.0b/19.0a"},{"town":"勝田台南三丁目","koaza":"","lat":35.71156,"lng":140.117496,"version":"14.0b/19.0a"},{"town":"神野","koaza":"","lat":35.766858,"lng":140.129691,"version":"14.0b/19.0a"},{"town":"上高野","koaza":"","lat":35.732643,"lng":140.132602,"version":"14.0b/19.0a"},{"town":"萱田","koaza":"","lat":35.73419,"lng":140.109593,"version":"14.0b/19.0a"},{"town":"萱田町","koaza":"","lat":35.72103,"lng":140.106757,"version":"14.0b/19.0a"},{"town":"桑納","koaza":"","lat":35.755521,"lng":140.100338,"version":"14.0b/19.0a"},{"town":"小池","koaza":"","lat":35.778728,"lng":140.092264,"version":"14.0b/19.0a"},{"town":"佐山","koaza":"","lat":35.776646,"lng":140.113948,"version":"14.0b/19.0a"},{"town":"島田","koaza":"","lat":35.763607,"lng":140.101948,"version":"14.0b/19.0a"},{"town":"島田台","koaza":"","lat":35.763768,"lng":140.090199,"version":"14.0b/19.0a"},{"town":"下市場一丁目","koaza":"","lat":35.716798,"lng":140.118161,"version":"14.0b/19.0a"},{"town":"下市場二丁目","koaza":"","lat":35.717051,"lng":140.115299,"version":"14.0b/19.0a"},{"town":"下高野","koaza":"","lat":35.74746,"lng":140.136456,"version":"14.0b/19.0a"},{"town":"桑橋","koaza":"","lat":35.751461,"lng":140.080884,"version":"14.0b/19.0a"},{"town":"大学町一丁目","koaza":"","lat":35.773258,"lng":140.098923,"version":"14.0b/19.0a"},{"town":"大学町二丁目","koaza":"","lat":35.771826,"lng":140.101803,"version":"14.0b/19.0a"},{"town":"大学町三丁目","koaza":"","lat":35.773707,"lng":140.102603,"version":"14.0b/19.0a"},{"town":"大学町四丁目","koaza":"","lat":35.773417,"lng":140.10532,"version":"14.0b/19.0a"},{"town":"大学町五丁目","koaza":"","lat":35.775028,"lng":140.107674,"version":"14.0b/19.0a"},{"town":"大学町六丁目","koaza":"","lat":35.775702,"lng":140.10445,"version":"14.0b/19.0a"},{"town":"高津","koaza":"","lat":35.712651,"lng":140.078349,"version":"14.0b/19.0a"},{"town":"高津東一丁目","koaza":"","lat":35.711922,"lng":140.088803,"version":"14.0b/19.0a"},{"town":"高津東二丁目","koaza":"","lat":35.715292,"lng":140.090383,"version":"14.0b/19.0a"},{"town":"高津東三丁目","koaza":"","lat":35.716203,"lng":140.093833,"version":"14.0b/19.0a"},{"town":"高津東四丁目","koaza":"","lat":35.713996,"lng":140.092516,"version":"14.0b/19.0a"},{"town":"平戸","koaza":"","lat":35.771265,"lng":140.114179,"version":"14.0b/19.0a"},{"town":"保品","koaza":"","lat":35.758606,"lng":140.138168,"version":"14.0b/19.0a"},{"town":"堀の内","koaza":"","lat":35.771194,"lng":140.133192,"version":"14.0b/19.0a"},{"town":"真木野","koaza":"","lat":35.776541,"lng":140.099135,"version":"14.0b/19.0a"},{"town":"緑が丘一丁目","koaza":"","lat":35.730675,"lng":140.076559,"version":"14.0b/19.0a"},{"town":"緑が丘二丁目","koaza":"","lat":35.725406,"lng":140.071748,"version":"14.0b/19.0a"},{"town":"緑が丘三丁目","koaza":"","lat":35.727209,"lng":140.07583,"version":"14.0b/19.0a"},{"town":"緑が丘四丁目","koaza":"","lat":35.727973,"lng":140.077712,"version":"14.0b/19.0a"},{"town":"緑が丘五丁目","koaza":"","lat":35.730743,"lng":140.081562,"version":"14.0b/19.0a"},{"town":"麦丸","koaza":"","lat":35.746414,"lng":140.102716,"version":"14.0b/19.0a"},{"town":"村上","koaza":"","lat":35.728399,"lng":140.1194,"version":"14.0b/19.0a"},{"town":"村上南一丁目","koaza":"","lat":35.723137,"lng":140.119017,"version":"14.0b/19.0a"},{"town":"村上南二丁目","koaza":"","lat":35.725861,"lng":140.115524,"version":"14.0b/19.0a"},{"town":"村上南三丁目","koaza":"","lat":35.72159,"lng":140.115421,"version":"14.0b/19.0a"},{"town":"村上南四丁目","koaza":"","lat":35.719247,"lng":140.118382,"version":"14.0b/19.0a"},{"town":"村上南五丁目","koaza":"","lat":35.720619,"lng":140.121221,"version":"14.0b/19.0a"},{"town":"八千代台北十丁目","koaza":"","lat":35.710536,"lng":140.090904,"version":"14.0b/19.0a"},{"town":"八千代台北十一丁目","koaza":"","lat":35.707935,"lng":140.093779,"version":"14.0b/19.0a"},{"town":"八千代台北十二丁目","koaza":"","lat":35.708996,"lng":140.098509,"version":"14.0b/19.0a"},{"town":"八千代台北十三丁目","koaza":"","lat":35.710401,"lng":140.095072,"version":"14.0b/19.0a"},{"town":"八千代台北十四丁目","koaza":"","lat":35.712179,"lng":140.096243,"version":"14.0b/19.0a"},{"town":"八千代台北十五丁目","koaza":"","lat":35.710703,"lng":140.100946,"version":"14.0b/19.0a"},{"town":"八千代台北十六丁目","koaza":"","lat":35.712282,"lng":140.100769,"version":"14.0b/19.0a"},{"town":"八千代台北十七丁目","koaza":"","lat":35.71421,"lng":140.097223,"version":"14.0b/19.0a"},{"town":"八千代台北一丁目","koaza":"","lat":35.702449,"lng":140.091079,"version":"14.0b/19.0a"},{"town":"八千代台北二丁目","koaza":"","lat":35.703314,"lng":140.092201,"version":"14.0b/19.0a"},{"town":"八千代台北三丁目","koaza":"","lat":35.704649,"lng":140.092615,"version":"14.0b/19.0a"},{"town":"八千代台北四丁目","koaza":"","lat":35.705656,"lng":140.094137,"version":"14.0b/19.0a"},{"town":"八千代台北五丁目","koaza":"","lat":35.704513,"lng":140.090414,"version":"14.0b/19.0a"},{"town":"八千代台北六丁目","koaza":"","lat":35.703494,"lng":140.088817,"version":"14.0b/19.0a"},{"town":"八千代台北七丁目","koaza":"","lat":35.70633,"lng":140.08854,"version":"14.0b/19.0a"},{"town":"八千代台北八丁目","koaza":"","lat":35.706605,"lng":140.091346,"version":"14.0b/19.0a"},{"town":"八千代台北九丁目","koaza":"","lat":35.708101,"lng":140.089017,"version":"14.0b/19.0a"},{"town":"八千代台西十丁目","koaza":"","lat":35.698089,"lng":140.079017,"version":"14.0b/19.0a"},{"town":"八千代台西一丁目","koaza":"","lat":35.701373,"lng":140.088551,"version":"14.0b/19.0a"},{"town":"八千代台西二丁目","koaza":"","lat":35.701896,"lng":140.087111,"version":"14.0b/19.0a"},{"town":"八千代台西三丁目","koaza":"","lat":35.699926,"lng":140.086782,"version":"14.0b/19.0a"},{"town":"八千代台西四丁目","koaza":"","lat":35.698547,"lng":140.085588,"version":"14.0b/19.0a"},{"town":"八千代台西五丁目","koaza":"","lat":35.699873,"lng":140.083894,"version":"14.0b/19.0a"},{"town":"八千代台西六丁目","koaza":"","lat":35.7014,"lng":140.085052,"version":"14.0b/19.0a"},{"town":"八千代台西七丁目","koaza":"","lat":35.703406,"lng":140.086236,"version":"14.0b/19.0a"},{"town":"八千代台西八丁目","koaza":"","lat":35.699112,"lng":140.081105,"version":"14.0b/19.0a"},{"town":"八千代台西九丁目","koaza":"","lat":35.696212,"lng":140.082287,"version":"14.0b/19.0a"},{"town":"八千代台東一丁目","koaza":"","lat":35.70129,"lng":140.092874,"version":"14.0b/19.0a"},{"town":"八千代台東二丁目","koaza":"","lat":35.700081,"lng":140.096495,"version":"14.0b/19.0a"},{"town":"八千代台東三丁目","koaza":"","lat":35.703394,"lng":140.099611,"version":"14.0b/19.0a"},{"town":"八千代台東四丁目","koaza":"","lat":35.704647,"lng":140.096717,"version":"14.0b/19.0a"},{"town":"八千代台東五丁目","koaza":"","lat":35.708246,"lng":140.101227,"version":"14.0b/19.0a"},{"town":"八千代台東六丁目","koaza":"","lat":35.707657,"lng":140.103284,"version":"14.0b/19.0a"},{"town":"八千代台南一丁目","koaza":"","lat":35.698613,"lng":140.090509,"version":"14.0b/19.0a"},{"town":"八千代台南二丁目","koaza":"","lat":35.695585,"lng":140.092734,"version":"14.0b/19.0a"},{"town":"八千代台南三丁目","koaza":"","lat":35.695836,"lng":140.08784,"version":"14.0b/19.0a"},{"town":"ゆりのき台一丁目","koaza":"","lat":35.726831,"lng":140.101186,"version":"14.0b/19.0a"},{"town":"ゆりのき台二丁目","koaza":"","lat":35.726026,"lng":140.106098,"version":"14.0b/19.0a"},{"town":"ゆりのき台三丁目","koaza":"","lat":35.730894,"lng":140.10065,"version":"14.0b/19.0a"},{"town":"ゆりのき台四丁目","koaza":"","lat":35.729228,"lng":140.106518,"version":"14.0b/19.0a"},{"town":"ゆりのき台五丁目","koaza":"","lat":35.733178,"lng":140.103001,"version":"14.0b/19.0a"},{"town":"ゆりのき台六丁目","koaza":"","lat":35.733678,"lng":140.105458,"version":"14.0b/19.0a"},{"town":"ゆりのき台七丁目","koaza":"","lat":35.737356,"lng":140.102945,"version":"14.0b/19.0a"},{"town":"ゆりのき台八丁目","koaza":"","lat":35.738108,"lng":140.106501,"version":"14.0b/19.0a"},{"town":"吉橋","koaza":"","lat":35.740059,"lng":140.078473,"version":"14.0b/19.0a"},{"town":"米本","koaza":"","lat":35.755818,"lng":140.116032,"version":"14.0b/19.0a"},{"town":"緑が丘西一丁目","koaza":"","lat":35.730146,"lng":140.069284,"version":"14.0b/19.0a"},{"town":"緑が丘西二丁目","koaza":"","lat":35.731764,"lng":140.071975,"version":"14.0b/19.0a"},{"town":"緑が丘西三丁目","koaza":"","lat":35.736655,"lng":140.071581,"version":"14.0b/19.0a"},{"town":"緑が丘西四丁目","koaza":"","lat":35.736712,"lng":140.068912,"version":"14.0b/19.0a"},{"town":"緑が丘西五丁目","koaza":"","lat":35.740159,"lng":140.068172,"version":"14.0b/19.0a"},{"town":"緑が丘西六丁目","koaza":"","lat":35.743217,"lng":140.069375,"version":"14.0b/19.0a"},{"town":"緑が丘西七丁目","koaza":"","lat":35.74131,"lng":140.074058,"version":"14.0b/19.0a"},{"town":"緑が丘西八丁目","koaza":"","lat":35.744167,"lng":140.072585,"version":"14.0b/19.0a"}]