[{"town":"明海一丁目","koaza":"","lat":35.644934,"lng":139.918976,"version":"13.0b/18.0a"},{"town":"明海二丁目","koaza":"","lat":35.642102,"lng":139.916512,"version":"13.0b/18.0a"},{"town":"明海三丁目","koaza":"","lat":35.639395,"lng":139.920017,"version":"13.0b/18.0a"},{"town":"明海四丁目","koaza":"","lat":35.641528,"lng":139.921492,"version":"13.0b/18.0a"},{"town":"明海五丁目","koaza":"","lat":35.639648,"lng":139.925569,"version":"13.0b/18.0a"},{"town":"明海六丁目","koaza":"","lat":35.636935,"lng":139.923015,"version":"13.0b/18.0a"},{"town":"明海七丁目","koaza":"","lat":35.63611,"lng":139.928608,"version":"13.0b/18.0a"},{"town":"今川一丁目","koaza":"","lat":35.644262,"lng":139.908071,"version":"13.0b/18.0a"},{"town":"今川二丁目","koaza":"","lat":35.642389,"lng":139.910399,"version":"13.0b/18.0a"},{"town":"今川三丁目","koaza":"","lat":35.63955,"lng":139.907001,"version":"13.0b/18.0a"},{"town":"今川四丁目","koaza":"","lat":35.641308,"lng":139.904556,"version":"13.0b/18.0a"},{"town":"入船一丁目","koaza":"","lat":35.649062,"lng":139.913799,"version":"13.0b/18.0a"},{"town":"入船二丁目","koaza":"","lat":35.646858,"lng":139.911174,"version":"13.0b/18.0a"},{"town":"入船三丁目","koaza":"","lat":35.646154,"lng":139.914904,"version":"13.0b/18.0a"},{"town":"入船四丁目","koaza":"","lat":35.650372,"lng":139.920521,"version":"13.0b/18.0a"},{"town":"入船五丁目","koaza":"","lat":35.65361,"lng":139.918628,"version":"13.0b/18.0a"},{"town":"入船六丁目","koaza":"","lat":35.651178,"lng":139.916257,"version":"13.0b/18.0a"},{"town":"海楽一丁目","koaza":"","lat":35.654221,"lng":139.90469,"version":"13.0b/18.0a"},{"town":"海楽二丁目","koaza":"","lat":35.659322,"lng":139.907861,"version":"13.0b/18.0a"},{"town":"北栄一丁目","koaza":"","lat":35.666007,"lng":139.895487,"version":"13.0b/18.0a"},{"town":"北栄二丁目","koaza":"","lat":35.668938,"lng":139.897345,"version":"13.0b/18.0a"},{"town":"北栄三丁目","koaza":"","lat":35.665442,"lng":139.900256,"version":"13.0b/18.0a"},{"town":"北栄四丁目","koaza":"","lat":35.661845,"lng":139.903084,"version":"13.0b/18.0a"},{"town":"高洲一丁目","koaza":"","lat":35.640315,"lng":139.913485,"version":"13.0b/18.0a"},{"town":"高洲二丁目","koaza":"","lat":35.637848,"lng":139.90936,"version":"13.0b/18.0a"},{"town":"高洲三丁目","koaza":"","lat":35.635961,"lng":139.911411,"version":"13.0b/18.0a"},{"town":"高洲四丁目","koaza":"","lat":35.635454,"lng":139.915817,"version":"13.0b/18.0a"},{"town":"高洲五丁目","koaza":"","lat":35.637817,"lng":139.917761,"version":"13.0b/18.0a"},{"town":"高洲六丁目","koaza":"","lat":35.635292,"lng":139.920757,"version":"13.0b/18.0a"},{"town":"高洲七丁目","koaza":"","lat":35.633288,"lng":139.918154,"version":"13.0b/18.0a"},{"town":"高洲八丁目","koaza":"","lat":35.632068,"lng":139.914728,"version":"13.0b/18.0a"},{"town":"高洲九丁目","koaza":"","lat":35.631545,"lng":139.920609,"version":"13.0b/18.0a"},{"town":"千鳥","koaza":"","lat":35.623781,"lng":139.90009,"version":"13.0b/18.0a"},{"town":"鉄鋼通り一丁目","koaza":"","lat":35.637422,"lng":139.902131,"version":"13.0b/18.0a"},{"town":"鉄鋼通り二丁目","koaza":"","lat":35.634269,"lng":139.898379,"version":"13.0b/18.0a"},{"town":"鉄鋼通り三丁目","koaza":"","lat":35.631517,"lng":139.89488,"version":"13.0b/18.0a"},{"town":"当代島一丁目","koaza":"","lat":35.666648,"lng":139.890208,"version":"13.0b/18.0a"},{"town":"当代島二丁目","koaza":"","lat":35.669561,"lng":139.89049,"version":"13.0b/18.0a"},{"town":"当代島三丁目","koaza":"","lat":35.671215,"lng":139.891089,"version":"13.0b/18.0a"},{"town":"富岡一丁目","koaza":"","lat":35.648361,"lng":139.902928,"version":"13.0b/18.0a"},{"town":"富岡二丁目","koaza":"","lat":35.646241,"lng":139.905587,"version":"13.0b/18.0a"},{"town":"富岡三丁目","koaza":"","lat":35.643285,"lng":139.902056,"version":"13.0b/18.0a"},{"town":"富岡四丁目","koaza":"","lat":35.645407,"lng":139.899409,"version":"13.0b/18.0a"},{"town":"猫実一丁目","koaza":"","lat":35.655498,"lng":139.901665,"version":"13.0b/18.0a"},{"town":"猫実二丁目","koaza":"","lat":35.65946,"lng":139.89916,"version":"13.0b/18.0a"},{"town":"猫実三丁目","koaza":"","lat":35.661599,"lng":139.897042,"version":"13.0b/18.0a"},{"town":"猫実四丁目","koaza":"","lat":35.662941,"lng":139.893757,"version":"13.0b/18.0a"},{"town":"猫実五丁目","koaza":"","lat":35.664071,"lng":139.889264,"version":"13.0b/18.0a"},{"town":"東野一丁目","koaza":"","lat":35.650989,"lng":139.89963,"version":"13.0b/18.0a"},{"town":"東野二丁目","koaza":"","lat":35.64916,"lng":139.895231,"version":"13.0b/18.0a"},{"town":"東野三丁目","koaza":"","lat":35.643398,"lng":139.892443,"version":"13.0b/18.0a"},{"town":"日の出一丁目","koaza":"","lat":35.646694,"lng":139.92249,"version":"13.0b/18.0a"},{"town":"日の出二丁目","koaza":"","lat":35.649273,"lng":139.924203,"version":"13.0b/18.0a"},{"town":"日の出三丁目","koaza":"","lat":35.646797,"lng":139.928332,"version":"13.0b/18.0a"},{"town":"日の出四丁目","koaza":"","lat":35.644518,"lng":139.925875,"version":"13.0b/18.0a"},{"town":"日の出五丁目","koaza":"","lat":35.641685,"lng":139.928753,"version":"13.0b/18.0a"},{"town":"日の出六丁目","koaza":"","lat":35.644162,"lng":139.93206,"version":"13.0b/18.0a"},{"town":"日の出七丁目","koaza":"","lat":35.640239,"lng":139.932235,"version":"13.0b/18.0a"},{"town":"日の出八丁目","koaza":"","lat":35.640357,"lng":139.936597,"version":"13.0b/18.0a"},{"town":"富士見一丁目","koaza":"","lat":35.650666,"lng":139.892543,"version":"13.0b/18.0a"},{"town":"富士見二丁目","koaza":"","lat":35.652121,"lng":139.888968,"version":"13.0b/18.0a"},{"town":"富士見三丁目","koaza":"","lat":35.647521,"lng":139.886684,"version":"13.0b/18.0a"},{"town":"富士見四丁目","koaza":"","lat":35.647512,"lng":139.890447,"version":"13.0b/18.0a"},{"town":"富士見五丁目","koaza":"","lat":35.642189,"lng":139.888127,"version":"13.0b/18.0a"},{"town":"弁天一丁目","koaza":"","lat":35.642437,"lng":139.89585,"version":"13.0b/18.0a"},{"town":"弁天二丁目","koaza":"","lat":35.640306,"lng":139.898472,"version":"13.0b/18.0a"},{"town":"弁天三丁目","koaza":"","lat":35.637183,"lng":139.894742,"version":"13.0b/18.0a"},{"town":"弁天四丁目","koaza":"","lat":35.639368,"lng":139.892124,"version":"13.0b/18.0a"},{"town":"堀江一丁目","koaza":"","lat":35.65554,"lng":139.897839,"version":"13.0b/18.0a"},{"town":"堀江二丁目","koaza":"","lat":35.658224,"lng":139.894576,"version":"13.0b/18.0a"},{"town":"堀江三丁目","koaza":"","lat":35.659449,"lng":139.892508,"version":"13.0b/18.0a"},{"town":"堀江四丁目","koaza":"","lat":35.660348,"lng":139.889278,"version":"13.0b/18.0a"},{"town":"堀江五丁目","koaza":"","lat":35.655758,"lng":139.890498,"version":"13.0b/18.0a"},{"town":"堀江六丁目","koaza":"","lat":35.65366,"lng":139.895064,"version":"13.0b/18.0a"},{"town":"舞浜","koaza":"","lat":35.632144,"lng":139.881635,"version":"13.0b/18.0a"},{"town":"舞浜二丁目","koaza":"","lat":35.641821,"lng":139.882566,"version":"13.0b/18.0a"},{"town":"舞浜三丁目","koaza":"","lat":35.635569,"lng":139.889785,"version":"13.0b/18.0a"},{"town":"港","koaza":"","lat":35.630923,"lng":139.910278,"version":"13.0b/18.0a"},{"town":"美浜一丁目","koaza":"","lat":35.651038,"lng":139.911283,"version":"13.0b/18.0a"},{"town":"美浜二丁目","koaza":"","lat":35.648843,"lng":139.90869,"version":"13.0b/18.0a"},{"town":"美浜三丁目","koaza":"","lat":35.651851,"lng":139.907625,"version":"13.0b/18.0a"},{"town":"美浜四丁目","koaza":"","lat":35.656258,"lng":139.912299,"version":"13.0b/18.0a"},{"town":"美浜五丁目","koaza":"","lat":35.654026,"lng":139.915286,"version":"13.0b/18.0a"},{"town":"明海一丁目","koaza":"","lat":35.644934,"lng":139.918976,"version":"14.0b/19.0a"},{"town":"明海二丁目","koaza":"","lat":35.642102,"lng":139.916512,"version":"14.0b/19.0a"},{"town":"明海三丁目","koaza":"","lat":35.639395,"lng":139.920017,"version":"14.0b/19.0a"},{"town":"明海四丁目","koaza":"","lat":35.641528,"lng":139.921492,"version":"14.0b/19.0a"},{"town":"明海五丁目","koaza":"","lat":35.639648,"lng":139.925569,"version":"14.0b/19.0a"},{"town":"明海六丁目","koaza":"","lat":35.636935,"lng":139.923015,"version":"14.0b/19.0a"},{"town":"明海七丁目","koaza":"","lat":35.63611,"lng":139.928608,"version":"14.0b/19.0a"},{"town":"今川一丁目","koaza":"","lat":35.644262,"lng":139.908071,"version":"14.0b/19.0a"},{"town":"今川二丁目","koaza":"","lat":35.642389,"lng":139.910399,"version":"14.0b/19.0a"},{"town":"今川三丁目","koaza":"","lat":35.63955,"lng":139.907001,"version":"14.0b/19.0a"},{"town":"今川四丁目","koaza":"","lat":35.641308,"lng":139.904556,"version":"14.0b/19.0a"},{"town":"入船一丁目","koaza":"","lat":35.649062,"lng":139.913799,"version":"14.0b/19.0a"},{"town":"入船二丁目","koaza":"","lat":35.646858,"lng":139.911174,"version":"14.0b/19.0a"},{"town":"入船三丁目","koaza":"","lat":35.646154,"lng":139.914904,"version":"14.0b/19.0a"},{"town":"入船四丁目","koaza":"","lat":35.650372,"lng":139.920521,"version":"14.0b/19.0a"},{"town":"入船五丁目","koaza":"","lat":35.65361,"lng":139.918628,"version":"14.0b/19.0a"},{"town":"入船六丁目","koaza":"","lat":35.651178,"lng":139.916257,"version":"14.0b/19.0a"},{"town":"海楽一丁目","koaza":"","lat":35.654221,"lng":139.90469,"version":"14.0b/19.0a"},{"town":"海楽二丁目","koaza":"","lat":35.659322,"lng":139.907861,"version":"14.0b/19.0a"},{"town":"北栄一丁目","koaza":"","lat":35.666007,"lng":139.895487,"version":"14.0b/19.0a"},{"town":"北栄二丁目","koaza":"","lat":35.668938,"lng":139.897345,"version":"14.0b/19.0a"},{"town":"北栄三丁目","koaza":"","lat":35.665442,"lng":139.900256,"version":"14.0b/19.0a"},{"town":"北栄四丁目","koaza":"","lat":35.661845,"lng":139.903084,"version":"14.0b/19.0a"},{"town":"高洲一丁目","koaza":"","lat":35.640315,"lng":139.913485,"version":"14.0b/19.0a"},{"town":"高洲二丁目","koaza":"","lat":35.637848,"lng":139.90936,"version":"14.0b/19.0a"},{"town":"高洲三丁目","koaza":"","lat":35.635961,"lng":139.911411,"version":"14.0b/19.0a"},{"town":"高洲四丁目","koaza":"","lat":35.635454,"lng":139.915817,"version":"14.0b/19.0a"},{"town":"高洲五丁目","koaza":"","lat":35.637817,"lng":139.917761,"version":"14.0b/19.0a"},{"town":"高洲六丁目","koaza":"","lat":35.635292,"lng":139.920757,"version":"14.0b/19.0a"},{"town":"高洲七丁目","koaza":"","lat":35.633288,"lng":139.918154,"version":"14.0b/19.0a"},{"town":"高洲八丁目","koaza":"","lat":35.632068,"lng":139.914728,"version":"14.0b/19.0a"},{"town":"高洲九丁目","koaza":"","lat":35.631545,"lng":139.920609,"version":"14.0b/19.0a"},{"town":"千鳥","koaza":"","lat":35.623781,"lng":139.90009,"version":"14.0b/19.0a"},{"town":"鉄鋼通り一丁目","koaza":"","lat":35.637422,"lng":139.902131,"version":"14.0b/19.0a"},{"town":"鉄鋼通り二丁目","koaza":"","lat":35.634269,"lng":139.898379,"version":"14.0b/19.0a"},{"town":"鉄鋼通り三丁目","koaza":"","lat":35.631517,"lng":139.89488,"version":"14.0b/19.0a"},{"town":"当代島一丁目","koaza":"","lat":35.666648,"lng":139.890208,"version":"14.0b/19.0a"},{"town":"当代島二丁目","koaza":"","lat":35.669561,"lng":139.89049,"version":"14.0b/19.0a"},{"town":"当代島三丁目","koaza":"","lat":35.671215,"lng":139.891089,"version":"14.0b/19.0a"},{"town":"富岡一丁目","koaza":"","lat":35.648361,"lng":139.902928,"version":"14.0b/19.0a"},{"town":"富岡二丁目","koaza":"","lat":35.646241,"lng":139.905587,"version":"14.0b/19.0a"},{"town":"富岡三丁目","koaza":"","lat":35.643285,"lng":139.902056,"version":"14.0b/19.0a"},{"town":"富岡四丁目","koaza":"","lat":35.645407,"lng":139.899409,"version":"14.0b/19.0a"},{"town":"猫実一丁目","koaza":"","lat":35.655498,"lng":139.901665,"version":"14.0b/19.0a"},{"town":"猫実二丁目","koaza":"","lat":35.65946,"lng":139.89916,"version":"14.0b/19.0a"},{"town":"猫実三丁目","koaza":"","lat":35.661599,"lng":139.897042,"version":"14.0b/19.0a"},{"town":"猫実四丁目","koaza":"","lat":35.662941,"lng":139.893757,"version":"14.0b/19.0a"},{"town":"猫実五丁目","koaza":"","lat":35.664071,"lng":139.889264,"version":"14.0b/19.0a"},{"town":"東野一丁目","koaza":"","lat":35.650989,"lng":139.89963,"version":"14.0b/19.0a"},{"town":"東野二丁目","koaza":"","lat":35.64916,"lng":139.895231,"version":"14.0b/19.0a"},{"town":"東野三丁目","koaza":"","lat":35.643398,"lng":139.892443,"version":"14.0b/19.0a"},{"town":"日の出一丁目","koaza":"","lat":35.646694,"lng":139.92249,"version":"14.0b/19.0a"},{"town":"日の出二丁目","koaza":"","lat":35.649273,"lng":139.924203,"version":"14.0b/19.0a"},{"town":"日の出三丁目","koaza":"","lat":35.646797,"lng":139.928332,"version":"14.0b/19.0a"},{"town":"日の出四丁目","koaza":"","lat":35.644518,"lng":139.925875,"version":"14.0b/19.0a"},{"town":"日の出五丁目","koaza":"","lat":35.641685,"lng":139.928753,"version":"14.0b/19.0a"},{"town":"日の出六丁目","koaza":"","lat":35.644162,"lng":139.93206,"version":"14.0b/19.0a"},{"town":"日の出七丁目","koaza":"","lat":35.640239,"lng":139.932235,"version":"14.0b/19.0a"},{"town":"日の出八丁目","koaza":"","lat":35.640357,"lng":139.936597,"version":"14.0b/19.0a"},{"town":"富士見一丁目","koaza":"","lat":35.650666,"lng":139.892543,"version":"14.0b/19.0a"},{"town":"富士見二丁目","koaza":"","lat":35.652121,"lng":139.888968,"version":"14.0b/19.0a"},{"town":"富士見三丁目","koaza":"","lat":35.647521,"lng":139.886684,"version":"14.0b/19.0a"},{"town":"富士見四丁目","koaza":"","lat":35.647512,"lng":139.890447,"version":"14.0b/19.0a"},{"town":"富士見五丁目","koaza":"","lat":35.642189,"lng":139.888127,"version":"14.0b/19.0a"},{"town":"弁天一丁目","koaza":"","lat":35.642437,"lng":139.89585,"version":"14.0b/19.0a"},{"town":"弁天二丁目","koaza":"","lat":35.640306,"lng":139.898472,"version":"14.0b/19.0a"},{"town":"弁天三丁目","koaza":"","lat":35.637183,"lng":139.894742,"version":"14.0b/19.0a"},{"town":"弁天四丁目","koaza":"","lat":35.639368,"lng":139.892124,"version":"14.0b/19.0a"},{"town":"堀江一丁目","koaza":"","lat":35.65554,"lng":139.897839,"version":"14.0b/19.0a"},{"town":"堀江二丁目","koaza":"","lat":35.658224,"lng":139.894576,"version":"14.0b/19.0a"},{"town":"堀江三丁目","koaza":"","lat":35.659449,"lng":139.892508,"version":"14.0b/19.0a"},{"town":"堀江四丁目","koaza":"","lat":35.660348,"lng":139.889278,"version":"14.0b/19.0a"},{"town":"堀江五丁目","koaza":"","lat":35.655758,"lng":139.890498,"version":"14.0b/19.0a"},{"town":"堀江六丁目","koaza":"","lat":35.65366,"lng":139.895064,"version":"14.0b/19.0a"},{"town":"舞浜","koaza":"","lat":35.632144,"lng":139.881635,"version":"14.0b/19.0a"},{"town":"舞浜二丁目","koaza":"","lat":35.641821,"lng":139.882566,"version":"14.0b/19.0a"},{"town":"舞浜三丁目","koaza":"","lat":35.635569,"lng":139.889785,"version":"14.0b/19.0a"},{"town":"港","koaza":"","lat":35.630923,"lng":139.910278,"version":"14.0b/19.0a"},{"town":"美浜一丁目","koaza":"","lat":35.651038,"lng":139.911283,"version":"14.0b/19.0a"},{"town":"美浜二丁目","koaza":"","lat":35.648843,"lng":139.90869,"version":"14.0b/19.0a"},{"town":"美浜三丁目","koaza":"","lat":35.651851,"lng":139.907625,"version":"14.0b/19.0a"},{"town":"美浜四丁目","koaza":"","lat":35.656258,"lng":139.912299,"version":"14.0b/19.0a"},{"town":"美浜五丁目","koaza":"","lat":35.654026,"lng":139.915286,"version":"14.0b/19.0a"}]