[{"town":"岩井","koaza":"","lat":35.35058,"lng":140.337982,"version":"13.0b/18.0a"},{"town":"大上","koaza":"","lat":35.336887,"lng":140.289669,"version":"13.0b/18.0a"},{"town":"大谷木","koaza":"","lat":35.372833,"lng":140.314629,"version":"13.0b/18.0a"},{"town":"上市場","koaza":"","lat":35.37358,"lng":140.333378,"version":"13.0b/18.0a"},{"town":"上之郷","koaza":"","lat":35.35087,"lng":140.310249,"version":"13.0b/18.0a"},{"town":"川島","koaza":"","lat":35.38431,"lng":140.340771,"version":"13.0b/18.0a"},{"town":"河須ケ谷","koaza":"","lat":35.363882,"lng":140.343171,"version":"13.0b/18.0a"},{"town":"北山田","koaza":"","lat":35.376703,"lng":140.322725,"version":"13.0b/18.0a"},{"town":"北山田寺崎新田","koaza":"","lat":35.385395,"lng":140.31623,"version":"13.0b/18.0a"},{"town":"小滝","koaza":"","lat":35.360586,"lng":140.339404,"version":"13.0b/18.0a"},{"town":"佐貫","koaza":"","lat":35.339952,"lng":140.264693,"version":"13.0b/18.0a"},{"town":"下之郷","koaza":"","lat":35.355518,"lng":140.32525,"version":"13.0b/18.0a"},{"town":"長楽寺","koaza":"","lat":35.358509,"lng":140.301406,"version":"13.0b/18.0a"},{"town":"寺崎","koaza":"","lat":35.384002,"lng":140.328782,"version":"13.0b/18.0a"},{"town":"妙楽寺","koaza":"","lat":35.329013,"lng":140.271958,"version":"13.0b/18.0a"},{"town":"森","koaza":"","lat":35.358842,"lng":140.307642,"version":"13.0b/18.0a"},{"town":"岩井","koaza":"","lat":35.35058,"lng":140.337982,"version":"14.0b/19.0a"},{"town":"大上","koaza":"","lat":35.336887,"lng":140.289669,"version":"14.0b/19.0a"},{"town":"大谷木","koaza":"","lat":35.372833,"lng":140.314629,"version":"14.0b/19.0a"},{"town":"上市場","koaza":"","lat":35.37358,"lng":140.333378,"version":"14.0b/19.0a"},{"town":"上之郷","koaza":"","lat":35.35087,"lng":140.310249,"version":"14.0b/19.0a"},{"town":"川島","koaza":"","lat":35.38431,"lng":140.340771,"version":"14.0b/19.0a"},{"town":"河須ケ谷","koaza":"","lat":35.363882,"lng":140.343171,"version":"14.0b/19.0a"},{"town":"北山田","koaza":"","lat":35.376703,"lng":140.322725,"version":"14.0b/19.0a"},{"town":"北山田寺崎新田","koaza":"","lat":35.385395,"lng":140.31623,"version":"14.0b/19.0a"},{"town":"小滝","koaza":"","lat":35.360586,"lng":140.339404,"version":"14.0b/19.0a"},{"town":"佐貫","koaza":"","lat":35.339952,"lng":140.264693,"version":"14.0b/19.0a"},{"town":"下之郷","koaza":"","lat":35.355518,"lng":140.32525,"version":"14.0b/19.0a"},{"town":"長楽寺","koaza":"","lat":35.358509,"lng":140.301406,"version":"14.0b/19.0a"},{"town":"寺崎","koaza":"","lat":35.384002,"lng":140.328782,"version":"14.0b/19.0a"},{"town":"妙楽寺","koaza":"","lat":35.329013,"lng":140.271958,"version":"14.0b/19.0a"},{"town":"森","koaza":"","lat":35.358842,"lng":140.307642,"version":"14.0b/19.0a"}]