[{"town":"大字赤城原","koaza":"","lat":36.594054,"lng":139.131615,"version":"13.0b/18.0a"},{"town":"大字糸井","koaza":"","lat":36.623233,"lng":139.100269,"version":"13.0b/18.0a"},{"town":"大字生越","koaza":"","lat":36.641606,"lng":139.118884,"version":"13.0b/18.0a"},{"town":"大字貝野瀬","koaza":"","lat":36.634992,"lng":139.110092,"version":"13.0b/18.0a"},{"town":"大字川額","koaza":"","lat":36.597862,"lng":139.054537,"version":"13.0b/18.0a"},{"town":"大字橡久保","koaza":"","lat":36.61984,"lng":139.064356,"version":"13.0b/18.0a"},{"town":"大字森下","koaza":"","lat":36.60745,"lng":139.064512,"version":"13.0b/18.0a"},{"town":"大字赤城原","koaza":"","lat":36.594054,"lng":139.131615,"version":"14.0b/19.0a"},{"town":"大字糸井","koaza":"","lat":36.623233,"lng":139.100269,"version":"14.0b/19.0a"},{"town":"大字生越","koaza":"","lat":36.641606,"lng":139.118884,"version":"14.0b/19.0a"},{"town":"大字貝野瀬","koaza":"","lat":36.634992,"lng":139.110092,"version":"14.0b/19.0a"},{"town":"大字川額","koaza":"","lat":36.597862,"lng":139.054537,"version":"14.0b/19.0a"},{"town":"大字橡久保","koaza":"","lat":36.61984,"lng":139.064356,"version":"14.0b/19.0a"},{"town":"大字森下","koaza":"","lat":36.60745,"lng":139.064512,"version":"14.0b/19.0a"}]