[{"town":"大字漆原","koaza":"","lat":36.441729,"lng":139.031572,"version":"13.0b/18.0a"},{"town":"大字大久保","koaza":"","lat":36.434249,"lng":139.020498,"version":"13.0b/18.0a"},{"town":"大字小倉","koaza":"","lat":36.460261,"lng":138.994774,"version":"13.0b/18.0a"},{"town":"大字上野田","koaza":"","lat":36.461722,"lng":138.963905,"version":"13.0b/18.0a"},{"town":"大字北下","koaza":"","lat":36.445647,"lng":138.999374,"version":"13.0b/18.0a"},{"town":"大字下野田","koaza":"","lat":36.453225,"lng":139.011175,"version":"13.0b/18.0a"},{"town":"大字陣場","koaza":"","lat":36.430932,"lng":139.003007,"version":"13.0b/18.0a"},{"town":"大字南下","koaza":"","lat":36.439403,"lng":139.002016,"version":"13.0b/18.0a"},{"town":"大字漆原","koaza":"","lat":36.441729,"lng":139.031572,"version":"14.0b/19.0a"},{"town":"大字大久保","koaza":"","lat":36.434249,"lng":139.020498,"version":"14.0b/19.0a"},{"town":"大字小倉","koaza":"","lat":36.460261,"lng":138.994774,"version":"14.0b/19.0a"},{"town":"大字上野田","koaza":"","lat":36.461722,"lng":138.963905,"version":"14.0b/19.0a"},{"town":"大字北下","koaza":"","lat":36.445647,"lng":138.999374,"version":"14.0b/19.0a"},{"town":"大字下野田","koaza":"","lat":36.453225,"lng":139.011175,"version":"14.0b/19.0a"},{"town":"大字陣場","koaza":"","lat":36.430932,"lng":139.003007,"version":"14.0b/19.0a"},{"town":"大字南下","koaza":"","lat":36.439403,"lng":139.002016,"version":"14.0b/19.0a"}]