[{"town":"大字相原","koaza":"","lat":36.102071,"lng":138.878664,"version":"13.0b/18.0a"},{"town":"大字青梨","koaza":"","lat":36.094839,"lng":138.880027,"version":"13.0b/18.0a"},{"town":"大字麻生","koaza":"","lat":36.110044,"lng":138.944952,"version":"13.0b/18.0a"},{"town":"大字尾附","koaza":"","lat":36.09604,"lng":138.803932,"version":"13.0b/18.0a"},{"town":"大字神ケ原","koaza":"","lat":36.080009,"lng":138.840106,"version":"13.0b/18.0a"},{"town":"大字柏木","koaza":"","lat":36.127345,"lng":138.943375,"version":"13.0b/18.0a"},{"town":"大字黒田","koaza":"","lat":36.117841,"lng":138.893356,"version":"13.0b/18.0a"},{"town":"大字小平","koaza":"","lat":36.101089,"lng":138.894866,"version":"13.0b/18.0a"},{"town":"大字塩沢","koaza":"","lat":36.134341,"lng":138.879764,"version":"13.0b/18.0a"},{"town":"大字生利","koaza":"","lat":36.120272,"lng":138.926229,"version":"13.0b/18.0a"},{"town":"大字船子","koaza":"","lat":36.117288,"lng":138.862427,"version":"13.0b/18.0a"},{"town":"大字平原","koaza":"","lat":36.119951,"lng":138.804472,"version":"13.0b/18.0a"},{"town":"大字万場","koaza":"","lat":36.131565,"lng":138.912058,"version":"13.0b/18.0a"},{"town":"大字森戸","koaza":"","lat":36.103282,"lng":138.908732,"version":"13.0b/18.0a"},{"town":"大字魚尾","koaza":"","lat":36.098871,"lng":138.853338,"version":"13.0b/18.0a"},{"town":"大字相原","koaza":"","lat":36.102071,"lng":138.878664,"version":"14.0b/19.0a"},{"town":"大字青梨","koaza":"","lat":36.094839,"lng":138.880027,"version":"14.0b/19.0a"},{"town":"大字麻生","koaza":"","lat":36.110044,"lng":138.944952,"version":"14.0b/19.0a"},{"town":"大字尾附","koaza":"","lat":36.09604,"lng":138.803932,"version":"14.0b/19.0a"},{"town":"大字神ケ原","koaza":"","lat":36.080009,"lng":138.840106,"version":"14.0b/19.0a"},{"town":"大字柏木","koaza":"","lat":36.127345,"lng":138.943375,"version":"14.0b/19.0a"},{"town":"大字黒田","koaza":"","lat":36.117841,"lng":138.893356,"version":"14.0b/19.0a"},{"town":"大字小平","koaza":"","lat":36.101089,"lng":138.894866,"version":"14.0b/19.0a"},{"town":"大字塩沢","koaza":"","lat":36.134341,"lng":138.879764,"version":"14.0b/19.0a"},{"town":"大字生利","koaza":"","lat":36.120272,"lng":138.926229,"version":"14.0b/19.0a"},{"town":"大字船子","koaza":"","lat":36.117288,"lng":138.862427,"version":"14.0b/19.0a"},{"town":"大字平原","koaza":"","lat":36.119951,"lng":138.804472,"version":"14.0b/19.0a"},{"town":"大字万場","koaza":"","lat":36.131565,"lng":138.912058,"version":"14.0b/19.0a"},{"town":"大字森戸","koaza":"","lat":36.103282,"lng":138.908732,"version":"14.0b/19.0a"},{"town":"大字魚尾","koaza":"","lat":36.098871,"lng":138.853338,"version":"14.0b/19.0a"}]