[{"town":"阿久津町","koaza":"","lat":36.248065,"lng":139.309247,"version":"13.0b/18.0a"},{"town":"朝日町","koaza":"","lat":36.274729,"lng":139.400849,"version":"13.0b/18.0a"},{"town":"新井町","koaza":"","lat":36.28577,"lng":139.370002,"version":"13.0b/18.0a"},{"town":"安養寺町","koaza":"","lat":36.258861,"lng":139.303962,"version":"13.0b/18.0a"},{"town":"飯田町","koaza":"","lat":36.289007,"lng":139.37958,"version":"13.0b/18.0a"},{"town":"飯塚町","koaza":"","lat":36.27848,"lng":139.385161,"version":"13.0b/18.0a"},{"town":"石橋町","koaza":"","lat":36.33068,"lng":139.340326,"version":"13.0b/18.0a"},{"town":"石原町","koaza":"","lat":36.297784,"lng":139.402211,"version":"13.0b/18.0a"},{"town":"泉町","koaza":"","lat":36.268918,"lng":139.313545,"version":"13.0b/18.0a"},{"town":"市場町","koaza":"","lat":36.334339,"lng":139.414993,"version":"13.0b/18.0a"},{"town":"出塚町","koaza":"","lat":36.258139,"lng":139.292563,"version":"13.0b/18.0a"},{"town":"岩瀬川町","koaza":"","lat":36.276727,"lng":139.358358,"version":"13.0b/18.0a"},{"town":"岩松町","koaza":"","lat":36.257908,"lng":139.335995,"version":"13.0b/18.0a"},{"town":"植木野町","koaza":"","lat":36.318443,"lng":139.411243,"version":"13.0b/18.0a"},{"town":"牛沢町","koaza":"","lat":36.258155,"lng":139.354245,"version":"13.0b/18.0a"},{"town":"内ケ島町","koaza":"","lat":36.285136,"lng":139.396177,"version":"13.0b/18.0a"},{"town":"大久保町","koaza":"","lat":36.343343,"lng":139.272362,"version":"13.0b/18.0a"},{"town":"大島町","koaza":"","lat":36.305685,"lng":139.357969,"version":"13.0b/18.0a"},{"town":"大舘町","koaza":"","lat":36.250029,"lng":139.30127,"version":"13.0b/18.0a"},{"town":"大原町","koaza":"","lat":36.354964,"lng":139.286935,"version":"13.0b/18.0a"},{"town":"大鷲町","koaza":"","lat":36.339686,"lng":139.352079,"version":"13.0b/18.0a"},{"town":"沖之郷町","koaza":"","lat":36.290057,"lng":139.434183,"version":"13.0b/18.0a"},{"town":"沖野町","koaza":"","lat":36.290666,"lng":139.323367,"version":"13.0b/18.0a"},{"town":"押切町","koaza":"","lat":36.248987,"lng":139.340791,"version":"13.0b/18.0a"},{"town":"尾島町","koaza":"","lat":36.260051,"lng":139.321561,"version":"13.0b/18.0a"},{"town":"粕川町","koaza":"","lat":36.265733,"lng":139.296815,"version":"13.0b/18.0a"},{"town":"金山町","koaza":"","lat":36.309297,"lng":139.373522,"version":"13.0b/18.0a"},{"town":"上強戸町","koaza":"","lat":36.337553,"lng":139.359444,"version":"13.0b/18.0a"},{"town":"上小林町","koaza":"","lat":36.31652,"lng":139.404223,"version":"13.0b/18.0a"},{"town":"上田島町","koaza":"","lat":36.282486,"lng":139.319754,"version":"13.0b/18.0a"},{"town":"亀岡町","koaza":"","lat":36.25544,"lng":139.316783,"version":"13.0b/18.0a"},{"town":"北金井町","koaza":"","lat":36.350068,"lng":139.35249,"version":"13.0b/18.0a"},{"town":"清原町","koaza":"","lat":36.34511,"lng":139.3863,"version":"13.0b/18.0a"},{"town":"熊野町","koaza":"","lat":36.305409,"lng":139.381321,"version":"13.0b/18.0a"},{"town":"強戸町","koaza":"","lat":36.32965,"lng":139.35833,"version":"13.0b/18.0a"},{"town":"小角田町","koaza":"","lat":36.278713,"lng":139.281586,"version":"13.0b/18.0a"},{"town":"小舞木町","koaza":"","lat":36.284013,"lng":139.388092,"version":"13.0b/18.0a"},{"town":"下小林町","koaza":"","lat":36.291194,"lng":139.403449,"version":"13.0b/18.0a"},{"town":"下田島町","koaza":"","lat":36.264859,"lng":139.323961,"version":"13.0b/18.0a"},{"town":"下浜田町","koaza":"","lat":36.276617,"lng":139.364086,"version":"13.0b/18.0a"},{"town":"城西町","koaza":"","lat":36.310655,"lng":139.3376,"version":"13.0b/18.0a"},{"town":"庄屋町","koaza":"","lat":36.279656,"lng":139.370997,"version":"13.0b/18.0a"},{"town":"新道町","koaza":"","lat":36.300161,"lng":139.342041,"version":"13.0b/18.0a"},{"town":"末広町","koaza":"","lat":36.256886,"lng":139.38122,"version":"13.0b/18.0a"},{"town":"菅塩町","koaza":"","lat":36.347966,"lng":139.339863,"version":"13.0b/18.0a"},{"town":"すずかけ町","koaza":"","lat":36.254182,"lng":139.323512,"version":"13.0b/18.0a"},{"town":"スバル町","koaza":"","lat":36.298656,"lng":139.384919,"version":"13.0b/18.0a"},{"town":"世良田町","koaza":"","lat":36.266755,"lng":139.281013,"version":"13.0b/18.0a"},{"town":"太子町","koaza":"","lat":36.255624,"lng":139.325726,"version":"13.0b/18.0a"},{"town":"台之郷町","koaza":"","lat":36.307674,"lng":139.407371,"version":"13.0b/18.0a"},{"town":"高瀬町","koaza":"","lat":36.326293,"lng":139.423091,"version":"13.0b/18.0a"},{"town":"高林北町","koaza":"","lat":36.26566,"lng":139.367254,"version":"13.0b/18.0a"},{"town":"高林寿町","koaza":"","lat":36.263674,"lng":139.374459,"version":"13.0b/18.0a"},{"town":"高林西町","koaza":"","lat":36.256278,"lng":139.36443,"version":"13.0b/18.0a"},{"town":"高林東町","koaza":"","lat":36.257521,"lng":139.375154,"version":"13.0b/18.0a"},{"town":"高林南町","koaza":"","lat":36.253967,"lng":139.368287,"version":"13.0b/18.0a"},{"town":"宝町","koaza":"","lat":36.28975,"lng":139.331777,"version":"13.0b/18.0a"},{"town":"只上町","koaza":"","lat":36.337533,"lng":139.396881,"version":"13.0b/18.0a"},{"town":"鶴生田町","koaza":"","lat":36.319281,"lng":139.358142,"version":"13.0b/18.0a"},{"town":"寺井町","koaza":"","lat":36.324102,"lng":139.335117,"version":"13.0b/18.0a"},{"town":"天良町","koaza":"","lat":36.332313,"lng":139.334072,"version":"13.0b/18.0a"},{"town":"徳川町","koaza":"","lat":36.250257,"lng":139.284056,"version":"13.0b/18.0a"},{"town":"富沢町","koaza":"","lat":36.264023,"lng":139.357251,"version":"13.0b/18.0a"},{"town":"富若町","koaza":"","lat":36.32408,"lng":139.396421,"version":"13.0b/18.0a"},{"town":"鳥山上町","koaza":"","lat":36.324478,"lng":139.344722,"version":"13.0b/18.0a"},{"town":"鳥山下町","koaza":"","lat":36.312249,"lng":139.35261,"version":"13.0b/18.0a"},{"town":"鳥山町","koaza":"","lat":36.313477,"lng":139.356544,"version":"13.0b/18.0a"},{"town":"鳥山中町","koaza":"","lat":36.314915,"lng":139.346382,"version":"13.0b/18.0a"},{"town":"長手町","koaza":"","lat":36.315187,"lng":139.367465,"version":"13.0b/18.0a"},{"town":"中根町","koaza":"","lat":36.272988,"lng":139.322875,"version":"13.0b/18.0a"},{"town":"成塚町","koaza":"","lat":36.33628,"lng":139.341713,"version":"13.0b/18.0a"},{"town":"新島町","koaza":"","lat":36.291976,"lng":139.386837,"version":"13.0b/18.0a"},{"town":"新野町","koaza":"","lat":36.307925,"lng":139.343542,"version":"13.0b/18.0a"},{"town":"西新町","koaza":"","lat":36.272302,"lng":139.338275,"version":"13.0b/18.0a"},{"town":"西長岡町","koaza":"","lat":36.353774,"lng":139.332104,"version":"13.0b/18.0a"},{"town":"西野谷町","koaza":"","lat":36.282488,"lng":139.329351,"version":"13.0b/18.0a"},{"town":"西本町","koaza":"","lat":36.294067,"lng":139.363974,"version":"13.0b/18.0a"},{"town":"西矢島町","koaza":"","lat":36.271291,"lng":139.374285,"version":"13.0b/18.0a"},{"town":"新田赤堀町","koaza":"","lat":36.292091,"lng":139.297199,"version":"13.0b/18.0a"},{"town":"新田市町","koaza":"","lat":36.327186,"lng":139.299518,"version":"13.0b/18.0a"},{"town":"新田市野井町","koaza":"","lat":36.315394,"lng":139.301952,"version":"13.0b/18.0a"},{"town":"新田市野倉町","koaza":"","lat":36.335233,"lng":139.309043,"version":"13.0b/18.0a"},{"town":"新田大町","koaza":"","lat":36.322773,"lng":139.281925,"version":"13.0b/18.0a"},{"town":"新田大根町","koaza":"","lat":36.309296,"lng":139.282321,"version":"13.0b/18.0a"},{"town":"新田金井町","koaza":"","lat":36.3083,"lng":139.293023,"version":"13.0b/18.0a"},{"town":"新田嘉祢町","koaza":"","lat":36.32053,"lng":139.288015,"version":"13.0b/18.0a"},{"town":"新田上江田町","koaza":"","lat":36.294317,"lng":139.285709,"version":"13.0b/18.0a"},{"town":"新田上田中町","koaza":"","lat":36.304638,"lng":139.274762,"version":"13.0b/18.0a"},{"town":"新田上中町","koaza":"","lat":36.322956,"lng":139.271004,"version":"13.0b/18.0a"},{"town":"新田木崎町","koaza":"","lat":36.281782,"lng":139.306734,"version":"13.0b/18.0a"},{"town":"新田小金井町","koaza":"","lat":36.31292,"lng":139.323556,"version":"13.0b/18.0a"},{"town":"新田小金町","koaza":"","lat":36.334654,"lng":139.322764,"version":"13.0b/18.0a"},{"town":"新田権右衛門町","koaza":"","lat":36.33211,"lng":139.263878,"version":"13.0b/18.0a"},{"town":"新田下江田町","koaza":"","lat":36.268944,"lng":139.298258,"version":"13.0b/18.0a"},{"town":"新田下田中町","koaza":"","lat":36.288688,"lng":139.273749,"version":"13.0b/18.0a"},{"town":"新田反町町","koaza":"","lat":36.296492,"lng":139.308299,"version":"13.0b/18.0a"},{"town":"新田高尾町","koaza":"","lat":36.28508,"lng":139.283059,"version":"13.0b/18.0a"},{"town":"新田多村新田町","koaza":"","lat":36.338899,"lng":139.295844,"version":"13.0b/18.0a"},{"town":"新田溜池町","koaza":"","lat":36.32355,"lng":139.275431,"version":"13.0b/18.0a"},{"town":"新田天良町","koaza":"","lat":36.335008,"lng":139.328232,"version":"13.0b/18.0a"},{"town":"新田中江田町","koaza":"","lat":36.278646,"lng":139.292231,"version":"13.0b/18.0a"},{"town":"新田萩町","koaza":"","lat":36.3335,"lng":139.268973,"version":"13.0b/18.0a"},{"town":"新田花香塚町","koaza":"","lat":36.297566,"lng":139.261271,"version":"13.0b/18.0a"},{"town":"新田早川町","koaza":"","lat":36.294379,"lng":139.265567,"version":"13.0b/18.0a"},{"town":"新田瑞木町","koaza":"","lat":36.310083,"lng":139.309427,"version":"13.0b/18.0a"},{"town":"新田村田町","koaza":"","lat":36.310233,"lng":139.315655,"version":"13.0b/18.0a"},{"town":"韮川町","koaza":"","lat":36.312836,"lng":139.403909,"version":"13.0b/18.0a"},{"town":"八幡町","koaza":"","lat":36.300189,"lng":139.365434,"version":"13.0b/18.0a"},{"town":"浜町","koaza":"","lat":36.290335,"lng":139.367887,"version":"13.0b/18.0a"},{"town":"原宿町","koaza":"","lat":36.353766,"lng":139.382623,"version":"13.0b/18.0a"},{"town":"東今泉町","koaza":"","lat":36.326806,"lng":139.384493,"version":"13.0b/18.0a"},{"town":"東金井町","koaza":"","lat":36.317122,"lng":139.38778,"version":"13.0b/18.0a"},{"town":"東新町","koaza":"","lat":36.327053,"lng":139.408679,"version":"13.0b/18.0a"},{"town":"東長岡町","koaza":"","lat":36.303075,"lng":139.395281,"version":"13.0b/18.0a"},{"town":"東別所町","koaza":"","lat":36.268754,"lng":139.393946,"version":"13.0b/18.0a"},{"town":"東本町","koaza":"","lat":36.29793,"lng":139.378217,"version":"13.0b/18.0a"},{"town":"東矢島町","koaza":"","lat":36.268793,"lng":139.382873,"version":"13.0b/18.0a"},{"town":"備前島町","koaza":"","lat":36.256511,"lng":139.344016,"version":"13.0b/18.0a"},{"town":"福沢町","koaza":"","lat":36.269152,"lng":139.358545,"version":"13.0b/18.0a"},{"town":"藤阿久町","koaza":"","lat":36.290745,"lng":139.357671,"version":"13.0b/18.0a"},{"town":"藤久良町","koaza":"","lat":36.291457,"lng":139.35167,"version":"13.0b/18.0a"},{"town":"二ツ小屋町","koaza":"","lat":36.238217,"lng":139.313991,"version":"13.0b/18.0a"},{"town":"古戸町","koaza":"","lat":36.246473,"lng":139.376972,"version":"13.0b/18.0a"},{"town":"別所町","koaza":"","lat":36.298069,"lng":139.330437,"version":"13.0b/18.0a"},{"town":"細谷町","koaza":"","lat":36.275212,"lng":139.350268,"version":"13.0b/18.0a"},{"town":"堀口町","koaza":"","lat":36.249853,"lng":139.324448,"version":"13.0b/18.0a"},{"town":"本町","koaza":"","lat":36.297893,"lng":139.372861,"version":"13.0b/18.0a"},{"town":"前小屋町","koaza":"","lat":36.245216,"lng":139.327993,"version":"13.0b/18.0a"},{"town":"前島町","koaza":"","lat":36.246939,"lng":139.316742,"version":"13.0b/18.0a"},{"town":"丸山町","koaza":"","lat":36.341724,"lng":139.381215,"version":"13.0b/18.0a"},{"town":"緑町","koaza":"","lat":36.331123,"lng":139.372526,"version":"13.0b/18.0a"},{"town":"南ヶ丘町","koaza":"","lat":36.247823,"lng":139.327165,"version":"13.0b/18.0a"},{"town":"南矢島町","koaza":"","lat":36.263562,"lng":139.379932,"version":"13.0b/18.0a"},{"town":"武蔵島町","koaza":"","lat":36.244057,"lng":139.311084,"version":"13.0b/18.0a"},{"town":"茂木町","koaza":"","lat":36.297381,"lng":139.417819,"version":"13.0b/18.0a"},{"town":"八重笠町","koaza":"","lat":36.27219,"lng":139.429581,"version":"13.0b/18.0a"},{"town":"安良岡町","koaza":"","lat":36.308733,"lng":139.39709,"version":"13.0b/18.0a"},{"town":"矢田堀町","koaza":"","lat":36.33453,"lng":139.380756,"version":"13.0b/18.0a"},{"town":"矢場新町","koaza":"","lat":36.311802,"lng":139.416447,"version":"13.0b/18.0a"},{"town":"矢場町","koaza":"","lat":36.302557,"lng":139.42382,"version":"13.0b/18.0a"},{"town":"藪塚町","koaza":"","lat":36.361435,"lng":139.3106,"version":"13.0b/18.0a"},{"town":"山之神町","koaza":"","lat":36.346225,"lng":139.310184,"version":"13.0b/18.0a"},{"town":"由良町","koaza":"","lat":36.288271,"lng":139.343687,"version":"13.0b/18.0a"},{"town":"吉沢町","koaza":"","lat":36.350938,"lng":139.368443,"version":"13.0b/18.0a"},{"town":"米沢町","koaza":"","lat":36.263581,"lng":139.342803,"version":"13.0b/18.0a"},{"town":"寄合町","koaza":"","lat":36.3427,"lng":139.320576,"version":"13.0b/18.0a"},{"town":"龍舞町","koaza":"","lat":36.282671,"lng":139.416761,"version":"13.0b/18.0a"},{"town":"六千石町","koaza":"","lat":36.334409,"lng":139.285838,"version":"13.0b/18.0a"},{"town":"脇屋町","koaza":"","lat":36.308871,"lng":139.33087,"version":"13.0b/18.0a"},{"town":"新田木崎町","koaza":"西田","lat":36.289186,"lng":139.308945,"version":"13.0b/18.0a"},{"town":"阿久津町","koaza":"","lat":36.248065,"lng":139.309247,"version":"14.0b/19.0a"},{"town":"朝日町","koaza":"","lat":36.274729,"lng":139.400849,"version":"14.0b/19.0a"},{"town":"新井町","koaza":"","lat":36.28577,"lng":139.370002,"version":"14.0b/19.0a"},{"town":"安養寺町","koaza":"","lat":36.258861,"lng":139.303962,"version":"14.0b/19.0a"},{"town":"飯田町","koaza":"","lat":36.289007,"lng":139.37958,"version":"14.0b/19.0a"},{"town":"飯塚町","koaza":"","lat":36.27848,"lng":139.385161,"version":"14.0b/19.0a"},{"town":"石橋町","koaza":"","lat":36.33068,"lng":139.340326,"version":"14.0b/19.0a"},{"town":"石原町","koaza":"","lat":36.297784,"lng":139.402211,"version":"14.0b/19.0a"},{"town":"泉町","koaza":"","lat":36.268918,"lng":139.313545,"version":"14.0b/19.0a"},{"town":"市場町","koaza":"","lat":36.334339,"lng":139.414993,"version":"14.0b/19.0a"},{"town":"出塚町","koaza":"","lat":36.258139,"lng":139.292563,"version":"14.0b/19.0a"},{"town":"岩瀬川町","koaza":"","lat":36.276727,"lng":139.358358,"version":"14.0b/19.0a"},{"town":"岩松町","koaza":"","lat":36.257908,"lng":139.335995,"version":"14.0b/19.0a"},{"town":"植木野町","koaza":"","lat":36.318443,"lng":139.411243,"version":"14.0b/19.0a"},{"town":"牛沢町","koaza":"","lat":36.258155,"lng":139.354245,"version":"14.0b/19.0a"},{"town":"内ケ島町","koaza":"","lat":36.285136,"lng":139.396177,"version":"14.0b/19.0a"},{"town":"大久保町","koaza":"","lat":36.343343,"lng":139.272362,"version":"14.0b/19.0a"},{"town":"大島町","koaza":"","lat":36.305685,"lng":139.357969,"version":"14.0b/19.0a"},{"town":"大舘町","koaza":"","lat":36.250029,"lng":139.30127,"version":"14.0b/19.0a"},{"town":"大原町","koaza":"","lat":36.354964,"lng":139.286935,"version":"14.0b/19.0a"},{"town":"大鷲町","koaza":"","lat":36.339686,"lng":139.352079,"version":"14.0b/19.0a"},{"town":"沖之郷町","koaza":"","lat":36.290057,"lng":139.434183,"version":"14.0b/19.0a"},{"town":"沖野町","koaza":"","lat":36.290666,"lng":139.323367,"version":"14.0b/19.0a"},{"town":"押切町","koaza":"","lat":36.248987,"lng":139.340791,"version":"14.0b/19.0a"},{"town":"尾島町","koaza":"","lat":36.260051,"lng":139.321561,"version":"14.0b/19.0a"},{"town":"粕川町","koaza":"","lat":36.265733,"lng":139.296815,"version":"14.0b/19.0a"},{"town":"金山町","koaza":"","lat":36.309297,"lng":139.373522,"version":"14.0b/19.0a"},{"town":"上強戸町","koaza":"","lat":36.337553,"lng":139.359444,"version":"14.0b/19.0a"},{"town":"上小林町","koaza":"","lat":36.31652,"lng":139.404223,"version":"14.0b/19.0a"},{"town":"上田島町","koaza":"","lat":36.282486,"lng":139.319754,"version":"14.0b/19.0a"},{"town":"亀岡町","koaza":"","lat":36.25544,"lng":139.316783,"version":"14.0b/19.0a"},{"town":"北金井町","koaza":"","lat":36.350068,"lng":139.35249,"version":"14.0b/19.0a"},{"town":"清原町","koaza":"","lat":36.34511,"lng":139.3863,"version":"14.0b/19.0a"},{"town":"熊野町","koaza":"","lat":36.305409,"lng":139.381321,"version":"14.0b/19.0a"},{"town":"強戸町","koaza":"","lat":36.32965,"lng":139.35833,"version":"14.0b/19.0a"},{"town":"小角田町","koaza":"","lat":36.278713,"lng":139.281586,"version":"14.0b/19.0a"},{"town":"小舞木町","koaza":"","lat":36.284013,"lng":139.388092,"version":"14.0b/19.0a"},{"town":"下小林町","koaza":"","lat":36.291194,"lng":139.403449,"version":"14.0b/19.0a"},{"town":"下田島町","koaza":"","lat":36.264859,"lng":139.323961,"version":"14.0b/19.0a"},{"town":"下浜田町","koaza":"","lat":36.276617,"lng":139.364086,"version":"14.0b/19.0a"},{"town":"城西町","koaza":"","lat":36.310655,"lng":139.3376,"version":"14.0b/19.0a"},{"town":"庄屋町","koaza":"","lat":36.279656,"lng":139.370997,"version":"14.0b/19.0a"},{"town":"新道町","koaza":"","lat":36.300161,"lng":139.342041,"version":"14.0b/19.0a"},{"town":"末広町","koaza":"","lat":36.256886,"lng":139.38122,"version":"14.0b/19.0a"},{"town":"菅塩町","koaza":"","lat":36.347966,"lng":139.339863,"version":"14.0b/19.0a"},{"town":"すずかけ町","koaza":"","lat":36.254182,"lng":139.323512,"version":"14.0b/19.0a"},{"town":"スバル町","koaza":"","lat":36.298656,"lng":139.384919,"version":"14.0b/19.0a"},{"town":"世良田町","koaza":"","lat":36.266755,"lng":139.281013,"version":"14.0b/19.0a"},{"town":"太子町","koaza":"","lat":36.255624,"lng":139.325726,"version":"14.0b/19.0a"},{"town":"台之郷町","koaza":"","lat":36.307674,"lng":139.407371,"version":"14.0b/19.0a"},{"town":"高瀬町","koaza":"","lat":36.326293,"lng":139.423091,"version":"14.0b/19.0a"},{"town":"高林北町","koaza":"","lat":36.26566,"lng":139.367254,"version":"14.0b/19.0a"},{"town":"高林寿町","koaza":"","lat":36.263674,"lng":139.374459,"version":"14.0b/19.0a"},{"town":"高林西町","koaza":"","lat":36.256278,"lng":139.36443,"version":"14.0b/19.0a"},{"town":"高林東町","koaza":"","lat":36.257521,"lng":139.375154,"version":"14.0b/19.0a"},{"town":"高林南町","koaza":"","lat":36.253967,"lng":139.368287,"version":"14.0b/19.0a"},{"town":"宝町","koaza":"","lat":36.28975,"lng":139.331777,"version":"14.0b/19.0a"},{"town":"只上町","koaza":"","lat":36.337533,"lng":139.396881,"version":"14.0b/19.0a"},{"town":"鶴生田町","koaza":"","lat":36.319281,"lng":139.358142,"version":"14.0b/19.0a"},{"town":"寺井町","koaza":"","lat":36.324102,"lng":139.335117,"version":"14.0b/19.0a"},{"town":"天良町","koaza":"","lat":36.332313,"lng":139.334072,"version":"14.0b/19.0a"},{"town":"徳川町","koaza":"","lat":36.250257,"lng":139.284056,"version":"14.0b/19.0a"},{"town":"富沢町","koaza":"","lat":36.264023,"lng":139.357251,"version":"14.0b/19.0a"},{"town":"富若町","koaza":"","lat":36.32408,"lng":139.396421,"version":"14.0b/19.0a"},{"town":"鳥山上町","koaza":"","lat":36.324478,"lng":139.344722,"version":"14.0b/19.0a"},{"town":"鳥山下町","koaza":"","lat":36.312249,"lng":139.35261,"version":"14.0b/19.0a"},{"town":"鳥山町","koaza":"","lat":36.313477,"lng":139.356544,"version":"14.0b/19.0a"},{"town":"鳥山中町","koaza":"","lat":36.314915,"lng":139.346382,"version":"14.0b/19.0a"},{"town":"長手町","koaza":"","lat":36.315187,"lng":139.367465,"version":"14.0b/19.0a"},{"town":"中根町","koaza":"","lat":36.272988,"lng":139.322875,"version":"14.0b/19.0a"},{"town":"成塚町","koaza":"","lat":36.33628,"lng":139.341713,"version":"14.0b/19.0a"},{"town":"新島町","koaza":"","lat":36.291976,"lng":139.386837,"version":"14.0b/19.0a"},{"town":"新野町","koaza":"","lat":36.307925,"lng":139.343542,"version":"14.0b/19.0a"},{"town":"西新町","koaza":"","lat":36.272302,"lng":139.338275,"version":"14.0b/19.0a"},{"town":"西長岡町","koaza":"","lat":36.353774,"lng":139.332104,"version":"14.0b/19.0a"},{"town":"西野谷町","koaza":"","lat":36.282488,"lng":139.329351,"version":"14.0b/19.0a"},{"town":"西本町","koaza":"","lat":36.294067,"lng":139.363974,"version":"14.0b/19.0a"},{"town":"西矢島町","koaza":"","lat":36.271291,"lng":139.374285,"version":"14.0b/19.0a"},{"town":"新田赤堀町","koaza":"","lat":36.292091,"lng":139.297199,"version":"14.0b/19.0a"},{"town":"新田市町","koaza":"","lat":36.327186,"lng":139.299518,"version":"14.0b/19.0a"},{"town":"新田市野井町","koaza":"","lat":36.315394,"lng":139.301952,"version":"14.0b/19.0a"},{"town":"新田市野倉町","koaza":"","lat":36.335233,"lng":139.309043,"version":"14.0b/19.0a"},{"town":"新田大町","koaza":"","lat":36.322773,"lng":139.281925,"version":"14.0b/19.0a"},{"town":"新田大根町","koaza":"","lat":36.309296,"lng":139.282321,"version":"14.0b/19.0a"},{"town":"新田金井町","koaza":"","lat":36.3083,"lng":139.293023,"version":"14.0b/19.0a"},{"town":"新田嘉祢町","koaza":"","lat":36.32053,"lng":139.288015,"version":"14.0b/19.0a"},{"town":"新田上江田町","koaza":"","lat":36.294317,"lng":139.285709,"version":"14.0b/19.0a"},{"town":"新田上田中町","koaza":"","lat":36.304638,"lng":139.274762,"version":"14.0b/19.0a"},{"town":"新田上中町","koaza":"","lat":36.322956,"lng":139.271004,"version":"14.0b/19.0a"},{"town":"新田木崎町","koaza":"","lat":36.281782,"lng":139.306734,"version":"14.0b/19.0a"},{"town":"新田小金井町","koaza":"","lat":36.31292,"lng":139.323556,"version":"14.0b/19.0a"},{"town":"新田小金町","koaza":"","lat":36.334654,"lng":139.322764,"version":"14.0b/19.0a"},{"town":"新田権右衛門町","koaza":"","lat":36.33211,"lng":139.263878,"version":"14.0b/19.0a"},{"town":"新田下江田町","koaza":"","lat":36.268944,"lng":139.298258,"version":"14.0b/19.0a"},{"town":"新田下田中町","koaza":"","lat":36.288688,"lng":139.273749,"version":"14.0b/19.0a"},{"town":"新田反町町","koaza":"","lat":36.296492,"lng":139.308299,"version":"14.0b/19.0a"},{"town":"新田高尾町","koaza":"","lat":36.28508,"lng":139.283059,"version":"14.0b/19.0a"},{"town":"新田多村新田町","koaza":"","lat":36.338899,"lng":139.295844,"version":"14.0b/19.0a"},{"town":"新田溜池町","koaza":"","lat":36.32355,"lng":139.275431,"version":"14.0b/19.0a"},{"town":"新田天良町","koaza":"","lat":36.335008,"lng":139.328232,"version":"14.0b/19.0a"},{"town":"新田中江田町","koaza":"","lat":36.278646,"lng":139.292231,"version":"14.0b/19.0a"},{"town":"新田萩町","koaza":"","lat":36.3335,"lng":139.268973,"version":"14.0b/19.0a"},{"town":"新田花香塚町","koaza":"","lat":36.297566,"lng":139.261271,"version":"14.0b/19.0a"},{"town":"新田早川町","koaza":"","lat":36.294379,"lng":139.265567,"version":"14.0b/19.0a"},{"town":"新田瑞木町","koaza":"","lat":36.310083,"lng":139.309427,"version":"14.0b/19.0a"},{"town":"新田村田町","koaza":"","lat":36.310233,"lng":139.315655,"version":"14.0b/19.0a"},{"town":"韮川町","koaza":"","lat":36.312836,"lng":139.403909,"version":"14.0b/19.0a"},{"town":"八幡町","koaza":"","lat":36.300189,"lng":139.365434,"version":"14.0b/19.0a"},{"town":"浜町","koaza":"","lat":36.290335,"lng":139.367887,"version":"14.0b/19.0a"},{"town":"原宿町","koaza":"","lat":36.353766,"lng":139.382623,"version":"14.0b/19.0a"},{"town":"東今泉町","koaza":"","lat":36.326806,"lng":139.384493,"version":"14.0b/19.0a"},{"town":"東金井町","koaza":"","lat":36.317122,"lng":139.38778,"version":"14.0b/19.0a"},{"town":"東新町","koaza":"","lat":36.327053,"lng":139.408679,"version":"14.0b/19.0a"},{"town":"東長岡町","koaza":"","lat":36.303075,"lng":139.395281,"version":"14.0b/19.0a"},{"town":"東別所町","koaza":"","lat":36.268754,"lng":139.393946,"version":"14.0b/19.0a"},{"town":"東本町","koaza":"","lat":36.29793,"lng":139.378217,"version":"14.0b/19.0a"},{"town":"東矢島町","koaza":"","lat":36.268793,"lng":139.382873,"version":"14.0b/19.0a"},{"town":"備前島町","koaza":"","lat":36.256511,"lng":139.344016,"version":"14.0b/19.0a"},{"town":"福沢町","koaza":"","lat":36.269152,"lng":139.358545,"version":"14.0b/19.0a"},{"town":"藤阿久町","koaza":"","lat":36.290745,"lng":139.357671,"version":"14.0b/19.0a"},{"town":"藤久良町","koaza":"","lat":36.291457,"lng":139.35167,"version":"14.0b/19.0a"},{"town":"二ツ小屋町","koaza":"","lat":36.238217,"lng":139.313991,"version":"14.0b/19.0a"},{"town":"古戸町","koaza":"","lat":36.246473,"lng":139.376972,"version":"14.0b/19.0a"},{"town":"別所町","koaza":"","lat":36.298069,"lng":139.330437,"version":"14.0b/19.0a"},{"town":"細谷町","koaza":"","lat":36.275212,"lng":139.350268,"version":"14.0b/19.0a"},{"town":"堀口町","koaza":"","lat":36.249853,"lng":139.324448,"version":"14.0b/19.0a"},{"town":"本町","koaza":"","lat":36.297893,"lng":139.372861,"version":"14.0b/19.0a"},{"town":"前小屋町","koaza":"","lat":36.245216,"lng":139.327993,"version":"14.0b/19.0a"},{"town":"前島町","koaza":"","lat":36.246939,"lng":139.316742,"version":"14.0b/19.0a"},{"town":"丸山町","koaza":"","lat":36.341724,"lng":139.381215,"version":"14.0b/19.0a"},{"town":"緑町","koaza":"","lat":36.331123,"lng":139.372526,"version":"14.0b/19.0a"},{"town":"南ヶ丘町","koaza":"","lat":36.247823,"lng":139.327165,"version":"14.0b/19.0a"},{"town":"南矢島町","koaza":"","lat":36.263562,"lng":139.379932,"version":"14.0b/19.0a"},{"town":"武蔵島町","koaza":"","lat":36.244057,"lng":139.311084,"version":"14.0b/19.0a"},{"town":"茂木町","koaza":"","lat":36.297381,"lng":139.417819,"version":"14.0b/19.0a"},{"town":"八重笠町","koaza":"","lat":36.27219,"lng":139.429581,"version":"14.0b/19.0a"},{"town":"安良岡町","koaza":"","lat":36.308733,"lng":139.39709,"version":"14.0b/19.0a"},{"town":"矢田堀町","koaza":"","lat":36.33453,"lng":139.380756,"version":"14.0b/19.0a"},{"town":"矢場新町","koaza":"","lat":36.311802,"lng":139.416447,"version":"14.0b/19.0a"},{"town":"矢場町","koaza":"","lat":36.302557,"lng":139.42382,"version":"14.0b/19.0a"},{"town":"藪塚町","koaza":"","lat":36.361435,"lng":139.3106,"version":"14.0b/19.0a"},{"town":"山之神町","koaza":"","lat":36.346225,"lng":139.310184,"version":"14.0b/19.0a"},{"town":"由良町","koaza":"","lat":36.288271,"lng":139.343687,"version":"14.0b/19.0a"},{"town":"吉沢町","koaza":"","lat":36.350938,"lng":139.368443,"version":"14.0b/19.0a"},{"town":"米沢町","koaza":"","lat":36.263581,"lng":139.342803,"version":"14.0b/19.0a"},{"town":"寄合町","koaza":"","lat":36.3427,"lng":139.320576,"version":"14.0b/19.0a"},{"town":"龍舞町","koaza":"","lat":36.282671,"lng":139.416761,"version":"14.0b/19.0a"},{"town":"六千石町","koaza":"","lat":36.334409,"lng":139.285838,"version":"14.0b/19.0a"},{"town":"脇屋町","koaza":"","lat":36.308871,"lng":139.33087,"version":"14.0b/19.0a"},{"town":"新田木崎町","koaza":"西田","lat":36.289186,"lng":139.308945,"version":"14.0b/19.0a"}]