[{"town":"小豆屋町","koaza":"","lat":34.941165,"lng":135.76078,"version":"13.0b/18.0a"},{"town":"阿波橋町","koaza":"","lat":34.931792,"lng":135.755543,"version":"13.0b/18.0a"},{"town":"石田内里町","koaza":"","lat":34.939508,"lng":135.807156,"version":"13.0b/18.0a"},{"town":"石田大受町","koaza":"","lat":34.942457,"lng":135.806617,"version":"13.0b/18.0a"},{"town":"石田大山町","koaza":"","lat":34.938375,"lng":135.808763,"version":"13.0b/18.0a"},{"town":"石田川向","koaza":"","lat":34.94171,"lng":135.799533,"version":"13.0b/18.0a"},{"town":"石田桜木","koaza":"","lat":34.935566,"lng":135.800306,"version":"13.0b/18.0a"},{"town":"石田西ノ坪","koaza":"","lat":34.937858,"lng":135.79975,"version":"13.0b/18.0a"},{"town":"石田森西","koaza":"","lat":34.940197,"lng":135.80008,"version":"13.0b/18.0a"},{"town":"石田森東町","koaza":"","lat":34.940197,"lng":135.803976,"version":"13.0b/18.0a"},{"town":"石田森南町","koaza":"","lat":34.937719,"lng":135.803787,"version":"13.0b/18.0a"},{"town":"石屋町","koaza":"","lat":34.939694,"lng":135.762717,"version":"13.0b/18.0a"},{"town":"稲荷山官有地","koaza":"","lat":34.969171,"lng":135.783712,"version":"13.0b/18.0a"},{"town":"今町","koaza":"","lat":34.935036,"lng":135.762151,"version":"13.0b/18.0a"},{"town":"魚屋町","koaza":"","lat":34.931692,"lng":135.763977,"version":"13.0b/18.0a"},{"town":"越前町","koaza":"","lat":34.943944,"lng":135.760207,"version":"13.0b/18.0a"},{"town":"榎町","koaza":"","lat":34.943587,"lng":135.758785,"version":"13.0b/18.0a"},{"town":"恵美酒町","koaza":"","lat":34.932964,"lng":135.755212,"version":"13.0b/18.0a"},{"town":"海老屋町","koaza":"","lat":34.94025,"lng":135.758065,"version":"13.0b/18.0a"},{"town":"大阪町","koaza":"","lat":34.931833,"lng":135.762258,"version":"13.0b/18.0a"},{"town":"大津町","koaza":"","lat":34.936848,"lng":135.756071,"version":"13.0b/18.0a"},{"town":"大宮町","koaza":"","lat":34.939216,"lng":135.757793,"version":"13.0b/18.0a"},{"town":"御駕籠町","koaza":"","lat":34.937091,"lng":135.759745,"version":"13.0b/18.0a"},{"town":"小栗栖石川町","koaza":"","lat":34.947264,"lng":135.793744,"version":"13.0b/18.0a"},{"town":"小栗栖岩ケ淵町","koaza":"","lat":34.95153,"lng":135.807739,"version":"13.0b/18.0a"},{"town":"小栗栖牛ケ淵町","koaza":"","lat":34.949059,"lng":135.806242,"version":"13.0b/18.0a"},{"town":"小栗栖北後藤町","koaza":"","lat":34.947164,"lng":135.805733,"version":"13.0b/18.0a"},{"town":"小栗栖北谷町","koaza":"","lat":34.952562,"lng":135.803741,"version":"13.0b/18.0a"},{"town":"小栗栖小阪町","koaza":"","lat":34.9464,"lng":135.802115,"version":"13.0b/18.0a"},{"town":"小栗栖中山田町","koaza":"","lat":34.943013,"lng":135.793264,"version":"13.0b/18.0a"},{"town":"小栗栖西谷町","koaza":"","lat":34.950969,"lng":135.801973,"version":"13.0b/18.0a"},{"town":"小栗栖丸山","koaza":"","lat":34.951929,"lng":135.806657,"version":"13.0b/18.0a"},{"town":"小栗栖南後藤町","koaza":"","lat":34.944812,"lng":135.804618,"version":"13.0b/18.0a"},{"town":"小栗栖宮山","koaza":"","lat":34.946216,"lng":135.799932,"version":"13.0b/18.0a"},{"town":"小栗栖森ケ淵町","koaza":"","lat":34.947635,"lng":135.807558,"version":"13.0b/18.0a"},{"town":"小栗栖森本町","koaza":"","lat":34.943881,"lng":135.799846,"version":"13.0b/18.0a"},{"town":"小栗栖山口町","koaza":"","lat":34.949407,"lng":135.798312,"version":"13.0b/18.0a"},{"town":"帯屋町","koaza":"","lat":34.934514,"lng":135.755007,"version":"13.0b/18.0a"},{"town":"表町","koaza":"","lat":34.929538,"lng":135.75865,"version":"13.0b/18.0a"},{"town":"加賀屋町","koaza":"","lat":34.945227,"lng":135.758058,"version":"13.0b/18.0a"},{"town":"柿木浜町","koaza":"","lat":34.927952,"lng":135.76301,"version":"13.0b/18.0a"},{"town":"景勝町","koaza":"","lat":34.944147,"lng":135.755872,"version":"13.0b/18.0a"},{"town":"鍛冶屋町","koaza":"","lat":34.940316,"lng":135.759257,"version":"13.0b/18.0a"},{"town":"過書町","koaza":"","lat":34.932991,"lng":135.755997,"version":"13.0b/18.0a"},{"town":"片桐町","koaza":"","lat":34.932224,"lng":135.766987,"version":"13.0b/18.0a"},{"town":"片原町","koaza":"","lat":34.933958,"lng":135.757524,"version":"13.0b/18.0a"},{"town":"上油掛町","koaza":"","lat":34.930783,"lng":135.761869,"version":"13.0b/18.0a"},{"town":"上板橋町","koaza":"","lat":34.942383,"lng":135.761904,"version":"13.0b/18.0a"},{"town":"紙子屋町","koaza":"","lat":34.94037,"lng":135.761267,"version":"13.0b/18.0a"},{"town":"上神泉苑町","koaza":"","lat":34.944437,"lng":135.758366,"version":"13.0b/18.0a"},{"town":"上中町","koaza":"","lat":34.929181,"lng":135.757826,"version":"13.0b/18.0a"},{"town":"雁金町","koaza":"","lat":34.945879,"lng":135.758471,"version":"13.0b/18.0a"},{"town":"川東町","koaza":"","lat":34.937838,"lng":135.754456,"version":"13.0b/18.0a"},{"town":"革屋町","koaza":"","lat":34.934482,"lng":135.755722,"version":"13.0b/18.0a"},{"town":"観音寺町","koaza":"","lat":34.933332,"lng":135.765696,"version":"13.0b/18.0a"},{"town":"菊屋町","koaza":"","lat":34.942392,"lng":135.757977,"version":"13.0b/18.0a"},{"town":"北尼崎町","koaza":"","lat":34.93946,"lng":135.758567,"version":"13.0b/18.0a"},{"town":"北寝小屋町","koaza":"","lat":34.939557,"lng":135.749788,"version":"13.0b/18.0a"},{"town":"北端町","koaza":"","lat":34.944856,"lng":135.752933,"version":"13.0b/18.0a"},{"town":"北浜町","koaza":"","lat":34.929776,"lng":135.757066,"version":"13.0b/18.0a"},{"town":"京橋町","koaza":"","lat":34.930643,"lng":135.758689,"version":"13.0b/18.0a"},{"town":"京町十丁目","koaza":"","lat":34.944247,"lng":135.765365,"version":"13.0b/18.0a"},{"town":"京町一丁目","koaza":"","lat":34.928568,"lng":135.764762,"version":"13.0b/18.0a"},{"town":"京町二丁目","koaza":"","lat":34.930763,"lng":135.764734,"version":"13.0b/18.0a"},{"town":"京町三丁目","koaza":"","lat":34.932358,"lng":135.764962,"version":"13.0b/18.0a"},{"town":"京町四丁目","koaza":"","lat":34.93362,"lng":135.764797,"version":"13.0b/18.0a"},{"town":"京町五丁目","koaza":"","lat":34.935807,"lng":135.764661,"version":"13.0b/18.0a"},{"town":"京町六丁目","koaza":"","lat":34.936955,"lng":135.764966,"version":"13.0b/18.0a"},{"town":"京町九丁目","koaza":"","lat":34.942701,"lng":135.765099,"version":"13.0b/18.0a"},{"town":"京町北七丁目","koaza":"","lat":34.939195,"lng":135.764897,"version":"13.0b/18.0a"},{"town":"京町北八丁目","koaza":"","lat":34.941588,"lng":135.765059,"version":"13.0b/18.0a"},{"town":"京町大黒町","koaza":"","lat":34.934746,"lng":135.764778,"version":"13.0b/18.0a"},{"town":"京町八丁目横町","koaza":"","lat":34.942111,"lng":135.765808,"version":"13.0b/18.0a"},{"town":"京町南七丁目","koaza":"","lat":34.938146,"lng":135.764869,"version":"13.0b/18.0a"},{"town":"京町南八丁目","koaza":"","lat":34.940378,"lng":135.764919,"version":"13.0b/18.0a"},{"town":"銀座町一丁目","koaza":"","lat":34.933601,"lng":135.763925,"version":"13.0b/18.0a"},{"town":"銀座町二丁目","koaza":"","lat":34.934699,"lng":135.764001,"version":"13.0b/18.0a"},{"town":"銀座町三丁目","koaza":"","lat":34.935835,"lng":135.764031,"version":"13.0b/18.0a"},{"town":"銀座町四丁目","koaza":"","lat":34.936967,"lng":135.764068,"version":"13.0b/18.0a"},{"town":"久米町","koaza":"","lat":34.939055,"lng":135.757005,"version":"13.0b/18.0a"},{"town":"車町","koaza":"","lat":34.930808,"lng":135.759461,"version":"13.0b/18.0a"},{"town":"黒茶屋町","koaza":"","lat":34.943842,"lng":135.759465,"version":"13.0b/18.0a"},{"town":"久我東町","koaza":"","lat":34.936328,"lng":135.730418,"version":"13.0b/18.0a"},{"town":"久我石原町","koaza":"","lat":34.948394,"lng":135.728628,"version":"13.0b/18.0a"},{"town":"久我御旅町","koaza":"","lat":34.942812,"lng":135.731093,"version":"13.0b/18.0a"},{"town":"久我西出町","koaza":"","lat":34.938537,"lng":135.721352,"version":"13.0b/18.0a"},{"town":"久我本町","koaza":"","lat":34.945491,"lng":135.729677,"version":"13.0b/18.0a"},{"town":"久我森の宮町","koaza":"","lat":34.937412,"lng":135.727766,"version":"13.0b/18.0a"},{"town":"御香宮門前町","koaza":"","lat":34.933821,"lng":135.767405,"version":"13.0b/18.0a"},{"town":"紺屋町","koaza":"","lat":34.935919,"lng":135.760007,"version":"13.0b/18.0a"},{"town":"指物町","koaza":"","lat":34.938557,"lng":135.76253,"version":"13.0b/18.0a"},{"town":"讃岐町","koaza":"","lat":34.931601,"lng":135.765421,"version":"13.0b/18.0a"},{"town":"塩屋町","koaza":"","lat":34.930779,"lng":135.760395,"version":"13.0b/18.0a"},{"town":"治部町","koaza":"","lat":34.938896,"lng":135.752724,"version":"13.0b/18.0a"},{"town":"島津町","koaza":"","lat":34.936157,"lng":135.752625,"version":"13.0b/18.0a"},{"town":"清水町","koaza":"","lat":34.941141,"lng":135.760065,"version":"13.0b/18.0a"},{"town":"下油掛町","koaza":"","lat":34.931523,"lng":135.759063,"version":"13.0b/18.0a"},{"town":"下板橋町","koaza":"","lat":34.938384,"lng":135.760802,"version":"13.0b/18.0a"},{"town":"下神泉苑町","koaza":"","lat":34.943397,"lng":135.758065,"version":"13.0b/18.0a"},{"town":"下鳥羽長田町","koaza":"","lat":34.939641,"lng":135.743658,"version":"13.0b/18.0a"},{"town":"下鳥羽上三栖町","koaza":"","lat":34.932512,"lng":135.746936,"version":"13.0b/18.0a"},{"town":"下鳥羽上向島町","koaza":"","lat":34.94168,"lng":135.740732,"version":"13.0b/18.0a"},{"town":"下鳥羽北円面田町","koaza":"","lat":34.934077,"lng":135.742664,"version":"13.0b/18.0a"},{"town":"下鳥羽北三町","koaza":"","lat":34.937373,"lng":135.741962,"version":"13.0b/18.0a"},{"town":"下鳥羽北ノ口町","koaza":"","lat":34.941456,"lng":135.747361,"version":"13.0b/18.0a"},{"town":"下鳥羽小柳町","koaza":"","lat":34.93422,"lng":135.748171,"version":"13.0b/18.0a"},{"town":"下鳥羽下向島町","koaza":"","lat":34.934842,"lng":135.738999,"version":"13.0b/18.0a"},{"town":"下鳥羽浄春ケ前町","koaza":"","lat":34.934208,"lng":135.750367,"version":"13.0b/18.0a"},{"town":"下鳥羽城ノ越町","koaza":"","lat":34.942328,"lng":135.744359,"version":"13.0b/18.0a"},{"town":"下鳥羽芹川町","koaza":"","lat":34.946015,"lng":135.757158,"version":"13.0b/18.0a"},{"town":"下鳥羽但馬町","koaza":"","lat":34.931884,"lng":135.749516,"version":"13.0b/18.0a"},{"town":"下鳥羽中円面田町","koaza":"","lat":34.932848,"lng":135.742098,"version":"13.0b/18.0a"},{"town":"下鳥羽中三町","koaza":"","lat":34.935132,"lng":135.741502,"version":"13.0b/18.0a"},{"town":"下鳥羽中向島町","koaza":"","lat":34.940162,"lng":135.739189,"version":"13.0b/18.0a"},{"town":"下鳥羽西芹川町","koaza":"","lat":34.942755,"lng":135.747216,"version":"13.0b/18.0a"},{"town":"下鳥羽西柳長町","koaza":"","lat":34.937219,"lng":135.742988,"version":"13.0b/18.0a"},{"town":"下鳥羽東芹川町","koaza":"","lat":34.941946,"lng":135.750331,"version":"13.0b/18.0a"},{"town":"下鳥羽東柳長町","koaza":"","lat":34.937184,"lng":135.744342,"version":"13.0b/18.0a"},{"town":"下鳥羽平塚町","koaza":"","lat":34.937041,"lng":135.746147,"version":"13.0b/18.0a"},{"town":"下鳥羽広長町","koaza":"","lat":34.932384,"lng":135.744568,"version":"13.0b/18.0a"},{"town":"下鳥羽前田町","koaza":"","lat":34.941851,"lng":135.742897,"version":"13.0b/18.0a"},{"town":"下鳥羽南円面田町","koaza":"","lat":34.931575,"lng":135.740459,"version":"13.0b/18.0a"},{"town":"下鳥羽南三町","koaza":"","lat":34.932834,"lng":135.740132,"version":"13.0b/18.0a"},{"town":"下鳥羽南町前町","koaza":"","lat":34.935054,"lng":135.740496,"version":"13.0b/18.0a"},{"town":"下鳥羽南柳長町","koaza":"","lat":34.934779,"lng":135.743613,"version":"13.0b/18.0a"},{"town":"下鳥羽南六反長町","koaza":"","lat":34.931938,"lng":135.751557,"version":"13.0b/18.0a"},{"town":"下鳥羽葭田町","koaza":"","lat":34.937157,"lng":135.748154,"version":"13.0b/18.0a"},{"town":"下鳥羽澱女町","koaza":"","lat":34.934818,"lng":135.745967,"version":"13.0b/18.0a"},{"town":"下鳥羽六反長町","koaza":"","lat":34.933513,"lng":135.752608,"version":"13.0b/18.0a"},{"town":"下鳥羽渡瀬町","koaza":"","lat":34.939671,"lng":135.746586,"version":"13.0b/18.0a"},{"town":"下中町","koaza":"","lat":34.929185,"lng":135.756511,"version":"13.0b/18.0a"},{"town":"撞木町","koaza":"","lat":34.945793,"lng":135.764857,"version":"13.0b/18.0a"},{"town":"聚楽町","koaza":"","lat":34.937704,"lng":135.756746,"version":"13.0b/18.0a"},{"town":"聚楽町一丁目","koaza":"","lat":34.937794,"lng":135.756144,"version":"13.0b/18.0a"},{"town":"聚楽町二丁目","koaza":"","lat":34.939153,"lng":135.756412,"version":"13.0b/18.0a"},{"town":"城通町","koaza":"","lat":34.937671,"lng":135.757377,"version":"13.0b/18.0a"},{"town":"白銀町","koaza":"","lat":34.941286,"lng":135.758622,"version":"13.0b/18.0a"},{"town":"新中町","koaza":"","lat":34.928243,"lng":135.757352,"version":"13.0b/18.0a"},{"town":"新町十丁目","koaza":"","lat":34.939246,"lng":135.763387,"version":"13.0b/18.0a"},{"town":"新町十一丁目","koaza":"","lat":34.940658,"lng":135.763122,"version":"13.0b/18.0a"},{"town":"新町十二丁目","koaza":"","lat":34.941563,"lng":135.763157,"version":"13.0b/18.0a"},{"town":"新町十三丁目","koaza":"","lat":34.942871,"lng":135.763536,"version":"13.0b/18.0a"},{"town":"新町十四丁目","koaza":"","lat":34.944103,"lng":135.763828,"version":"13.0b/18.0a"},{"town":"新町一丁目","koaza":"","lat":34.928964,"lng":135.763267,"version":"13.0b/18.0a"},{"town":"新町二丁目","koaza":"","lat":34.930251,"lng":135.763251,"version":"13.0b/18.0a"},{"town":"新町三丁目","koaza":"","lat":34.931179,"lng":135.763134,"version":"13.0b/18.0a"},{"town":"新町四丁目","koaza":"","lat":34.932321,"lng":135.763203,"version":"13.0b/18.0a"},{"town":"新町五丁目","koaza":"","lat":34.933572,"lng":135.763224,"version":"13.0b/18.0a"},{"town":"新町六丁目","koaza":"","lat":34.934627,"lng":135.76309,"version":"13.0b/18.0a"},{"town":"新町七丁目","koaza":"","lat":34.935829,"lng":135.763096,"version":"13.0b/18.0a"},{"town":"新町八丁目","koaza":"","lat":34.936955,"lng":135.7633,"version":"13.0b/18.0a"},{"town":"新町九丁目","koaza":"","lat":34.938133,"lng":135.763288,"version":"13.0b/18.0a"},{"town":"杉本町","koaza":"","lat":34.931022,"lng":135.754655,"version":"13.0b/18.0a"},{"town":"周防町","koaza":"","lat":34.931919,"lng":135.757922,"version":"13.0b/18.0a"},{"town":"墨染町","koaza":"","lat":34.947835,"lng":135.767989,"version":"13.0b/18.0a"},{"town":"住吉町","koaza":"","lat":34.943923,"lng":135.762159,"version":"13.0b/18.0a"},{"town":"瀬戸物町","koaza":"","lat":34.934098,"lng":135.761936,"version":"13.0b/18.0a"},{"town":"醍醐合場町","koaza":"","lat":34.942763,"lng":135.811869,"version":"13.0b/18.0a"},{"town":"醍醐赤間南裏町","koaza":"","lat":34.952956,"lng":135.821509,"version":"13.0b/18.0a"},{"town":"醍醐池田町","koaza":"","lat":34.946586,"lng":135.80918,"version":"13.0b/18.0a"},{"town":"醍醐和泉町","koaza":"","lat":34.948311,"lng":135.815709,"version":"13.0b/18.0a"},{"town":"醍醐一言寺裏町","koaza":"","lat":34.943512,"lng":135.817803,"version":"13.0b/18.0a"},{"town":"醍醐一ノ切町","koaza":"","lat":34.953699,"lng":135.867522,"version":"13.0b/18.0a"},{"town":"醍醐上ノ山町","koaza":"","lat":34.956622,"lng":135.81439,"version":"13.0b/18.0a"},{"town":"醍醐内ケ井戸","koaza":"","lat":34.963678,"lng":135.824191,"version":"13.0b/18.0a"},{"town":"醍醐江奈志町","koaza":"","lat":34.944585,"lng":135.80908,"version":"13.0b/18.0a"},{"town":"醍醐大構町","koaza":"","lat":34.948236,"lng":135.809541,"version":"13.0b/18.0a"},{"town":"醍醐大高町","koaza":"","lat":34.95876,"lng":135.82239,"version":"13.0b/18.0a"},{"town":"醍醐大畑町","koaza":"","lat":34.961615,"lng":135.823772,"version":"13.0b/18.0a"},{"town":"醍醐落保町","koaza":"","lat":34.948328,"lng":135.818411,"version":"13.0b/18.0a"},{"town":"醍醐折戸町","koaza":"","lat":34.951366,"lng":135.809196,"version":"13.0b/18.0a"},{"town":"醍醐鍵尾町","koaza":"","lat":34.945534,"lng":135.809045,"version":"13.0b/18.0a"},{"town":"醍醐柿原町","koaza":"","lat":34.96117,"lng":135.822224,"version":"13.0b/18.0a"},{"town":"醍醐柏森町","koaza":"","lat":34.942812,"lng":135.816705,"version":"13.0b/18.0a"},{"town":"醍醐片山町","koaza":"","lat":34.956777,"lng":135.82218,"version":"13.0b/18.0a"},{"town":"醍醐構口町","koaza":"","lat":34.944205,"lng":135.813805,"version":"13.0b/18.0a"},{"town":"醍醐上端山町","koaza":"","lat":34.946299,"lng":135.823178,"version":"13.0b/18.0a"},{"town":"醍醐上山口町","koaza":"","lat":34.941136,"lng":135.817385,"version":"13.0b/18.0a"},{"town":"醍醐上山田","koaza":"","lat":34.964204,"lng":135.826429,"version":"13.0b/18.0a"},{"town":"醍醐烏橋町","koaza":"","lat":34.956496,"lng":135.819872,"version":"13.0b/18.0a"},{"town":"醍醐伽藍町","koaza":"","lat":34.950975,"lng":135.823014,"version":"13.0b/18.0a"},{"town":"醍醐川久保町","koaza":"","lat":34.954575,"lng":135.811898,"version":"13.0b/18.0a"},{"town":"醍醐岸ノ上町","koaza":"","lat":34.943191,"lng":135.815048,"version":"13.0b/18.0a"},{"town":"醍醐北伽藍町","koaza":"","lat":34.95223,"lng":135.824686,"version":"13.0b/18.0a"},{"town":"醍醐北西裏町","koaza":"","lat":34.951959,"lng":135.812964,"version":"13.0b/18.0a"},{"town":"醍醐北端山","koaza":"","lat":34.958934,"lng":135.83251,"version":"13.0b/18.0a"},{"town":"醍醐京道町","koaza":"","lat":34.95896,"lng":135.818117,"version":"13.0b/18.0a"},{"town":"醍醐切レ戸町","koaza":"","lat":34.956706,"lng":135.817413,"version":"13.0b/18.0a"},{"town":"醍醐御所ノ内","koaza":"","lat":34.96368,"lng":135.822154,"version":"13.0b/18.0a"},{"town":"醍醐御霊ケ下町","koaza":"","lat":34.948327,"lng":135.812507,"version":"13.0b/18.0a"},{"town":"醍醐御陵西裏町","koaza":"","lat":34.955016,"lng":135.819921,"version":"13.0b/18.0a"},{"town":"醍醐御陵東裏町","koaza":"","lat":34.954981,"lng":135.821807,"version":"13.0b/18.0a"},{"town":"醍醐三ノ切","koaza":"","lat":34.948908,"lng":135.874876,"version":"13.0b/18.0a"},{"town":"醍醐下端山町","koaza":"","lat":34.94693,"lng":135.818859,"version":"13.0b/18.0a"},{"town":"醍醐下山口町","koaza":"","lat":34.942159,"lng":135.814501,"version":"13.0b/18.0a"},{"town":"醍醐勝口町","koaza":"","lat":34.944961,"lng":135.818639,"version":"13.0b/18.0a"},{"town":"醍醐新開","koaza":"","lat":34.943604,"lng":135.809096,"version":"13.0b/18.0a"},{"town":"醍醐新町裏町","koaza":"","lat":34.955637,"lng":135.817073,"version":"13.0b/18.0a"},{"town":"醍醐外山街道町","koaza":"","lat":34.939343,"lng":135.813869,"version":"13.0b/18.0a"},{"town":"醍醐醍醐山","koaza":"","lat":34.940548,"lng":135.841312,"version":"13.0b/18.0a"},{"town":"醍醐高畑町","koaza":"","lat":34.95078,"lng":135.811137,"version":"13.0b/18.0a"},{"town":"醍醐多近田町","koaza":"","lat":34.944605,"lng":135.811966,"version":"13.0b/18.0a"},{"town":"醍醐辰己町","koaza":"","lat":34.941905,"lng":135.813483,"version":"13.0b/18.0a"},{"town":"醍醐陀羅谷","koaza":"","lat":34.958209,"lng":135.851809,"version":"13.0b/18.0a"},{"town":"醍醐僧尊坊町","koaza":"","lat":34.946664,"lng":135.81204,"version":"13.0b/18.0a"},{"town":"醍醐中山町","koaza":"","lat":34.953397,"lng":135.815594,"version":"13.0b/18.0a"},{"town":"醍醐西大路町","koaza":"","lat":34.9508,"lng":135.815541,"version":"13.0b/18.0a"},{"town":"醍醐二ノ切町","koaza":"","lat":34.950558,"lng":135.874057,"version":"13.0b/18.0a"},{"town":"醍醐狭間","koaza":"","lat":34.963833,"lng":135.820699,"version":"13.0b/18.0a"},{"town":"醍醐東合場町","koaza":"","lat":34.941105,"lng":135.811928,"version":"13.0b/18.0a"},{"town":"醍醐東大路町","koaza":"","lat":34.951528,"lng":135.819095,"version":"13.0b/18.0a"},{"town":"醍醐平松町","koaza":"","lat":34.954059,"lng":135.813597,"version":"13.0b/18.0a"},{"town":"醍醐古道町","koaza":"","lat":34.958769,"lng":135.820008,"version":"13.0b/18.0a"},{"town":"醍醐槇ノ内町","koaza":"","lat":34.945625,"lng":135.816609,"version":"13.0b/18.0a"},{"town":"醍醐廻り戸町","koaza":"","lat":34.960948,"lng":135.820539,"version":"13.0b/18.0a"},{"town":"醍醐御園尾町","koaza":"","lat":34.946207,"lng":135.81382,"version":"13.0b/18.0a"},{"town":"醍醐南里町","koaza":"","lat":34.946187,"lng":135.815409,"version":"13.0b/18.0a"},{"town":"醍醐南西裏町","koaza":"","lat":34.945706,"lng":135.812073,"version":"13.0b/18.0a"},{"town":"醍醐南端山町","koaza":"","lat":34.940546,"lng":135.827646,"version":"13.0b/18.0a"},{"town":"醍醐山ケ鼻","koaza":"","lat":34.962387,"lng":135.822651,"version":"13.0b/18.0a"},{"town":"醍醐連蔵","koaza":"","lat":34.962024,"lng":135.820357,"version":"13.0b/18.0a"},{"town":"鷹匠町","koaza":"","lat":34.936387,"lng":135.76093,"version":"13.0b/18.0a"},{"town":"竹田青池町","koaza":"","lat":34.956513,"lng":135.749368,"version":"13.0b/18.0a"},{"town":"竹田内畑町","koaza":"","lat":34.952849,"lng":135.757486,"version":"13.0b/18.0a"},{"town":"竹田桶ノ井町","koaza":"","lat":34.955924,"lng":135.757184,"version":"13.0b/18.0a"},{"town":"竹田狩賀町","koaza":"","lat":34.946785,"lng":135.756204,"version":"13.0b/18.0a"},{"town":"竹田北三ツ杭町","koaza":"","lat":34.959422,"lng":135.758784,"version":"13.0b/18.0a"},{"town":"竹田久保町","koaza":"","lat":34.962979,"lng":135.76099,"version":"13.0b/18.0a"},{"town":"竹田浄菩提院町","koaza":"","lat":34.951747,"lng":135.754165,"version":"13.0b/18.0a"},{"town":"竹田醍醐田町","koaza":"","lat":34.949731,"lng":135.756746,"version":"13.0b/18.0a"},{"town":"竹田田中殿町","koaza":"","lat":34.954013,"lng":135.747949,"version":"13.0b/18.0a"},{"town":"竹田田中宮町","koaza":"","lat":34.94925,"lng":135.753735,"version":"13.0b/18.0a"},{"town":"竹田段川原町","koaza":"","lat":34.959133,"lng":135.757155,"version":"13.0b/18.0a"},{"town":"竹田鳥羽殿町","koaza":"","lat":34.947355,"lng":135.750771,"version":"13.0b/18.0a"},{"town":"竹田中内畑町","koaza":"","lat":34.95342,"lng":135.754195,"version":"13.0b/18.0a"},{"town":"竹田中川原町","koaza":"","lat":34.958921,"lng":135.760382,"version":"13.0b/18.0a"},{"town":"竹田中島町","koaza":"","lat":34.961878,"lng":135.757485,"version":"13.0b/18.0a"},{"town":"竹田七瀬川町","koaza":"","lat":34.953248,"lng":135.759696,"version":"13.0b/18.0a"},{"town":"竹田西内畑町","koaza":"","lat":34.954132,"lng":135.751028,"version":"13.0b/18.0a"},{"town":"竹田西桶ノ井町","koaza":"","lat":34.955227,"lng":135.755185,"version":"13.0b/18.0a"},{"town":"竹田西小屋ノ内町","koaza":"","lat":34.952418,"lng":135.746877,"version":"13.0b/18.0a"},{"town":"竹田西段川原町","koaza":"","lat":34.958806,"lng":135.754488,"version":"13.0b/18.0a"},{"town":"竹田東小屋ノ内町","koaza":"","lat":34.951839,"lng":135.749823,"version":"13.0b/18.0a"},{"town":"竹田泓ノ川町","koaza":"","lat":34.94504,"lng":135.748392,"version":"13.0b/18.0a"},{"town":"竹田松林町","koaza":"","lat":34.944889,"lng":135.750847,"version":"13.0b/18.0a"},{"town":"竹田真幡木町","koaza":"","lat":34.95536,"lng":135.753263,"version":"13.0b/18.0a"},{"town":"竹田三ツ杭町","koaza":"","lat":34.955998,"lng":135.758578,"version":"13.0b/18.0a"},{"town":"竹田向代町","koaza":"","lat":34.964442,"lng":135.754978,"version":"13.0b/18.0a"},{"town":"竹田向代町川町","koaza":"","lat":34.964051,"lng":135.752718,"version":"13.0b/18.0a"},{"town":"竹田流池町","koaza":"","lat":34.961586,"lng":135.75417,"version":"13.0b/18.0a"},{"town":"竹田藁屋町","koaza":"","lat":34.947175,"lng":135.753619,"version":"13.0b/18.0a"},{"town":"竹中町","koaza":"","lat":34.936555,"lng":135.762338,"version":"13.0b/18.0a"},{"town":"樽屋町","koaza":"","lat":34.9413,"lng":135.757931,"version":"13.0b/18.0a"},{"town":"丹後町","koaza":"","lat":34.929606,"lng":135.762618,"version":"13.0b/18.0a"},{"town":"弾正町","koaza":"","lat":34.927679,"lng":135.765353,"version":"13.0b/18.0a"},{"town":"丹波橋町","koaza":"","lat":34.940283,"lng":135.759822,"version":"13.0b/18.0a"},{"town":"津知橋町","koaza":"","lat":34.944655,"lng":135.761123,"version":"13.0b/18.0a"},{"town":"問屋町","koaza":"","lat":34.93586,"lng":135.755936,"version":"13.0b/18.0a"},{"town":"道阿弥町","koaza":"","lat":34.932368,"lng":135.765952,"version":"13.0b/18.0a"},{"town":"等安町","koaza":"","lat":34.942344,"lng":135.759339,"version":"13.0b/18.0a"},{"town":"桃陵町","koaza":"","lat":34.928815,"lng":135.766533,"version":"13.0b/18.0a"},{"town":"常盤町","koaza":"","lat":34.930662,"lng":135.767949,"version":"13.0b/18.0a"},{"town":"土橋町","koaza":"","lat":34.936712,"lng":135.757823,"version":"13.0b/18.0a"},{"town":"鳥羽町","koaza":"","lat":34.94529,"lng":135.757399,"version":"13.0b/18.0a"},{"town":"中油掛町","koaza":"","lat":34.931384,"lng":135.760397,"version":"13.0b/18.0a"},{"town":"中島秋ノ山町","koaza":"","lat":34.951781,"lng":135.744341,"version":"13.0b/18.0a"},{"town":"中島河原田町","koaza":"","lat":34.947297,"lng":135.74183,"version":"13.0b/18.0a"},{"town":"中島北ノ口町","koaza":"","lat":34.949527,"lng":135.750915,"version":"13.0b/18.0a"},{"town":"中島御所ノ内町","koaza":"","lat":34.949647,"lng":135.744112,"version":"13.0b/18.0a"},{"town":"中島鳥羽離宮町","koaza":"","lat":34.950218,"lng":135.747029,"version":"13.0b/18.0a"},{"town":"中島外山町","koaza":"","lat":34.945295,"lng":135.746416,"version":"13.0b/18.0a"},{"town":"中島中道町","koaza":"","lat":34.94752,"lng":135.746492,"version":"13.0b/18.0a"},{"town":"中島樋ノ上町","koaza":"","lat":34.945211,"lng":135.744311,"version":"13.0b/18.0a"},{"town":"中島堀端町","koaza":"","lat":34.947439,"lng":135.748581,"version":"13.0b/18.0a"},{"town":"中島前山町","koaza":"","lat":34.947589,"lng":135.744235,"version":"13.0b/18.0a"},{"town":"中島宮ノ前町","koaza":"","lat":34.94924,"lng":135.748213,"version":"13.0b/18.0a"},{"town":"中島流作町","koaza":"","lat":34.952079,"lng":135.742747,"version":"13.0b/18.0a"},{"town":"中之町","koaza":"","lat":34.94306,"lng":135.762026,"version":"13.0b/18.0a"},{"town":"鍋島町","koaza":"","lat":34.932113,"lng":135.768112,"version":"13.0b/18.0a"},{"town":"納屋町","koaza":"","lat":34.932273,"lng":135.759585,"version":"13.0b/18.0a"},{"town":"奈良屋町","koaza":"","lat":34.945318,"lng":135.76177,"version":"13.0b/18.0a"},{"town":"成町","koaza":"","lat":34.939213,"lng":135.755763,"version":"13.0b/18.0a"},{"town":"南部町","koaza":"","lat":34.934108,"lng":135.7609,"version":"13.0b/18.0a"},{"town":"西尼崎町","koaza":"","lat":34.935727,"lng":135.755214,"version":"13.0b/18.0a"},{"town":"西大手町","koaza":"","lat":34.933053,"lng":135.758411,"version":"13.0b/18.0a"},{"town":"西鍵屋町","koaza":"","lat":34.943887,"lng":135.760757,"version":"13.0b/18.0a"},{"town":"西堺町","koaza":"","lat":34.936895,"lng":135.755293,"version":"13.0b/18.0a"},{"town":"西朱雀町","koaza":"","lat":34.942053,"lng":135.758667,"version":"13.0b/18.0a"},{"town":"西大黒町","koaza":"","lat":34.940734,"lng":135.757351,"version":"13.0b/18.0a"},{"town":"西大文字町","koaza":"","lat":34.93489,"lng":135.754331,"version":"13.0b/18.0a"},{"town":"西浜町","koaza":"","lat":34.928097,"lng":135.756332,"version":"13.0b/18.0a"},{"town":"西奉行町","koaza":"","lat":34.930686,"lng":135.766355,"version":"13.0b/18.0a"},{"town":"西桝屋町","koaza":"","lat":34.947566,"lng":135.766329,"version":"13.0b/18.0a"},{"town":"西町","koaza":"","lat":34.935241,"lng":135.758261,"version":"13.0b/18.0a"},{"town":"西柳町","koaza":"","lat":34.929046,"lng":135.759504,"version":"13.0b/18.0a"},{"town":"納所和泉屋","koaza":"","lat":34.911985,"lng":135.724249,"version":"13.0b/18.0a"},{"town":"納所大野","koaza":"","lat":34.9125,"lng":135.728039,"version":"13.0b/18.0a"},{"town":"納所岸ノ下","koaza":"","lat":34.9145,"lng":135.724977,"version":"13.0b/18.0a"},{"town":"納所北城堀","koaza":"","lat":34.911366,"lng":135.720525,"version":"13.0b/18.0a"},{"town":"納所下野","koaza":"","lat":34.909671,"lng":135.728619,"version":"13.0b/18.0a"},{"town":"納所町","koaza":"","lat":34.909949,"lng":135.717789,"version":"13.0b/18.0a"},{"town":"納所外島","koaza":"","lat":34.915708,"lng":135.723544,"version":"13.0b/18.0a"},{"town":"納所中河原","koaza":"","lat":34.913507,"lng":135.724045,"version":"13.0b/18.0a"},{"town":"納所星柳","koaza":"","lat":34.910952,"lng":135.722831,"version":"13.0b/18.0a"},{"town":"納所南城堀","koaza":"","lat":34.909144,"lng":135.720372,"version":"13.0b/18.0a"},{"town":"納所妙徳寺","koaza":"","lat":34.909425,"lng":135.718883,"version":"13.0b/18.0a"},{"town":"納所薬師堂","koaza":"","lat":34.909143,"lng":135.721847,"version":"13.0b/18.0a"},{"town":"羽束師鴨川町","koaza":"","lat":34.933929,"lng":135.73411,"version":"13.0b/18.0a"},{"town":"羽束師志水町","koaza":"","lat":34.930369,"lng":135.726219,"version":"13.0b/18.0a"},{"town":"羽束師菱川町","koaza":"","lat":34.932496,"lng":135.719617,"version":"13.0b/18.0a"},{"town":"羽束師古川町","koaza":"","lat":34.925011,"lng":135.722886,"version":"13.0b/18.0a"},{"town":"東大手町","koaza":"","lat":34.933006,"lng":135.761852,"version":"13.0b/18.0a"},{"town":"東組町","koaza":"","lat":34.93525,"lng":135.760887,"version":"13.0b/18.0a"},{"town":"東堺町","koaza":"","lat":34.937663,"lng":135.758453,"version":"13.0b/18.0a"},{"town":"東朱雀町","koaza":"","lat":34.941261,"lng":135.759322,"version":"13.0b/18.0a"},{"town":"東大黒町","koaza":"","lat":34.940287,"lng":135.757695,"version":"13.0b/18.0a"},{"town":"東大文字町","koaza":"","lat":34.940276,"lng":135.758638,"version":"13.0b/18.0a"},{"town":"東浜南町","koaza":"","lat":34.92816,"lng":135.758489,"version":"13.0b/18.0a"},{"town":"東菱屋町","koaza":"","lat":34.935422,"lng":135.756903,"version":"13.0b/18.0a"},{"town":"東奉行町","koaza":"","lat":34.930596,"lng":135.767306,"version":"13.0b/18.0a"},{"town":"東町","koaza":"","lat":34.9353,"lng":135.75965,"version":"13.0b/18.0a"},{"town":"東柳町","koaza":"","lat":34.929002,"lng":135.760542,"version":"13.0b/18.0a"},{"town":"肥後町","koaza":"","lat":34.936081,"lng":135.758025,"version":"13.0b/18.0a"},{"town":"菱屋町","koaza":"","lat":34.945006,"lng":135.75946,"version":"13.0b/18.0a"},{"town":"日野岡西町","koaza":"","lat":34.933089,"lng":135.81417,"version":"13.0b/18.0a"},{"town":"日野奥出","koaza":"","lat":34.929699,"lng":135.816461,"version":"13.0b/18.0a"},{"town":"日野北川頬","koaza":"","lat":34.935791,"lng":135.820379,"version":"13.0b/18.0a"},{"town":"日野北山","koaza":"","lat":34.935793,"lng":135.827055,"version":"13.0b/18.0a"},{"town":"日野慈悲町","koaza":"","lat":34.935107,"lng":135.8178,"version":"13.0b/18.0a"},{"town":"日野田頬町","koaza":"","lat":34.93291,"lng":135.81325,"version":"13.0b/18.0a"},{"town":"日野田中町","koaza":"","lat":34.938629,"lng":135.812352,"version":"13.0b/18.0a"},{"town":"日野谷田町","koaza":"","lat":34.930544,"lng":135.819933,"version":"13.0b/18.0a"},{"town":"日野谷寺町","koaza":"","lat":34.939123,"lng":135.816821,"version":"13.0b/18.0a"},{"town":"日野西川頬","koaza":"","lat":34.937862,"lng":135.81104,"version":"13.0b/18.0a"},{"town":"日野西大道町","koaza":"","lat":34.93369,"lng":135.815294,"version":"13.0b/18.0a"},{"town":"日野西風呂町","koaza":"","lat":34.935502,"lng":135.8135,"version":"13.0b/18.0a"},{"town":"日野野色町","koaza":"","lat":34.929812,"lng":135.814866,"version":"13.0b/18.0a"},{"town":"日野畑出町","koaza":"","lat":34.934042,"lng":135.817513,"version":"13.0b/18.0a"},{"town":"日野林","koaza":"","lat":34.937295,"lng":135.817115,"version":"13.0b/18.0a"},{"town":"日野馬場出町","koaza":"","lat":34.937119,"lng":135.813814,"version":"13.0b/18.0a"},{"town":"日野不動講町","koaza":"","lat":34.936624,"lng":135.815719,"version":"13.0b/18.0a"},{"town":"日野船尾","koaza":"","lat":34.933946,"lng":135.822487,"version":"13.0b/18.0a"},{"town":"日野南山","koaza":"","lat":34.930609,"lng":135.826932,"version":"13.0b/18.0a"},{"town":"平戸町","koaza":"","lat":34.926441,"lng":135.766269,"version":"13.0b/18.0a"},{"town":"平野町","koaza":"","lat":34.932401,"lng":135.760651,"version":"13.0b/18.0a"},{"town":"深草相深町","koaza":"","lat":34.972465,"lng":135.76902,"version":"13.0b/18.0a"},{"town":"深草鐙ケ谷町","koaza":"","lat":34.948447,"lng":135.789363,"version":"13.0b/18.0a"},{"town":"深草池ノ内町","koaza":"","lat":34.954582,"lng":135.764944,"version":"13.0b/18.0a"},{"town":"深草飯食町","koaza":"","lat":34.955636,"lng":135.768839,"version":"13.0b/18.0a"},{"town":"深草飯食山町","koaza":"","lat":34.959638,"lng":135.787531,"version":"13.0b/18.0a"},{"town":"深草石橋町","koaza":"","lat":34.948201,"lng":135.771469,"version":"13.0b/18.0a"},{"town":"深草一ノ坪町","koaza":"","lat":34.968404,"lng":135.769013,"version":"13.0b/18.0a"},{"town":"深草稲荷榎木橋町","koaza":"","lat":34.969461,"lng":135.770933,"version":"13.0b/18.0a"},{"town":"深草稲荷御前町","koaza":"","lat":34.966944,"lng":135.770944,"version":"13.0b/18.0a"},{"town":"深草稲荷鳥居前町","koaza":"","lat":34.966501,"lng":135.769554,"version":"13.0b/18.0a"},{"town":"深草稲荷中之町","koaza":"","lat":34.96846,"lng":135.770928,"version":"13.0b/18.0a"},{"town":"深草今在家町","koaza":"","lat":34.965404,"lng":135.766886,"version":"13.0b/18.0a"},{"town":"深草馬谷町","koaza":"","lat":34.956122,"lng":135.786885,"version":"13.0b/18.0a"},{"town":"深草越後屋敷町","koaza":"","lat":34.950337,"lng":135.764437,"version":"13.0b/18.0a"},{"town":"深草扇ケ原町","koaza":"","lat":34.961097,"lng":135.790539,"version":"13.0b/18.0a"},{"town":"深草大亀谷安信町","koaza":"","lat":34.94001,"lng":135.784627,"version":"13.0b/18.0a"},{"town":"深草大亀谷岩山町","koaza":"","lat":34.941329,"lng":135.787953,"version":"13.0b/18.0a"},{"town":"深草大亀谷大谷町","koaza":"","lat":34.949073,"lng":135.780767,"version":"13.0b/18.0a"},{"town":"深草大亀谷大山町","koaza":"","lat":34.946859,"lng":135.778345,"version":"13.0b/18.0a"},{"town":"深草大亀谷金森出雲町","koaza":"","lat":34.944555,"lng":135.770973,"version":"13.0b/18.0a"},{"town":"深草大亀谷古城山","koaza":"","lat":34.939611,"lng":135.783837,"version":"13.0b/18.0a"},{"town":"深草大亀谷五郎太町","koaza":"","lat":34.941997,"lng":135.776879,"version":"13.0b/18.0a"},{"town":"深草大亀谷敦賀町","koaza":"","lat":34.943511,"lng":135.783927,"version":"13.0b/18.0a"},{"town":"深草大亀谷内膳町","koaza":"","lat":34.945757,"lng":135.772724,"version":"13.0b/18.0a"},{"town":"深草大亀谷西久宝寺町","koaza":"","lat":34.953478,"lng":135.776865,"version":"13.0b/18.0a"},{"town":"深草大亀谷西寺町","koaza":"","lat":34.95026,"lng":135.775459,"version":"13.0b/18.0a"},{"town":"深草大亀谷東安信町","koaza":"","lat":34.940693,"lng":135.785529,"version":"13.0b/18.0a"},{"town":"深草大亀谷東久宝寺町","koaza":"","lat":34.952656,"lng":135.779129,"version":"13.0b/18.0a"},{"town":"深草大亀谷東寺町","koaza":"","lat":34.949371,"lng":135.777953,"version":"13.0b/18.0a"},{"town":"深草大亀谷東古御香町","koaza":"","lat":34.944277,"lng":135.787114,"version":"13.0b/18.0a"},{"town":"深草大亀谷古御香町","koaza":"","lat":34.944605,"lng":135.784939,"version":"13.0b/18.0a"},{"town":"深草大亀谷万帖敷町","koaza":"","lat":34.944204,"lng":135.779325,"version":"13.0b/18.0a"},{"town":"深草大亀谷八島町","koaza":"","lat":34.947692,"lng":135.773672,"version":"13.0b/18.0a"},{"town":"深草大亀谷六躰町","koaza":"","lat":34.944985,"lng":135.774328,"version":"13.0b/18.0a"},{"town":"深草大島屋敷町","koaza":"","lat":34.94924,"lng":135.766254,"version":"13.0b/18.0a"},{"town":"深草ヲカヤ町","koaza":"","lat":34.964286,"lng":135.763747,"version":"13.0b/18.0a"},{"town":"深草開土口町","koaza":"","lat":34.969225,"lng":135.775608,"version":"13.0b/18.0a"},{"town":"深草開土町","koaza":"","lat":34.96942,"lng":135.772557,"version":"13.0b/18.0a"},{"town":"深草加賀屋敷町","koaza":"","lat":34.948821,"lng":135.757495,"version":"13.0b/18.0a"},{"town":"深草兜山町","koaza":"","lat":34.945808,"lng":135.78909,"version":"13.0b/18.0a"},{"town":"深草上横縄町","koaza":"","lat":34.97051,"lng":135.769242,"version":"13.0b/18.0a"},{"town":"深草枯木町","koaza":"","lat":34.954759,"lng":135.773604,"version":"13.0b/18.0a"},{"town":"深草川久保町","koaza":"","lat":34.965715,"lng":135.763884,"version":"13.0b/18.0a"},{"town":"深草瓦町","koaza":"","lat":34.957688,"lng":135.778534,"version":"13.0b/18.0a"},{"town":"深草願成町","koaza":"","lat":34.971211,"lng":135.774139,"version":"13.0b/18.0a"},{"town":"深草勧進橋町","koaza":"","lat":34.968861,"lng":135.761749,"version":"13.0b/18.0a"},{"town":"深草北鍵屋町","koaza":"","lat":34.949583,"lng":135.767333,"version":"13.0b/18.0a"},{"town":"深草北新町","koaza":"","lat":34.948696,"lng":135.769743,"version":"13.0b/18.0a"},{"town":"深草北蓮池町","koaza":"","lat":34.951701,"lng":135.767938,"version":"13.0b/18.0a"},{"town":"深草キトロ町","koaza":"","lat":34.958418,"lng":135.769457,"version":"13.0b/18.0a"},{"town":"深草霧ケ谷町","koaza":"","lat":34.952189,"lng":135.788898,"version":"13.0b/18.0a"},{"town":"深草鞍ケ谷","koaza":"","lat":34.95559,"lng":135.78296,"version":"13.0b/18.0a"},{"town":"深草車阪町","koaza":"","lat":34.975381,"lng":135.77704,"version":"13.0b/18.0a"},{"town":"深草ケナサ町","koaza":"","lat":34.963808,"lng":135.769552,"version":"13.0b/18.0a"},{"town":"深草小久保町","koaza":"","lat":34.95231,"lng":135.762062,"version":"13.0b/18.0a"},{"town":"深草極楽寺町","koaza":"","lat":34.962187,"lng":135.77298,"version":"13.0b/18.0a"},{"town":"深草極楽寺山町","koaza":"","lat":34.964593,"lng":135.789109,"version":"13.0b/18.0a"},{"town":"深草極楽町","koaza":"","lat":34.955699,"lng":135.770176,"version":"13.0b/18.0a"},{"town":"深草五反田町","koaza":"","lat":34.956644,"lng":135.764847,"version":"13.0b/18.0a"},{"town":"深草紺屋町","koaza":"","lat":34.945311,"lng":135.763017,"version":"13.0b/18.0a"},{"town":"深草笹山町","koaza":"","lat":34.966679,"lng":135.777637,"version":"13.0b/18.0a"},{"town":"深草佐野屋敷町","koaza":"","lat":34.947283,"lng":135.765309,"version":"13.0b/18.0a"},{"town":"深草柴田屋敷町","koaza":"","lat":34.947368,"lng":135.761913,"version":"13.0b/18.0a"},{"town":"深草下川原町","koaza":"","lat":34.96759,"lng":135.763085,"version":"13.0b/18.0a"},{"town":"深草下高松町","koaza":"","lat":34.972877,"lng":135.769339,"version":"13.0b/18.0a"},{"town":"深草下横縄町","koaza":"","lat":34.969499,"lng":135.769468,"version":"13.0b/18.0a"},{"town":"深草十九軒町","koaza":"","lat":34.951479,"lng":135.769692,"version":"13.0b/18.0a"},{"town":"深草正覚町","koaza":"","lat":34.972538,"lng":135.772282,"version":"13.0b/18.0a"},{"town":"深草白砂町","koaza":"","lat":34.94892,"lng":135.785251,"version":"13.0b/18.0a"},{"town":"深草真宗院山町","koaza":"","lat":34.960237,"lng":135.778418,"version":"13.0b/18.0a"},{"town":"深草神明講谷町","koaza":"","lat":34.957818,"lng":135.789617,"version":"13.0b/18.0a"},{"town":"深草新門丈町","koaza":"","lat":34.950162,"lng":135.761006,"version":"13.0b/18.0a"},{"town":"深草直違橋十丁目","koaza":"","lat":34.964296,"lng":135.771083,"version":"13.0b/18.0a"},{"town":"深草直違橋十一丁目","koaza":"","lat":34.965484,"lng":135.770929,"version":"13.0b/18.0a"},{"town":"深草直違橋二丁目","koaza":"","lat":34.954825,"lng":135.770825,"version":"13.0b/18.0a"},{"town":"深草直違橋三丁目","koaza":"","lat":34.956197,"lng":135.771233,"version":"13.0b/18.0a"},{"town":"深草直違橋四丁目","koaza":"","lat":34.957452,"lng":135.771354,"version":"13.0b/18.0a"},{"town":"深草直違橋五丁目","koaza":"","lat":34.958511,"lng":135.771186,"version":"13.0b/18.0a"},{"town":"深草直違橋六丁目","koaza":"","lat":34.959732,"lng":135.771178,"version":"13.0b/18.0a"},{"town":"深草直違橋七丁目","koaza":"","lat":34.960804,"lng":135.771185,"version":"13.0b/18.0a"},{"town":"深草直違橋八丁目","koaza":"","lat":34.961905,"lng":135.771148,"version":"13.0b/18.0a"},{"town":"深草直違橋九丁目","koaza":"","lat":34.963148,"lng":135.771099,"version":"13.0b/18.0a"},{"town":"深草直違橋片町","koaza":"","lat":34.951527,"lng":135.770933,"version":"13.0b/18.0a"},{"town":"深草直違橋北一丁目","koaza":"","lat":34.95372,"lng":135.770798,"version":"13.0b/18.0a"},{"town":"深草直違橋南一丁目","koaza":"","lat":34.952951,"lng":135.770259,"version":"13.0b/18.0a"},{"town":"深草鈴塚町","koaza":"","lat":34.969642,"lng":135.766465,"version":"13.0b/18.0a"},{"town":"深草スゝハキ町","koaza":"","lat":34.96534,"lng":135.769538,"version":"13.0b/18.0a"},{"town":"深草砂子谷町","koaza":"","lat":34.951417,"lng":135.785008,"version":"13.0b/18.0a"},{"town":"深草墨染町","koaza":"","lat":34.946455,"lng":135.768058,"version":"13.0b/18.0a"},{"town":"深草石峰寺山町","koaza":"","lat":34.964863,"lng":135.77653,"version":"13.0b/18.0a"},{"town":"深草関屋敷町","koaza":"","lat":34.951466,"lng":135.766967,"version":"13.0b/18.0a"},{"town":"深草仙石屋敷町","koaza":"","lat":34.952649,"lng":135.765238,"version":"13.0b/18.0a"},{"town":"深草善導寺町","koaza":"","lat":34.946154,"lng":135.759594,"version":"13.0b/18.0a"},{"town":"深草僧坊町","koaza":"","lat":34.958286,"lng":135.776058,"version":"13.0b/18.0a"},{"town":"深草僧坊山町","koaza":"","lat":34.962474,"lng":135.782807,"version":"13.0b/18.0a"},{"town":"深草大門町","koaza":"","lat":34.965056,"lng":135.772755,"version":"13.0b/18.0a"},{"town":"深草谷口町","koaza":"","lat":34.951884,"lng":135.781917,"version":"13.0b/18.0a"},{"town":"深草田谷町","koaza":"","lat":34.958706,"lng":135.773151,"version":"13.0b/18.0a"},{"town":"深草町通町","koaza":"","lat":34.960602,"lng":135.769495,"version":"13.0b/18.0a"},{"town":"深草塚本町","koaza":"","lat":34.963897,"lng":135.766662,"version":"13.0b/18.0a"},{"town":"深草寺内町","koaza":"","lat":34.953735,"lng":135.76878,"version":"13.0b/18.0a"},{"town":"深草出羽屋敷町","koaza":"","lat":34.94707,"lng":135.763859,"version":"13.0b/18.0a"},{"town":"深草東軸町","koaza":"","lat":34.952026,"lng":135.786781,"version":"13.0b/18.0a"},{"town":"深草砥粉山町","koaza":"","lat":34.961405,"lng":135.78538,"version":"13.0b/18.0a"},{"town":"深草鳥居崎町","koaza":"","lat":34.950337,"lng":135.771401,"version":"13.0b/18.0a"},{"town":"深草中川原町","koaza":"","lat":34.972093,"lng":135.766579,"version":"13.0b/18.0a"},{"town":"深草中ノ郷山町","koaza":"","lat":34.958899,"lng":135.783156,"version":"13.0b/18.0a"},{"town":"深草中ノ島町","koaza":"","lat":34.946247,"lng":135.770605,"version":"13.0b/18.0a"},{"town":"深草七瀬川町","koaza":"","lat":34.952917,"lng":135.76778,"version":"13.0b/18.0a"},{"town":"深草南明町","koaza":"","lat":34.972963,"lng":135.77569,"version":"13.0b/18.0a"},{"town":"深草西飯食町","koaza":"","lat":34.955171,"lng":135.767892,"version":"13.0b/18.0a"},{"town":"深草西浦町一丁目","koaza":"","lat":34.961678,"lng":135.762624,"version":"13.0b/18.0a"},{"town":"深草西浦町二丁目","koaza":"","lat":34.961663,"lng":135.764528,"version":"13.0b/18.0a"},{"town":"深草西浦町三丁目","koaza":"","lat":34.961334,"lng":135.766158,"version":"13.0b/18.0a"},{"town":"深草西浦町四丁目","koaza":"","lat":34.961352,"lng":135.767561,"version":"13.0b/18.0a"},{"town":"深草西浦町五丁目","koaza":"","lat":34.958266,"lng":135.76721,"version":"13.0b/18.0a"},{"town":"深草西浦町六丁目","koaza":"","lat":34.958243,"lng":135.765483,"version":"13.0b/18.0a"},{"town":"深草西浦町七丁目","koaza":"","lat":34.958871,"lng":135.764195,"version":"13.0b/18.0a"},{"town":"深草西浦町八丁目","koaza":"","lat":34.958433,"lng":135.762042,"version":"13.0b/18.0a"},{"town":"深草西川原町","koaza":"","lat":34.971552,"lng":135.764663,"version":"13.0b/18.0a"},{"town":"深草西伊達町","koaza":"","lat":34.956332,"lng":135.773636,"version":"13.0b/18.0a"},{"town":"深草西出町","koaza":"","lat":34.960424,"lng":135.772912,"version":"13.0b/18.0a"},{"town":"深草西出山町","koaza":"","lat":34.962699,"lng":135.777961,"version":"13.0b/18.0a"},{"town":"深草野田町","koaza":"","lat":34.959643,"lng":135.769487,"version":"13.0b/18.0a"},{"town":"深草野手町","koaza":"","lat":34.963635,"lng":135.772728,"version":"13.0b/18.0a"},{"town":"深草秡川町","koaza":"","lat":34.96744,"lng":135.769108,"version":"13.0b/18.0a"},{"town":"深草東瓦町","koaza":"","lat":34.957915,"lng":135.780615,"version":"13.0b/18.0a"},{"town":"深草東伊達町","koaza":"","lat":34.955485,"lng":135.778023,"version":"13.0b/18.0a"},{"town":"深草平田町","koaza":"","lat":34.96763,"lng":135.76524,"version":"13.0b/18.0a"},{"town":"深草フケノ内町","koaza":"","lat":34.968075,"lng":135.767235,"version":"13.0b/18.0a"},{"town":"深草泓ノ壺町","koaza":"","lat":34.948592,"lng":135.759764,"version":"13.0b/18.0a"},{"town":"深草藤田坪町","koaza":"","lat":34.972063,"lng":135.767376,"version":"13.0b/18.0a"},{"town":"深草藤森玄蕃町","koaza":"","lat":34.950281,"lng":135.769664,"version":"13.0b/18.0a"},{"town":"深草藤森町","koaza":"","lat":34.950616,"lng":135.773299,"version":"13.0b/18.0a"},{"town":"深草フチ町","koaza":"","lat":34.954593,"lng":135.761525,"version":"13.0b/18.0a"},{"town":"深草坊町","koaza":"","lat":34.960549,"lng":135.77552,"version":"13.0b/18.0a"},{"town":"深草宝塔寺山町","koaza":"","lat":34.962795,"lng":135.775561,"version":"13.0b/18.0a"},{"town":"深草坊山町","koaza":"","lat":34.963574,"lng":135.781884,"version":"13.0b/18.0a"},{"town":"深草堀田町","koaza":"","lat":34.957284,"lng":135.76944,"version":"13.0b/18.0a"},{"town":"深草本寺山町","koaza":"","lat":34.975321,"lng":135.774993,"version":"13.0b/18.0a"},{"town":"深草南蓮池町","koaza":"","lat":34.950779,"lng":135.767686,"version":"13.0b/18.0a"},{"town":"深草宮谷町","koaza":"","lat":34.948885,"lng":135.782221,"version":"13.0b/18.0a"},{"town":"深草向川原町","koaza":"","lat":34.965795,"lng":135.759577,"version":"13.0b/18.0a"},{"town":"深草向畑町","koaza":"","lat":34.95358,"lng":135.773814,"version":"13.0b/18.0a"},{"town":"深草向ケ原町","koaza":"","lat":34.95278,"lng":135.791245,"version":"13.0b/18.0a"},{"town":"深草森吉町","koaza":"","lat":34.971423,"lng":135.769126,"version":"13.0b/18.0a"},{"town":"深草藪之内町","koaza":"","lat":34.966389,"lng":135.772446,"version":"13.0b/18.0a"},{"town":"深草山村町","koaza":"","lat":34.948641,"lng":135.767034,"version":"13.0b/18.0a"},{"town":"深草芳永町","koaza":"","lat":34.949209,"lng":135.768397,"version":"13.0b/18.0a"},{"town":"深草芳本町","koaza":"","lat":34.948933,"lng":135.769,"version":"13.0b/18.0a"},{"town":"深草六反田町","koaza":"","lat":34.970632,"lng":135.766428,"version":"13.0b/18.0a"},{"town":"深草綿森町","koaza":"","lat":34.962078,"lng":135.769483,"version":"13.0b/18.0a"},{"town":"奉行前町","koaza":"","lat":34.930548,"lng":135.765436,"version":"13.0b/18.0a"},{"town":"舞台町","koaza":"","lat":34.94114,"lng":135.755628,"version":"13.0b/18.0a"},{"town":"風呂屋町","koaza":"","lat":34.934042,"lng":135.759972,"version":"13.0b/18.0a"},{"town":"豊後橋町","koaza":"","lat":34.928042,"lng":135.768196,"version":"13.0b/18.0a"},{"town":"伯耆町","koaza":"","lat":34.932172,"lng":135.761164,"version":"13.0b/18.0a"},{"town":"堀詰町","koaza":"","lat":34.941497,"lng":135.761786,"version":"13.0b/18.0a"},{"town":"桝形町","koaza":"","lat":34.93907,"lng":135.759411,"version":"13.0b/18.0a"},{"town":"桝屋町","koaza":"","lat":34.942373,"lng":135.760115,"version":"13.0b/18.0a"},{"town":"松屋町","koaza":"","lat":34.937921,"lng":135.755371,"version":"13.0b/18.0a"},{"town":"三栖町一丁目","koaza":"","lat":34.929778,"lng":135.75542,"version":"13.0b/18.0a"},{"town":"三栖町二丁目","koaza":"","lat":34.928159,"lng":135.755486,"version":"13.0b/18.0a"},{"town":"三栖町三丁目","koaza":"","lat":34.926417,"lng":135.755386,"version":"13.0b/18.0a"},{"town":"三栖町四丁目","koaza":"","lat":34.92486,"lng":135.755453,"version":"13.0b/18.0a"},{"town":"三栖町五丁目","koaza":"","lat":34.922487,"lng":135.755489,"version":"13.0b/18.0a"},{"town":"三栖半町","koaza":"","lat":34.930502,"lng":135.755934,"version":"13.0b/18.0a"},{"town":"三栖向町","koaza":"","lat":34.92715,"lng":135.757527,"version":"13.0b/18.0a"},{"town":"御堂前町","koaza":"","lat":34.932423,"lng":135.762305,"version":"13.0b/18.0a"},{"town":"南尼崎町","koaza":"","lat":34.938735,"lng":135.758377,"version":"13.0b/18.0a"},{"town":"南新地","koaza":"","lat":34.927427,"lng":135.759923,"version":"13.0b/18.0a"},{"town":"南寝小屋町","koaza":"","lat":34.937157,"lng":135.750422,"version":"13.0b/18.0a"},{"town":"南浜町","koaza":"","lat":34.930319,"lng":135.760132,"version":"13.0b/18.0a"},{"town":"向島大河原","koaza":"","lat":34.917632,"lng":135.755161,"version":"13.0b/18.0a"},{"town":"向島上五反田","koaza":"","lat":34.910849,"lng":135.742092,"version":"13.0b/18.0a"},{"town":"向島上林町","koaza":"","lat":34.919718,"lng":135.761293,"version":"13.0b/18.0a"},{"town":"向島庚申町","koaza":"","lat":34.924914,"lng":135.772973,"version":"13.0b/18.0a"},{"town":"向島黒坊","koaza":"","lat":34.910396,"lng":135.753648,"version":"13.0b/18.0a"},{"town":"向島清水町","koaza":"","lat":34.919325,"lng":135.785846,"version":"13.0b/18.0a"},{"town":"向島下五反田","koaza":"","lat":34.908038,"lng":135.738638,"version":"13.0b/18.0a"},{"town":"向島下之町","koaza":"","lat":34.9239,"lng":135.768066,"version":"13.0b/18.0a"},{"town":"向島新大河原","koaza":"","lat":34.913602,"lng":135.751828,"version":"13.0b/18.0a"},{"town":"向島新上林","koaza":"","lat":34.915892,"lng":135.760468,"version":"13.0b/18.0a"},{"town":"向島新田","koaza":"","lat":34.906961,"lng":135.755515,"version":"13.0b/18.0a"},{"town":"向島吹田河原町","koaza":"","lat":34.92534,"lng":135.777132,"version":"13.0b/18.0a"},{"town":"向島善阿弥町","koaza":"","lat":34.925345,"lng":135.770577,"version":"13.0b/18.0a"},{"town":"向島大黒","koaza":"","lat":34.915948,"lng":135.748216,"version":"13.0b/18.0a"},{"town":"向島鷹場町","koaza":"","lat":34.920879,"lng":135.783406,"version":"13.0b/18.0a"},{"town":"向島立河原町","koaza":"","lat":34.925081,"lng":135.774848,"version":"13.0b/18.0a"},{"town":"向島津田町","koaza":"","lat":34.921068,"lng":135.765522,"version":"13.0b/18.0a"},{"town":"向島東泉寺町","koaza":"","lat":34.924732,"lng":135.778988,"version":"13.0b/18.0a"},{"town":"向島中島町","koaza":"","lat":34.921969,"lng":135.768523,"version":"13.0b/18.0a"},{"town":"向島中之町","koaza":"","lat":34.925076,"lng":135.768042,"version":"13.0b/18.0a"},{"town":"向島西定請","koaza":"","lat":34.911726,"lng":135.764433,"version":"13.0b/18.0a"},{"town":"向島西堤町","koaza":"","lat":34.924553,"lng":135.766766,"version":"13.0b/18.0a"},{"town":"向島二ノ丸町","koaza":"","lat":34.918136,"lng":135.772752,"version":"13.0b/18.0a"},{"town":"向島二本柳","koaza":"","lat":34.91313,"lng":135.760178,"version":"13.0b/18.0a"},{"town":"向島橋詰町","koaza":"","lat":34.926298,"lng":135.769231,"version":"13.0b/18.0a"},{"town":"向島東定請","koaza":"","lat":34.916508,"lng":135.766145,"version":"13.0b/18.0a"},{"town":"向島藤ノ木町","koaza":"","lat":34.922641,"lng":135.781628,"version":"13.0b/18.0a"},{"town":"向島本丸町","koaza":"","lat":34.923295,"lng":135.770475,"version":"13.0b/18.0a"},{"town":"向島又兵衛","koaza":"","lat":34.905506,"lng":135.728845,"version":"13.0b/18.0a"},{"town":"向島丸町","koaza":"","lat":34.921099,"lng":135.77645,"version":"13.0b/18.0a"},{"town":"向島柳島","koaza":"","lat":34.914262,"lng":135.741788,"version":"13.0b/18.0a"},{"town":"向島四ツ谷池","koaza":"","lat":34.919179,"lng":135.775603,"version":"13.0b/18.0a"},{"town":"向島渡シ場町","koaza":"","lat":34.917793,"lng":135.787927,"version":"13.0b/18.0a"},{"town":"村上町","koaza":"","lat":34.931489,"lng":135.756648,"version":"13.0b/18.0a"},{"town":"毛利町","koaza":"","lat":34.94192,"lng":135.752871,"version":"13.0b/18.0a"},{"town":"本材木町","koaza":"","lat":34.929016,"lng":135.761763,"version":"13.0b/18.0a"},{"town":"桃山井伊掃部西町","koaza":"","lat":34.940943,"lng":135.765822,"version":"13.0b/18.0a"},{"town":"桃山井伊掃部東町","koaza":"","lat":34.940921,"lng":135.767271,"version":"13.0b/18.0a"},{"town":"桃山紅雪町","koaza":"","lat":34.938126,"lng":135.787401,"version":"13.0b/18.0a"},{"town":"桃山筑前台町","koaza":"","lat":34.934153,"lng":135.77042,"version":"13.0b/18.0a"},{"town":"桃山町安芸山","koaza":"","lat":34.938529,"lng":135.789884,"version":"13.0b/18.0a"},{"town":"桃山町伊賀","koaza":"","lat":34.931007,"lng":135.77807,"version":"13.0b/18.0a"},{"town":"桃山町板倉周防","koaza":"","lat":34.933097,"lng":135.777681,"version":"13.0b/18.0a"},{"town":"桃山町伊庭","koaza":"","lat":34.935096,"lng":135.786247,"version":"13.0b/18.0a"},{"town":"桃山町大蔵","koaza":"","lat":34.940215,"lng":135.778754,"version":"13.0b/18.0a"},{"town":"桃山町大津町","koaza":"","lat":34.934059,"lng":135.789085,"version":"13.0b/18.0a"},{"town":"桃山町金井戸島","koaza":"","lat":34.925721,"lng":135.757551,"version":"13.0b/18.0a"},{"town":"桃山町金森出雲","koaza":"","lat":34.934258,"lng":135.76627,"version":"13.0b/18.0a"},{"town":"桃山町古城山","koaza":"","lat":34.937873,"lng":135.781118,"version":"13.0b/18.0a"},{"town":"桃山町治部少丸","koaza":"","lat":34.936768,"lng":135.775846,"version":"13.0b/18.0a"},{"town":"桃山町島津","koaza":"","lat":34.938615,"lng":135.77269,"version":"13.0b/18.0a"},{"town":"桃山町下野","koaza":"","lat":34.93711,"lng":135.774107,"version":"13.0b/18.0a"},{"town":"桃山町真斉","koaza":"","lat":34.945115,"lng":135.764061,"version":"13.0b/18.0a"},{"town":"桃山町新町","koaza":"","lat":34.933802,"lng":135.786397,"version":"13.0b/18.0a"},{"town":"桃山町駿河","koaza":"","lat":34.933529,"lng":135.780901,"version":"13.0b/18.0a"},{"town":"桃山町泰長老","koaza":"","lat":34.929887,"lng":135.77105,"version":"13.0b/18.0a"},{"town":"桃山町立売","koaza":"","lat":34.931837,"lng":135.770179,"version":"13.0b/18.0a"},{"town":"桃山町丹下","koaza":"","lat":34.944649,"lng":135.767898,"version":"13.0b/18.0a"},{"town":"桃山町弾正島","koaza":"","lat":34.926153,"lng":135.764327,"version":"13.0b/18.0a"},{"town":"桃山町遠山","koaza":"","lat":34.936125,"lng":135.789565,"version":"13.0b/18.0a"},{"town":"桃山町永井久太郎","koaza":"","lat":34.940278,"lng":135.773566,"version":"13.0b/18.0a"},{"town":"桃山町中島町","koaza":"","lat":34.932671,"lng":135.794068,"version":"13.0b/18.0a"},{"town":"桃山町鍋島","koaza":"","lat":34.932781,"lng":135.770333,"version":"13.0b/18.0a"},{"town":"桃山町西尾","koaza":"","lat":34.934994,"lng":135.793672,"version":"13.0b/18.0a"},{"town":"桃山町西町","koaza":"","lat":34.934046,"lng":135.790128,"version":"13.0b/18.0a"},{"town":"桃山町二ノ丸","koaza":"","lat":34.938029,"lng":135.778557,"version":"13.0b/18.0a"},{"town":"桃山町根来","koaza":"","lat":34.931283,"lng":135.781784,"version":"13.0b/18.0a"},{"town":"桃山町東町","koaza":"","lat":34.933761,"lng":135.791647,"version":"13.0b/18.0a"},{"town":"桃山町百軒長屋","koaza":"","lat":34.933885,"lng":135.782935,"version":"13.0b/18.0a"},{"town":"桃山町日向","koaza":"","lat":34.939264,"lng":135.792805,"version":"13.0b/18.0a"},{"town":"桃山町本多上野","koaza":"","lat":34.930529,"lng":135.775195,"version":"13.0b/18.0a"},{"town":"桃山町正宗","koaza":"","lat":34.943218,"lng":135.773769,"version":"13.0b/18.0a"},{"town":"桃山町町並","koaza":"","lat":34.933814,"lng":135.793695,"version":"13.0b/18.0a"},{"town":"桃山町松平筑前","koaza":"","lat":34.93387,"lng":135.768627,"version":"13.0b/18.0a"},{"town":"桃山町松平武蔵","koaza":"","lat":34.932674,"lng":135.773271,"version":"13.0b/18.0a"},{"town":"桃山町丸山","koaza":"","lat":34.936826,"lng":135.783531,"version":"13.0b/18.0a"},{"town":"桃山町三河","koaza":"","lat":34.93516,"lng":135.773397,"version":"13.0b/18.0a"},{"town":"桃山町見附町","koaza":"","lat":34.933583,"lng":135.792882,"version":"13.0b/18.0a"},{"town":"桃山町美濃","koaza":"","lat":34.932333,"lng":135.782667,"version":"13.0b/18.0a"},{"town":"桃山町山ノ下","koaza":"","lat":34.9385,"lng":135.795448,"version":"13.0b/18.0a"},{"town":"桃山筒井伊賀西町","koaza":"","lat":34.938676,"lng":135.765594,"version":"13.0b/18.0a"},{"town":"桃山筒井伊賀東町","koaza":"","lat":34.938595,"lng":135.767197,"version":"13.0b/18.0a"},{"town":"桃山長岡越中北町","koaza":"","lat":34.941594,"lng":135.769656,"version":"13.0b/18.0a"},{"town":"桃山長岡越中東町","koaza":"","lat":34.940681,"lng":135.770554,"version":"13.0b/18.0a"},{"town":"桃山長岡越中南町","koaza":"","lat":34.940505,"lng":135.768833,"version":"13.0b/18.0a"},{"town":"桃山羽柴長吉中町","koaza":"","lat":34.93641,"lng":135.766506,"version":"13.0b/18.0a"},{"town":"桃山羽柴長吉西町","koaza":"","lat":34.936391,"lng":135.765647,"version":"13.0b/18.0a"},{"town":"桃山羽柴長吉東町","koaza":"","lat":34.936368,"lng":135.7672,"version":"13.0b/18.0a"},{"town":"桃山福島太夫北町","koaza":"","lat":34.939202,"lng":135.769902,"version":"13.0b/18.0a"},{"town":"桃山福島太夫西町","koaza":"","lat":34.938596,"lng":135.768405,"version":"13.0b/18.0a"},{"town":"桃山福島太夫南町","koaza":"","lat":34.938108,"lng":135.770016,"version":"13.0b/18.0a"},{"town":"桃山水野左近西町","koaza":"","lat":34.942972,"lng":135.76645,"version":"13.0b/18.0a"},{"town":"桃山水野左近東町","koaza":"","lat":34.942755,"lng":135.768987,"version":"13.0b/18.0a"},{"town":"桃山南大島町","koaza":"","lat":34.9249,"lng":135.786074,"version":"13.0b/18.0a"},{"town":"桃山毛利長門西町","koaza":"","lat":34.936387,"lng":135.767866,"version":"13.0b/18.0a"},{"town":"桃山毛利長門東町","koaza":"","lat":34.936114,"lng":135.769434,"version":"13.0b/18.0a"},{"town":"桃山最上町","koaza":"","lat":34.943739,"lng":135.768626,"version":"13.0b/18.0a"},{"town":"桃山与五郎町","koaza":"","lat":34.928794,"lng":135.780714,"version":"13.0b/18.0a"},{"town":"山崎町","koaza":"","lat":34.930782,"lng":135.757811,"version":"13.0b/18.0a"},{"town":"大和町","koaza":"","lat":34.942428,"lng":135.760759,"version":"13.0b/18.0a"},{"town":"鑓屋町","koaza":"","lat":34.946106,"lng":135.765907,"version":"13.0b/18.0a"},{"town":"八幡町","koaza":"","lat":34.931748,"lng":135.754994,"version":"13.0b/18.0a"},{"town":"横大路一本木","koaza":"","lat":34.920079,"lng":135.733848,"version":"13.0b/18.0a"},{"town":"横大路柿ノ本町","koaza":"","lat":34.925387,"lng":135.735989,"version":"13.0b/18.0a"},{"town":"横大路上ノ浜町","koaza":"","lat":34.927029,"lng":135.731869,"version":"13.0b/18.0a"},{"town":"横大路北ノ口町","koaza":"","lat":34.917117,"lng":135.732996,"version":"13.0b/18.0a"},{"town":"横大路貴船","koaza":"","lat":34.929195,"lng":135.738558,"version":"13.0b/18.0a"},{"town":"横大路草津町","koaza":"","lat":34.929313,"lng":135.734452,"version":"13.0b/18.0a"},{"town":"横大路畔ノ内","koaza":"","lat":34.922602,"lng":135.734819,"version":"13.0b/18.0a"},{"town":"横大路鍬ノ本","koaza":"","lat":34.925261,"lng":135.738438,"version":"13.0b/18.0a"},{"town":"横大路西海道","koaza":"","lat":34.915629,"lng":135.728901,"version":"13.0b/18.0a"},{"town":"横大路芝生","koaza":"","lat":34.927306,"lng":135.74493,"version":"13.0b/18.0a"},{"town":"横大路下島","koaza":"","lat":34.921008,"lng":135.727366,"version":"13.0b/18.0a"},{"town":"横大路下ノ坪","koaza":"","lat":34.913716,"lng":135.734392,"version":"13.0b/18.0a"},{"town":"横大路下三栖梶原町","koaza":"","lat":34.929319,"lng":135.748382,"version":"13.0b/18.0a"},{"town":"横大路下三栖里ノ内","koaza":"","lat":34.922849,"lng":135.750562,"version":"13.0b/18.0a"},{"town":"横大路下三栖城ノ前町","koaza":"","lat":34.92585,"lng":135.748323,"version":"13.0b/18.0a"},{"town":"横大路下三栖辻堂町","koaza":"","lat":34.929177,"lng":135.750395,"version":"13.0b/18.0a"},{"town":"横大路下三栖南郷","koaza":"","lat":34.929799,"lng":135.746593,"version":"13.0b/18.0a"},{"town":"横大路下三栖東ノ口","koaza":"","lat":34.923624,"lng":135.753615,"version":"13.0b/18.0a"},{"town":"横大路下三栖宮ノ後","koaza":"","lat":34.925894,"lng":135.746489,"version":"13.0b/18.0a"},{"town":"横大路下三栖山殿","koaza":"","lat":34.929044,"lng":135.753206,"version":"13.0b/18.0a"},{"town":"横大路朱雀","koaza":"","lat":34.929354,"lng":135.743103,"version":"13.0b/18.0a"},{"town":"横大路神宮寺","koaza":"","lat":34.913074,"lng":135.731257,"version":"13.0b/18.0a"},{"town":"横大路菅本","koaza":"","lat":34.921795,"lng":135.737384,"version":"13.0b/18.0a"},{"town":"横大路千両松町","koaza":"","lat":34.918711,"lng":135.741378,"version":"13.0b/18.0a"},{"town":"横大路竜ケ池","koaza":"","lat":34.920572,"lng":135.730329,"version":"13.0b/18.0a"},{"town":"横大路天王後","koaza":"","lat":34.9293,"lng":135.740871,"version":"13.0b/18.0a"},{"town":"横大路天王前","koaza":"","lat":34.925047,"lng":135.740756,"version":"13.0b/18.0a"},{"town":"横大路富ノ森町","koaza":"","lat":34.917292,"lng":135.726257,"version":"13.0b/18.0a"},{"town":"横大路中ノ島町","koaza":"","lat":34.923725,"lng":135.729294,"version":"13.0b/18.0a"},{"town":"横大路中ノ庄町","koaza":"","lat":34.927622,"lng":135.735285,"version":"13.0b/18.0a"},{"town":"横大路長畑町","koaza":"","lat":34.924328,"lng":135.732101,"version":"13.0b/18.0a"},{"town":"横大路橋本","koaza":"","lat":34.925519,"lng":135.743217,"version":"13.0b/18.0a"},{"town":"横大路畑中町","koaza":"","lat":34.92636,"lng":135.733962,"version":"13.0b/18.0a"},{"town":"横大路八反田","koaza":"","lat":34.917213,"lng":135.735226,"version":"13.0b/18.0a"},{"town":"横大路東裏町","koaza":"","lat":34.92897,"lng":135.736393,"version":"13.0b/18.0a"},{"town":"横大路前川町","koaza":"","lat":34.917621,"lng":135.726971,"version":"13.0b/18.0a"},{"town":"横大路松林","koaza":"","lat":34.912276,"lng":135.736638,"version":"13.0b/18.0a"},{"town":"横大路三栖池田屋敷町","koaza":"","lat":34.927987,"lng":135.751699,"version":"13.0b/18.0a"},{"town":"横大路三栖木下屋敷町","koaza":"","lat":34.929416,"lng":135.755068,"version":"13.0b/18.0a"},{"town":"横大路三栖大黒町","koaza":"","lat":34.932511,"lng":135.754375,"version":"13.0b/18.0a"},{"town":"横大路三栖泥町跡町","koaza":"","lat":34.930933,"lng":135.752683,"version":"13.0b/18.0a"},{"town":"横大路三栖山城屋敷町","koaza":"","lat":34.932183,"lng":135.752674,"version":"13.0b/18.0a"},{"town":"横大路南島","koaza":"","lat":34.918802,"lng":135.725709,"version":"13.0b/18.0a"},{"town":"横大路向ヒ","koaza":"","lat":34.923747,"lng":135.733321,"version":"13.0b/18.0a"},{"town":"横大路六反畑","koaza":"","lat":34.917531,"lng":135.730301,"version":"13.0b/18.0a"},{"town":"葭島金井戸町","koaza":"","lat":34.922992,"lng":135.758623,"version":"13.0b/18.0a"},{"town":"葭島矢倉町","koaza":"","lat":34.925626,"lng":135.761423,"version":"13.0b/18.0a"},{"town":"葭島渡場島町","koaza":"","lat":34.909276,"lng":135.733879,"version":"13.0b/18.0a"},{"town":"淀池上町","koaza":"","lat":34.903647,"lng":135.722007,"version":"13.0b/18.0a"},{"town":"淀大下津町","koaza":"","lat":34.905241,"lng":135.709053,"version":"13.0b/18.0a"},{"town":"淀川顔町","koaza":"","lat":34.89886,"lng":135.718127,"version":"13.0b/18.0a"},{"town":"淀木津町","koaza":"","lat":34.902737,"lng":135.713851,"version":"13.0b/18.0a"},{"town":"淀際目町","koaza":"","lat":34.891143,"lng":135.71617,"version":"13.0b/18.0a"},{"town":"淀下津町","koaza":"","lat":34.902976,"lng":135.719257,"version":"13.0b/18.0a"},{"town":"淀新町","koaza":"","lat":34.900952,"lng":135.71913,"version":"13.0b/18.0a"},{"town":"淀生津町","koaza":"","lat":34.881428,"lng":135.724807,"version":"13.0b/18.0a"},{"town":"淀樋爪町","koaza":"","lat":34.919089,"lng":135.72041,"version":"13.0b/18.0a"},{"town":"淀本町","koaza":"","lat":34.905557,"lng":135.717931,"version":"13.0b/18.0a"},{"town":"淀水垂町","koaza":"","lat":34.912773,"lng":135.714366,"version":"13.0b/18.0a"},{"town":"淀美豆町","koaza":"","lat":34.898784,"lng":135.709652,"version":"13.0b/18.0a"},{"town":"両替町十丁目","koaza":"","lat":34.939236,"lng":135.764135,"version":"13.0b/18.0a"},{"town":"両替町十一丁目","koaza":"","lat":34.940385,"lng":135.764172,"version":"13.0b/18.0a"},{"town":"両替町十二丁目","koaza":"","lat":34.941557,"lng":135.764239,"version":"13.0b/18.0a"},{"town":"両替町十三丁目","koaza":"","lat":34.942634,"lng":135.764341,"version":"13.0b/18.0a"},{"town":"両替町十四丁目","koaza":"","lat":34.943595,"lng":135.764542,"version":"13.0b/18.0a"},{"town":"両替町十五丁目","koaza":"","lat":34.944677,"lng":135.76471,"version":"13.0b/18.0a"},{"town":"両替町一丁目","koaza":"","lat":34.928462,"lng":135.764014,"version":"13.0b/18.0a"},{"town":"両替町二丁目","koaza":"","lat":34.93026,"lng":135.764,"version":"13.0b/18.0a"},{"town":"両替町三丁目","koaza":"","lat":34.931077,"lng":135.763984,"version":"13.0b/18.0a"},{"town":"両替町四丁目","koaza":"","lat":34.932417,"lng":135.76395,"version":"13.0b/18.0a"},{"town":"両替町九丁目","koaza":"","lat":34.938119,"lng":135.764102,"version":"13.0b/18.0a"},{"town":"桃山町丹後","koaza":"","lat":34.931592,"lng":135.784557,"version":"13.0b/18.0a"},{"town":"桃山町因幡","koaza":"","lat":34.9323,"lng":135.791227,"version":"13.0b/18.0a"},{"town":"桃山町養斉","koaza":"","lat":34.92951,"lng":135.785708,"version":"13.0b/18.0a"},{"town":"桃山町大島","koaza":"","lat":34.925826,"lng":135.790256,"version":"13.0b/18.0a"},{"town":"桃山町和泉","koaza":"","lat":34.932458,"lng":135.787248,"version":"13.0b/18.0a"},{"town":"深草稲荷山官有地","koaza":"","lat":34.970555,"lng":135.776581,"version":"13.0b/18.0a"},{"town":"小豆屋町","koaza":"","lat":34.941165,"lng":135.76078,"version":"14.0b/19.0a"},{"town":"阿波橋町","koaza":"","lat":34.931792,"lng":135.755543,"version":"14.0b/19.0a"},{"town":"石田内里町","koaza":"","lat":34.939508,"lng":135.807156,"version":"14.0b/19.0a"},{"town":"石田大受町","koaza":"","lat":34.942457,"lng":135.806617,"version":"14.0b/19.0a"},{"town":"石田大山町","koaza":"","lat":34.938375,"lng":135.808763,"version":"14.0b/19.0a"},{"town":"石田川向","koaza":"","lat":34.94171,"lng":135.799533,"version":"14.0b/19.0a"},{"town":"石田桜木","koaza":"","lat":34.935566,"lng":135.800306,"version":"14.0b/19.0a"},{"town":"石田西ノ坪","koaza":"","lat":34.937858,"lng":135.79975,"version":"14.0b/19.0a"},{"town":"石田森西","koaza":"","lat":34.940197,"lng":135.80008,"version":"14.0b/19.0a"},{"town":"石田森東町","koaza":"","lat":34.940197,"lng":135.803976,"version":"14.0b/19.0a"},{"town":"石田森南町","koaza":"","lat":34.937719,"lng":135.803787,"version":"14.0b/19.0a"},{"town":"石屋町","koaza":"","lat":34.939694,"lng":135.762717,"version":"14.0b/19.0a"},{"town":"稲荷山官有地","koaza":"","lat":34.969171,"lng":135.783712,"version":"14.0b/19.0a"},{"town":"今町","koaza":"","lat":34.935036,"lng":135.762151,"version":"14.0b/19.0a"},{"town":"魚屋町","koaza":"","lat":34.931692,"lng":135.763977,"version":"14.0b/19.0a"},{"town":"越前町","koaza":"","lat":34.943944,"lng":135.760207,"version":"14.0b/19.0a"},{"town":"榎町","koaza":"","lat":34.943587,"lng":135.758785,"version":"14.0b/19.0a"},{"town":"恵美酒町","koaza":"","lat":34.932964,"lng":135.755212,"version":"14.0b/19.0a"},{"town":"海老屋町","koaza":"","lat":34.94025,"lng":135.758065,"version":"14.0b/19.0a"},{"town":"大阪町","koaza":"","lat":34.931833,"lng":135.762258,"version":"14.0b/19.0a"},{"town":"大津町","koaza":"","lat":34.936848,"lng":135.756071,"version":"14.0b/19.0a"},{"town":"大宮町","koaza":"","lat":34.939216,"lng":135.757793,"version":"14.0b/19.0a"},{"town":"御駕籠町","koaza":"","lat":34.937091,"lng":135.759745,"version":"14.0b/19.0a"},{"town":"小栗栖石川町","koaza":"","lat":34.947264,"lng":135.793744,"version":"14.0b/19.0a"},{"town":"小栗栖岩ケ淵町","koaza":"","lat":34.95153,"lng":135.807739,"version":"14.0b/19.0a"},{"town":"小栗栖牛ケ淵町","koaza":"","lat":34.949059,"lng":135.806242,"version":"14.0b/19.0a"},{"town":"小栗栖北後藤町","koaza":"","lat":34.947164,"lng":135.805733,"version":"14.0b/19.0a"},{"town":"小栗栖北谷町","koaza":"","lat":34.952562,"lng":135.803741,"version":"14.0b/19.0a"},{"town":"小栗栖小阪町","koaza":"","lat":34.9464,"lng":135.802115,"version":"14.0b/19.0a"},{"town":"小栗栖中山田町","koaza":"","lat":34.943013,"lng":135.793264,"version":"14.0b/19.0a"},{"town":"小栗栖西谷町","koaza":"","lat":34.950969,"lng":135.801973,"version":"14.0b/19.0a"},{"town":"小栗栖丸山","koaza":"","lat":34.951929,"lng":135.806657,"version":"14.0b/19.0a"},{"town":"小栗栖南後藤町","koaza":"","lat":34.944812,"lng":135.804618,"version":"14.0b/19.0a"},{"town":"小栗栖宮山","koaza":"","lat":34.946216,"lng":135.799932,"version":"14.0b/19.0a"},{"town":"小栗栖森ケ淵町","koaza":"","lat":34.947635,"lng":135.807558,"version":"14.0b/19.0a"},{"town":"小栗栖森本町","koaza":"","lat":34.943881,"lng":135.799846,"version":"14.0b/19.0a"},{"town":"小栗栖山口町","koaza":"","lat":34.949407,"lng":135.798312,"version":"14.0b/19.0a"},{"town":"帯屋町","koaza":"","lat":34.934514,"lng":135.755007,"version":"14.0b/19.0a"},{"town":"表町","koaza":"","lat":34.929538,"lng":135.75865,"version":"14.0b/19.0a"},{"town":"加賀屋町","koaza":"","lat":34.945227,"lng":135.758058,"version":"14.0b/19.0a"},{"town":"柿木浜町","koaza":"","lat":34.927952,"lng":135.76301,"version":"14.0b/19.0a"},{"town":"景勝町","koaza":"","lat":34.944147,"lng":135.755872,"version":"14.0b/19.0a"},{"town":"鍛冶屋町","koaza":"","lat":34.940316,"lng":135.759257,"version":"14.0b/19.0a"},{"town":"過書町","koaza":"","lat":34.932991,"lng":135.755997,"version":"14.0b/19.0a"},{"town":"片桐町","koaza":"","lat":34.932224,"lng":135.766987,"version":"14.0b/19.0a"},{"town":"片原町","koaza":"","lat":34.933958,"lng":135.757524,"version":"14.0b/19.0a"},{"town":"上油掛町","koaza":"","lat":34.930783,"lng":135.761869,"version":"14.0b/19.0a"},{"town":"上板橋町","koaza":"","lat":34.942383,"lng":135.761904,"version":"14.0b/19.0a"},{"town":"紙子屋町","koaza":"","lat":34.94037,"lng":135.761267,"version":"14.0b/19.0a"},{"town":"上神泉苑町","koaza":"","lat":34.944437,"lng":135.758366,"version":"14.0b/19.0a"},{"town":"上中町","koaza":"","lat":34.929181,"lng":135.757826,"version":"14.0b/19.0a"},{"town":"雁金町","koaza":"","lat":34.945879,"lng":135.758471,"version":"14.0b/19.0a"},{"town":"川東町","koaza":"","lat":34.937838,"lng":135.754456,"version":"14.0b/19.0a"},{"town":"革屋町","koaza":"","lat":34.934482,"lng":135.755722,"version":"14.0b/19.0a"},{"town":"観音寺町","koaza":"","lat":34.933332,"lng":135.765696,"version":"14.0b/19.0a"},{"town":"菊屋町","koaza":"","lat":34.942392,"lng":135.757977,"version":"14.0b/19.0a"},{"town":"北尼崎町","koaza":"","lat":34.93946,"lng":135.758567,"version":"14.0b/19.0a"},{"town":"北寝小屋町","koaza":"","lat":34.939557,"lng":135.749788,"version":"14.0b/19.0a"},{"town":"北端町","koaza":"","lat":34.944856,"lng":135.752933,"version":"14.0b/19.0a"},{"town":"北浜町","koaza":"","lat":34.929776,"lng":135.757066,"version":"14.0b/19.0a"},{"town":"京橋町","koaza":"","lat":34.930643,"lng":135.758689,"version":"14.0b/19.0a"},{"town":"京町十丁目","koaza":"","lat":34.944247,"lng":135.765365,"version":"14.0b/19.0a"},{"town":"京町一丁目","koaza":"","lat":34.928568,"lng":135.764762,"version":"14.0b/19.0a"},{"town":"京町二丁目","koaza":"","lat":34.930763,"lng":135.764734,"version":"14.0b/19.0a"},{"town":"京町三丁目","koaza":"","lat":34.932358,"lng":135.764962,"version":"14.0b/19.0a"},{"town":"京町四丁目","koaza":"","lat":34.93362,"lng":135.764797,"version":"14.0b/19.0a"},{"town":"京町五丁目","koaza":"","lat":34.935807,"lng":135.764661,"version":"14.0b/19.0a"},{"town":"京町六丁目","koaza":"","lat":34.936955,"lng":135.764966,"version":"14.0b/19.0a"},{"town":"京町九丁目","koaza":"","lat":34.942701,"lng":135.765099,"version":"14.0b/19.0a"},{"town":"京町北七丁目","koaza":"","lat":34.939195,"lng":135.764897,"version":"14.0b/19.0a"},{"town":"京町北八丁目","koaza":"","lat":34.941588,"lng":135.765059,"version":"14.0b/19.0a"},{"town":"京町大黒町","koaza":"","lat":34.934746,"lng":135.764778,"version":"14.0b/19.0a"},{"town":"京町八丁目横町","koaza":"","lat":34.942111,"lng":135.765808,"version":"14.0b/19.0a"},{"town":"京町南七丁目","koaza":"","lat":34.938146,"lng":135.764869,"version":"14.0b/19.0a"},{"town":"京町南八丁目","koaza":"","lat":34.940378,"lng":135.764919,"version":"14.0b/19.0a"},{"town":"銀座町一丁目","koaza":"","lat":34.933601,"lng":135.763925,"version":"14.0b/19.0a"},{"town":"銀座町二丁目","koaza":"","lat":34.934699,"lng":135.764001,"version":"14.0b/19.0a"},{"town":"銀座町三丁目","koaza":"","lat":34.935835,"lng":135.764031,"version":"14.0b/19.0a"},{"town":"銀座町四丁目","koaza":"","lat":34.936967,"lng":135.764068,"version":"14.0b/19.0a"},{"town":"久米町","koaza":"","lat":34.939055,"lng":135.757005,"version":"14.0b/19.0a"},{"town":"車町","koaza":"","lat":34.930808,"lng":135.759461,"version":"14.0b/19.0a"},{"town":"黒茶屋町","koaza":"","lat":34.943842,"lng":135.759465,"version":"14.0b/19.0a"},{"town":"久我東町","koaza":"","lat":34.936328,"lng":135.730418,"version":"14.0b/19.0a"},{"town":"久我石原町","koaza":"","lat":34.948394,"lng":135.728628,"version":"14.0b/19.0a"},{"town":"久我御旅町","koaza":"","lat":34.942812,"lng":135.731093,"version":"14.0b/19.0a"},{"town":"久我西出町","koaza":"","lat":34.938537,"lng":135.721352,"version":"14.0b/19.0a"},{"town":"久我本町","koaza":"","lat":34.945491,"lng":135.729677,"version":"14.0b/19.0a"},{"town":"久我森の宮町","koaza":"","lat":34.937412,"lng":135.727766,"version":"14.0b/19.0a"},{"town":"御香宮門前町","koaza":"","lat":34.933821,"lng":135.767405,"version":"14.0b/19.0a"},{"town":"紺屋町","koaza":"","lat":34.935919,"lng":135.760007,"version":"14.0b/19.0a"},{"town":"指物町","koaza":"","lat":34.938557,"lng":135.76253,"version":"14.0b/19.0a"},{"town":"讃岐町","koaza":"","lat":34.931601,"lng":135.765421,"version":"14.0b/19.0a"},{"town":"塩屋町","koaza":"","lat":34.930779,"lng":135.760395,"version":"14.0b/19.0a"},{"town":"治部町","koaza":"","lat":34.938896,"lng":135.752724,"version":"14.0b/19.0a"},{"town":"島津町","koaza":"","lat":34.936157,"lng":135.752625,"version":"14.0b/19.0a"},{"town":"清水町","koaza":"","lat":34.941141,"lng":135.760065,"version":"14.0b/19.0a"},{"town":"下油掛町","koaza":"","lat":34.931523,"lng":135.759063,"version":"14.0b/19.0a"},{"town":"下板橋町","koaza":"","lat":34.938384,"lng":135.760802,"version":"14.0b/19.0a"},{"town":"下神泉苑町","koaza":"","lat":34.943397,"lng":135.758065,"version":"14.0b/19.0a"},{"town":"下鳥羽長田町","koaza":"","lat":34.939641,"lng":135.743658,"version":"14.0b/19.0a"},{"town":"下鳥羽上三栖町","koaza":"","lat":34.932512,"lng":135.746936,"version":"14.0b/19.0a"},{"town":"下鳥羽上向島町","koaza":"","lat":34.94168,"lng":135.740732,"version":"14.0b/19.0a"},{"town":"下鳥羽北円面田町","koaza":"","lat":34.934077,"lng":135.742664,"version":"14.0b/19.0a"},{"town":"下鳥羽北三町","koaza":"","lat":34.937373,"lng":135.741962,"version":"14.0b/19.0a"},{"town":"下鳥羽北ノ口町","koaza":"","lat":34.941456,"lng":135.747361,"version":"14.0b/19.0a"},{"town":"下鳥羽小柳町","koaza":"","lat":34.93422,"lng":135.748171,"version":"14.0b/19.0a"},{"town":"下鳥羽下向島町","koaza":"","lat":34.934842,"lng":135.738999,"version":"14.0b/19.0a"},{"town":"下鳥羽浄春ケ前町","koaza":"","lat":34.934208,"lng":135.750367,"version":"14.0b/19.0a"},{"town":"下鳥羽城ノ越町","koaza":"","lat":34.942328,"lng":135.744359,"version":"14.0b/19.0a"},{"town":"下鳥羽芹川町","koaza":"","lat":34.946015,"lng":135.757158,"version":"14.0b/19.0a"},{"town":"下鳥羽但馬町","koaza":"","lat":34.931884,"lng":135.749516,"version":"14.0b/19.0a"},{"town":"下鳥羽中円面田町","koaza":"","lat":34.932848,"lng":135.742098,"version":"14.0b/19.0a"},{"town":"下鳥羽中三町","koaza":"","lat":34.935132,"lng":135.741502,"version":"14.0b/19.0a"},{"town":"下鳥羽中向島町","koaza":"","lat":34.940162,"lng":135.739189,"version":"14.0b/19.0a"},{"town":"下鳥羽西芹川町","koaza":"","lat":34.942755,"lng":135.747216,"version":"14.0b/19.0a"},{"town":"下鳥羽西柳長町","koaza":"","lat":34.937219,"lng":135.742988,"version":"14.0b/19.0a"},{"town":"下鳥羽東芹川町","koaza":"","lat":34.941946,"lng":135.750331,"version":"14.0b/19.0a"},{"town":"下鳥羽東柳長町","koaza":"","lat":34.937184,"lng":135.744342,"version":"14.0b/19.0a"},{"town":"下鳥羽平塚町","koaza":"","lat":34.937041,"lng":135.746147,"version":"14.0b/19.0a"},{"town":"下鳥羽広長町","koaza":"","lat":34.932384,"lng":135.744568,"version":"14.0b/19.0a"},{"town":"下鳥羽前田町","koaza":"","lat":34.941851,"lng":135.742897,"version":"14.0b/19.0a"},{"town":"下鳥羽南円面田町","koaza":"","lat":34.931575,"lng":135.740459,"version":"14.0b/19.0a"},{"town":"下鳥羽南三町","koaza":"","lat":34.932834,"lng":135.740132,"version":"14.0b/19.0a"},{"town":"下鳥羽南町前町","koaza":"","lat":34.935054,"lng":135.740496,"version":"14.0b/19.0a"},{"town":"下鳥羽南柳長町","koaza":"","lat":34.934779,"lng":135.743613,"version":"14.0b/19.0a"},{"town":"下鳥羽南六反長町","koaza":"","lat":34.931938,"lng":135.751557,"version":"14.0b/19.0a"},{"town":"下鳥羽葭田町","koaza":"","lat":34.937157,"lng":135.748154,"version":"14.0b/19.0a"},{"town":"下鳥羽澱女町","koaza":"","lat":34.934818,"lng":135.745967,"version":"14.0b/19.0a"},{"town":"下鳥羽六反長町","koaza":"","lat":34.933513,"lng":135.752608,"version":"14.0b/19.0a"},{"town":"下鳥羽渡瀬町","koaza":"","lat":34.939671,"lng":135.746586,"version":"14.0b/19.0a"},{"town":"下中町","koaza":"","lat":34.929185,"lng":135.756511,"version":"14.0b/19.0a"},{"town":"撞木町","koaza":"","lat":34.945793,"lng":135.764857,"version":"14.0b/19.0a"},{"town":"聚楽町","koaza":"","lat":34.937704,"lng":135.756746,"version":"14.0b/19.0a"},{"town":"聚楽町一丁目","koaza":"","lat":34.937794,"lng":135.756144,"version":"14.0b/19.0a"},{"town":"聚楽町二丁目","koaza":"","lat":34.939153,"lng":135.756412,"version":"14.0b/19.0a"},{"town":"城通町","koaza":"","lat":34.937671,"lng":135.757377,"version":"14.0b/19.0a"},{"town":"白銀町","koaza":"","lat":34.941286,"lng":135.758622,"version":"14.0b/19.0a"},{"town":"新中町","koaza":"","lat":34.928243,"lng":135.757352,"version":"14.0b/19.0a"},{"town":"新町十丁目","koaza":"","lat":34.939246,"lng":135.763387,"version":"14.0b/19.0a"},{"town":"新町十一丁目","koaza":"","lat":34.940658,"lng":135.763122,"version":"14.0b/19.0a"},{"town":"新町十二丁目","koaza":"","lat":34.941563,"lng":135.763157,"version":"14.0b/19.0a"},{"town":"新町十三丁目","koaza":"","lat":34.942871,"lng":135.763536,"version":"14.0b/19.0a"},{"town":"新町十四丁目","koaza":"","lat":34.944103,"lng":135.763828,"version":"14.0b/19.0a"},{"town":"新町一丁目","koaza":"","lat":34.928964,"lng":135.763267,"version":"14.0b/19.0a"},{"town":"新町二丁目","koaza":"","lat":34.930251,"lng":135.763251,"version":"14.0b/19.0a"},{"town":"新町三丁目","koaza":"","lat":34.931179,"lng":135.763134,"version":"14.0b/19.0a"},{"town":"新町四丁目","koaza":"","lat":34.932321,"lng":135.763203,"version":"14.0b/19.0a"},{"town":"新町五丁目","koaza":"","lat":34.933572,"lng":135.763224,"version":"14.0b/19.0a"},{"town":"新町六丁目","koaza":"","lat":34.934627,"lng":135.76309,"version":"14.0b/19.0a"},{"town":"新町七丁目","koaza":"","lat":34.935829,"lng":135.763096,"version":"14.0b/19.0a"},{"town":"新町八丁目","koaza":"","lat":34.936955,"lng":135.7633,"version":"14.0b/19.0a"},{"town":"新町九丁目","koaza":"","lat":34.938133,"lng":135.763288,"version":"14.0b/19.0a"},{"town":"杉本町","koaza":"","lat":34.931022,"lng":135.754655,"version":"14.0b/19.0a"},{"town":"周防町","koaza":"","lat":34.931919,"lng":135.757922,"version":"14.0b/19.0a"},{"town":"墨染町","koaza":"","lat":34.947835,"lng":135.767989,"version":"14.0b/19.0a"},{"town":"住吉町","koaza":"","lat":34.943923,"lng":135.762159,"version":"14.0b/19.0a"},{"town":"瀬戸物町","koaza":"","lat":34.934098,"lng":135.761936,"version":"14.0b/19.0a"},{"town":"醍醐合場町","koaza":"","lat":34.942763,"lng":135.811869,"version":"14.0b/19.0a"},{"town":"醍醐赤間南裏町","koaza":"","lat":34.952956,"lng":135.821509,"version":"14.0b/19.0a"},{"town":"醍醐池田町","koaza":"","lat":34.946586,"lng":135.80918,"version":"14.0b/19.0a"},{"town":"醍醐和泉町","koaza":"","lat":34.948311,"lng":135.815709,"version":"14.0b/19.0a"},{"town":"醍醐一言寺裏町","koaza":"","lat":34.943512,"lng":135.817803,"version":"14.0b/19.0a"},{"town":"醍醐一ノ切町","koaza":"","lat":34.953699,"lng":135.867522,"version":"14.0b/19.0a"},{"town":"醍醐上ノ山町","koaza":"","lat":34.956622,"lng":135.81439,"version":"14.0b/19.0a"},{"town":"醍醐内ケ井戸","koaza":"","lat":34.963678,"lng":135.824191,"version":"14.0b/19.0a"},{"town":"醍醐江奈志町","koaza":"","lat":34.944585,"lng":135.80908,"version":"14.0b/19.0a"},{"town":"醍醐大構町","koaza":"","lat":34.948236,"lng":135.809541,"version":"14.0b/19.0a"},{"town":"醍醐大高町","koaza":"","lat":34.95876,"lng":135.82239,"version":"14.0b/19.0a"},{"town":"醍醐大畑町","koaza":"","lat":34.961615,"lng":135.823772,"version":"14.0b/19.0a"},{"town":"醍醐落保町","koaza":"","lat":34.948328,"lng":135.818411,"version":"14.0b/19.0a"},{"town":"醍醐折戸町","koaza":"","lat":34.951366,"lng":135.809196,"version":"14.0b/19.0a"},{"town":"醍醐鍵尾町","koaza":"","lat":34.945534,"lng":135.809045,"version":"14.0b/19.0a"},{"town":"醍醐柿原町","koaza":"","lat":34.96117,"lng":135.822224,"version":"14.0b/19.0a"},{"town":"醍醐柏森町","koaza":"","lat":34.942812,"lng":135.816705,"version":"14.0b/19.0a"},{"town":"醍醐片山町","koaza":"","lat":34.956777,"lng":135.82218,"version":"14.0b/19.0a"},{"town":"醍醐構口町","koaza":"","lat":34.944205,"lng":135.813805,"version":"14.0b/19.0a"},{"town":"醍醐上端山町","koaza":"","lat":34.946299,"lng":135.823178,"version":"14.0b/19.0a"},{"town":"醍醐上山口町","koaza":"","lat":34.941136,"lng":135.817385,"version":"14.0b/19.0a"},{"town":"醍醐上山田","koaza":"","lat":34.964204,"lng":135.826429,"version":"14.0b/19.0a"},{"town":"醍醐烏橋町","koaza":"","lat":34.956496,"lng":135.819872,"version":"14.0b/19.0a"},{"town":"醍醐伽藍町","koaza":"","lat":34.950975,"lng":135.823014,"version":"14.0b/19.0a"},{"town":"醍醐川久保町","koaza":"","lat":34.954575,"lng":135.811898,"version":"14.0b/19.0a"},{"town":"醍醐岸ノ上町","koaza":"","lat":34.943191,"lng":135.815048,"version":"14.0b/19.0a"},{"town":"醍醐北伽藍町","koaza":"","lat":34.95223,"lng":135.824686,"version":"14.0b/19.0a"},{"town":"醍醐北西裏町","koaza":"","lat":34.951959,"lng":135.812964,"version":"14.0b/19.0a"},{"town":"醍醐北端山","koaza":"","lat":34.958934,"lng":135.83251,"version":"14.0b/19.0a"},{"town":"醍醐京道町","koaza":"","lat":34.95896,"lng":135.818117,"version":"14.0b/19.0a"},{"town":"醍醐切レ戸町","koaza":"","lat":34.956706,"lng":135.817413,"version":"14.0b/19.0a"},{"town":"醍醐御所ノ内","koaza":"","lat":34.96368,"lng":135.822154,"version":"14.0b/19.0a"},{"town":"醍醐御霊ケ下町","koaza":"","lat":34.948327,"lng":135.812507,"version":"14.0b/19.0a"},{"town":"醍醐御陵西裏町","koaza":"","lat":34.955016,"lng":135.819921,"version":"14.0b/19.0a"},{"town":"醍醐御陵東裏町","koaza":"","lat":34.954981,"lng":135.821807,"version":"14.0b/19.0a"},{"town":"醍醐三ノ切","koaza":"","lat":34.948908,"lng":135.874876,"version":"14.0b/19.0a"},{"town":"醍醐下端山町","koaza":"","lat":34.94693,"lng":135.818859,"version":"14.0b/19.0a"},{"town":"醍醐下山口町","koaza":"","lat":34.942159,"lng":135.814501,"version":"14.0b/19.0a"},{"town":"醍醐勝口町","koaza":"","lat":34.944961,"lng":135.818639,"version":"14.0b/19.0a"},{"town":"醍醐新開","koaza":"","lat":34.943604,"lng":135.809096,"version":"14.0b/19.0a"},{"town":"醍醐新町裏町","koaza":"","lat":34.955637,"lng":135.817073,"version":"14.0b/19.0a"},{"town":"醍醐外山街道町","koaza":"","lat":34.939343,"lng":135.813869,"version":"14.0b/19.0a"},{"town":"醍醐醍醐山","koaza":"","lat":34.940548,"lng":135.841312,"version":"14.0b/19.0a"},{"town":"醍醐高畑町","koaza":"","lat":34.95078,"lng":135.811137,"version":"14.0b/19.0a"},{"town":"醍醐多近田町","koaza":"","lat":34.944605,"lng":135.811966,"version":"14.0b/19.0a"},{"town":"醍醐辰己町","koaza":"","lat":34.941905,"lng":135.813483,"version":"14.0b/19.0a"},{"town":"醍醐陀羅谷","koaza":"","lat":34.958209,"lng":135.851809,"version":"14.0b/19.0a"},{"town":"醍醐僧尊坊町","koaza":"","lat":34.946664,"lng":135.81204,"version":"14.0b/19.0a"},{"town":"醍醐中山町","koaza":"","lat":34.953397,"lng":135.815594,"version":"14.0b/19.0a"},{"town":"醍醐西大路町","koaza":"","lat":34.9508,"lng":135.815541,"version":"14.0b/19.0a"},{"town":"醍醐二ノ切町","koaza":"","lat":34.950558,"lng":135.874057,"version":"14.0b/19.0a"},{"town":"醍醐狭間","koaza":"","lat":34.963833,"lng":135.820699,"version":"14.0b/19.0a"},{"town":"醍醐東合場町","koaza":"","lat":34.941105,"lng":135.811928,"version":"14.0b/19.0a"},{"town":"醍醐東大路町","koaza":"","lat":34.951528,"lng":135.819095,"version":"14.0b/19.0a"},{"town":"醍醐平松町","koaza":"","lat":34.954059,"lng":135.813597,"version":"14.0b/19.0a"},{"town":"醍醐古道町","koaza":"","lat":34.958769,"lng":135.820008,"version":"14.0b/19.0a"},{"town":"醍醐槇ノ内町","koaza":"","lat":34.945625,"lng":135.816609,"version":"14.0b/19.0a"},{"town":"醍醐廻り戸町","koaza":"","lat":34.960948,"lng":135.820539,"version":"14.0b/19.0a"},{"town":"醍醐御園尾町","koaza":"","lat":34.946207,"lng":135.81382,"version":"14.0b/19.0a"},{"town":"醍醐南里町","koaza":"","lat":34.946187,"lng":135.815409,"version":"14.0b/19.0a"},{"town":"醍醐南西裏町","koaza":"","lat":34.945706,"lng":135.812073,"version":"14.0b/19.0a"},{"town":"醍醐南端山町","koaza":"","lat":34.940546,"lng":135.827646,"version":"14.0b/19.0a"},{"town":"醍醐山ケ鼻","koaza":"","lat":34.962387,"lng":135.822651,"version":"14.0b/19.0a"},{"town":"醍醐連蔵","koaza":"","lat":34.962024,"lng":135.820357,"version":"14.0b/19.0a"},{"town":"鷹匠町","koaza":"","lat":34.936387,"lng":135.76093,"version":"14.0b/19.0a"},{"town":"竹田青池町","koaza":"","lat":34.956513,"lng":135.749368,"version":"14.0b/19.0a"},{"town":"竹田内畑町","koaza":"","lat":34.952849,"lng":135.757486,"version":"14.0b/19.0a"},{"town":"竹田桶ノ井町","koaza":"","lat":34.955924,"lng":135.757184,"version":"14.0b/19.0a"},{"town":"竹田狩賀町","koaza":"","lat":34.946785,"lng":135.756204,"version":"14.0b/19.0a"},{"town":"竹田北三ツ杭町","koaza":"","lat":34.959422,"lng":135.758784,"version":"14.0b/19.0a"},{"town":"竹田久保町","koaza":"","lat":34.962979,"lng":135.76099,"version":"14.0b/19.0a"},{"town":"竹田浄菩提院町","koaza":"","lat":34.951747,"lng":135.754165,"version":"14.0b/19.0a"},{"town":"竹田醍醐田町","koaza":"","lat":34.949731,"lng":135.756746,"version":"14.0b/19.0a"},{"town":"竹田田中殿町","koaza":"","lat":34.954013,"lng":135.747949,"version":"14.0b/19.0a"},{"town":"竹田田中宮町","koaza":"","lat":34.94925,"lng":135.753735,"version":"14.0b/19.0a"},{"town":"竹田段川原町","koaza":"","lat":34.959133,"lng":135.757155,"version":"14.0b/19.0a"},{"town":"竹田鳥羽殿町","koaza":"","lat":34.947355,"lng":135.750771,"version":"14.0b/19.0a"},{"town":"竹田中内畑町","koaza":"","lat":34.95342,"lng":135.754195,"version":"14.0b/19.0a"},{"town":"竹田中川原町","koaza":"","lat":34.958921,"lng":135.760382,"version":"14.0b/19.0a"},{"town":"竹田中島町","koaza":"","lat":34.961878,"lng":135.757485,"version":"14.0b/19.0a"},{"town":"竹田七瀬川町","koaza":"","lat":34.953248,"lng":135.759696,"version":"14.0b/19.0a"},{"town":"竹田西内畑町","koaza":"","lat":34.954132,"lng":135.751028,"version":"14.0b/19.0a"},{"town":"竹田西桶ノ井町","koaza":"","lat":34.955227,"lng":135.755185,"version":"14.0b/19.0a"},{"town":"竹田西小屋ノ内町","koaza":"","lat":34.952418,"lng":135.746877,"version":"14.0b/19.0a"},{"town":"竹田西段川原町","koaza":"","lat":34.958806,"lng":135.754488,"version":"14.0b/19.0a"},{"town":"竹田東小屋ノ内町","koaza":"","lat":34.951839,"lng":135.749823,"version":"14.0b/19.0a"},{"town":"竹田泓ノ川町","koaza":"","lat":34.94504,"lng":135.748392,"version":"14.0b/19.0a"},{"town":"竹田松林町","koaza":"","lat":34.944889,"lng":135.750847,"version":"14.0b/19.0a"},{"town":"竹田真幡木町","koaza":"","lat":34.95536,"lng":135.753263,"version":"14.0b/19.0a"},{"town":"竹田三ツ杭町","koaza":"","lat":34.955998,"lng":135.758578,"version":"14.0b/19.0a"},{"town":"竹田向代町","koaza":"","lat":34.964442,"lng":135.754978,"version":"14.0b/19.0a"},{"town":"竹田向代町川町","koaza":"","lat":34.964051,"lng":135.752718,"version":"14.0b/19.0a"},{"town":"竹田流池町","koaza":"","lat":34.961586,"lng":135.75417,"version":"14.0b/19.0a"},{"town":"竹田藁屋町","koaza":"","lat":34.947175,"lng":135.753619,"version":"14.0b/19.0a"},{"town":"竹中町","koaza":"","lat":34.936555,"lng":135.762338,"version":"14.0b/19.0a"},{"town":"樽屋町","koaza":"","lat":34.9413,"lng":135.757931,"version":"14.0b/19.0a"},{"town":"丹後町","koaza":"","lat":34.929606,"lng":135.762618,"version":"14.0b/19.0a"},{"town":"弾正町","koaza":"","lat":34.927679,"lng":135.765353,"version":"14.0b/19.0a"},{"town":"丹波橋町","koaza":"","lat":34.940283,"lng":135.759822,"version":"14.0b/19.0a"},{"town":"津知橋町","koaza":"","lat":34.944655,"lng":135.761123,"version":"14.0b/19.0a"},{"town":"問屋町","koaza":"","lat":34.93586,"lng":135.755936,"version":"14.0b/19.0a"},{"town":"道阿弥町","koaza":"","lat":34.932368,"lng":135.765952,"version":"14.0b/19.0a"},{"town":"等安町","koaza":"","lat":34.942344,"lng":135.759339,"version":"14.0b/19.0a"},{"town":"桃陵町","koaza":"","lat":34.928815,"lng":135.766533,"version":"14.0b/19.0a"},{"town":"常盤町","koaza":"","lat":34.930662,"lng":135.767949,"version":"14.0b/19.0a"},{"town":"土橋町","koaza":"","lat":34.936712,"lng":135.757823,"version":"14.0b/19.0a"},{"town":"鳥羽町","koaza":"","lat":34.94529,"lng":135.757399,"version":"14.0b/19.0a"},{"town":"中油掛町","koaza":"","lat":34.931384,"lng":135.760397,"version":"14.0b/19.0a"},{"town":"中島秋ノ山町","koaza":"","lat":34.951781,"lng":135.744341,"version":"14.0b/19.0a"},{"town":"中島河原田町","koaza":"","lat":34.947297,"lng":135.74183,"version":"14.0b/19.0a"},{"town":"中島北ノ口町","koaza":"","lat":34.949527,"lng":135.750915,"version":"14.0b/19.0a"},{"town":"中島御所ノ内町","koaza":"","lat":34.949647,"lng":135.744112,"version":"14.0b/19.0a"},{"town":"中島鳥羽離宮町","koaza":"","lat":34.950218,"lng":135.747029,"version":"14.0b/19.0a"},{"town":"中島外山町","koaza":"","lat":34.945295,"lng":135.746416,"version":"14.0b/19.0a"},{"town":"中島中道町","koaza":"","lat":34.94752,"lng":135.746492,"version":"14.0b/19.0a"},{"town":"中島樋ノ上町","koaza":"","lat":34.945211,"lng":135.744311,"version":"14.0b/19.0a"},{"town":"中島堀端町","koaza":"","lat":34.947439,"lng":135.748581,"version":"14.0b/19.0a"},{"town":"中島前山町","koaza":"","lat":34.947589,"lng":135.744235,"version":"14.0b/19.0a"},{"town":"中島宮ノ前町","koaza":"","lat":34.94924,"lng":135.748213,"version":"14.0b/19.0a"},{"town":"中島流作町","koaza":"","lat":34.952079,"lng":135.742747,"version":"14.0b/19.0a"},{"town":"中之町","koaza":"","lat":34.94306,"lng":135.762026,"version":"14.0b/19.0a"},{"town":"鍋島町","koaza":"","lat":34.932113,"lng":135.768112,"version":"14.0b/19.0a"},{"town":"納屋町","koaza":"","lat":34.932273,"lng":135.759585,"version":"14.0b/19.0a"},{"town":"奈良屋町","koaza":"","lat":34.945318,"lng":135.76177,"version":"14.0b/19.0a"},{"town":"成町","koaza":"","lat":34.939213,"lng":135.755763,"version":"14.0b/19.0a"},{"town":"南部町","koaza":"","lat":34.934108,"lng":135.7609,"version":"14.0b/19.0a"},{"town":"西尼崎町","koaza":"","lat":34.935727,"lng":135.755214,"version":"14.0b/19.0a"},{"town":"西大手町","koaza":"","lat":34.933053,"lng":135.758411,"version":"14.0b/19.0a"},{"town":"西鍵屋町","koaza":"","lat":34.943887,"lng":135.760757,"version":"14.0b/19.0a"},{"town":"西堺町","koaza":"","lat":34.936895,"lng":135.755293,"version":"14.0b/19.0a"},{"town":"西朱雀町","koaza":"","lat":34.942053,"lng":135.758667,"version":"14.0b/19.0a"},{"town":"西大黒町","koaza":"","lat":34.940734,"lng":135.757351,"version":"14.0b/19.0a"},{"town":"西大文字町","koaza":"","lat":34.93489,"lng":135.754331,"version":"14.0b/19.0a"},{"town":"西浜町","koaza":"","lat":34.928097,"lng":135.756332,"version":"14.0b/19.0a"},{"town":"西奉行町","koaza":"","lat":34.930686,"lng":135.766355,"version":"14.0b/19.0a"},{"town":"西桝屋町","koaza":"","lat":34.947566,"lng":135.766329,"version":"14.0b/19.0a"},{"town":"西町","koaza":"","lat":34.935241,"lng":135.758261,"version":"14.0b/19.0a"},{"town":"西柳町","koaza":"","lat":34.929046,"lng":135.759504,"version":"14.0b/19.0a"},{"town":"納所和泉屋","koaza":"","lat":34.911985,"lng":135.724249,"version":"14.0b/19.0a"},{"town":"納所大野","koaza":"","lat":34.9125,"lng":135.728039,"version":"14.0b/19.0a"},{"town":"納所岸ノ下","koaza":"","lat":34.9145,"lng":135.724977,"version":"14.0b/19.0a"},{"town":"納所北城堀","koaza":"","lat":34.911366,"lng":135.720525,"version":"14.0b/19.0a"},{"town":"納所下野","koaza":"","lat":34.909671,"lng":135.728619,"version":"14.0b/19.0a"},{"town":"納所町","koaza":"","lat":34.909949,"lng":135.717789,"version":"14.0b/19.0a"},{"town":"納所外島","koaza":"","lat":34.915708,"lng":135.723544,"version":"14.0b/19.0a"},{"town":"納所中河原","koaza":"","lat":34.913507,"lng":135.724045,"version":"14.0b/19.0a"},{"town":"納所星柳","koaza":"","lat":34.910952,"lng":135.722831,"version":"14.0b/19.0a"},{"town":"納所南城堀","koaza":"","lat":34.909144,"lng":135.720372,"version":"14.0b/19.0a"},{"town":"納所妙徳寺","koaza":"","lat":34.909425,"lng":135.718883,"version":"14.0b/19.0a"},{"town":"納所薬師堂","koaza":"","lat":34.909143,"lng":135.721847,"version":"14.0b/19.0a"},{"town":"羽束師鴨川町","koaza":"","lat":34.933929,"lng":135.73411,"version":"14.0b/19.0a"},{"town":"羽束師志水町","koaza":"","lat":34.930369,"lng":135.726219,"version":"14.0b/19.0a"},{"town":"羽束師菱川町","koaza":"","lat":34.932496,"lng":135.719617,"version":"14.0b/19.0a"},{"town":"羽束師古川町","koaza":"","lat":34.925011,"lng":135.722886,"version":"14.0b/19.0a"},{"town":"東大手町","koaza":"","lat":34.933006,"lng":135.761852,"version":"14.0b/19.0a"},{"town":"東組町","koaza":"","lat":34.93525,"lng":135.760887,"version":"14.0b/19.0a"},{"town":"東堺町","koaza":"","lat":34.937663,"lng":135.758453,"version":"14.0b/19.0a"},{"town":"東朱雀町","koaza":"","lat":34.941261,"lng":135.759322,"version":"14.0b/19.0a"},{"town":"東大黒町","koaza":"","lat":34.940287,"lng":135.757695,"version":"14.0b/19.0a"},{"town":"東大文字町","koaza":"","lat":34.940276,"lng":135.758638,"version":"14.0b/19.0a"},{"town":"東浜南町","koaza":"","lat":34.92816,"lng":135.758489,"version":"14.0b/19.0a"},{"town":"東菱屋町","koaza":"","lat":34.935422,"lng":135.756903,"version":"14.0b/19.0a"},{"town":"東奉行町","koaza":"","lat":34.930596,"lng":135.767306,"version":"14.0b/19.0a"},{"town":"東町","koaza":"","lat":34.9353,"lng":135.75965,"version":"14.0b/19.0a"},{"town":"東柳町","koaza":"","lat":34.929002,"lng":135.760542,"version":"14.0b/19.0a"},{"town":"肥後町","koaza":"","lat":34.936081,"lng":135.758025,"version":"14.0b/19.0a"},{"town":"菱屋町","koaza":"","lat":34.945006,"lng":135.75946,"version":"14.0b/19.0a"},{"town":"日野岡西町","koaza":"","lat":34.933089,"lng":135.81417,"version":"14.0b/19.0a"},{"town":"日野奥出","koaza":"","lat":34.929699,"lng":135.816461,"version":"14.0b/19.0a"},{"town":"日野北川頬","koaza":"","lat":34.935791,"lng":135.820379,"version":"14.0b/19.0a"},{"town":"日野北山","koaza":"","lat":34.935793,"lng":135.827055,"version":"14.0b/19.0a"},{"town":"日野慈悲町","koaza":"","lat":34.935107,"lng":135.8178,"version":"14.0b/19.0a"},{"town":"日野田頬町","koaza":"","lat":34.93291,"lng":135.81325,"version":"14.0b/19.0a"},{"town":"日野田中町","koaza":"","lat":34.938629,"lng":135.812352,"version":"14.0b/19.0a"},{"town":"日野谷田町","koaza":"","lat":34.930544,"lng":135.819933,"version":"14.0b/19.0a"},{"town":"日野谷寺町","koaza":"","lat":34.939123,"lng":135.816821,"version":"14.0b/19.0a"},{"town":"日野西川頬","koaza":"","lat":34.937862,"lng":135.81104,"version":"14.0b/19.0a"},{"town":"日野西大道町","koaza":"","lat":34.93369,"lng":135.815294,"version":"14.0b/19.0a"},{"town":"日野西風呂町","koaza":"","lat":34.935502,"lng":135.8135,"version":"14.0b/19.0a"},{"town":"日野野色町","koaza":"","lat":34.929812,"lng":135.814866,"version":"14.0b/19.0a"},{"town":"日野畑出町","koaza":"","lat":34.934042,"lng":135.817513,"version":"14.0b/19.0a"},{"town":"日野林","koaza":"","lat":34.937295,"lng":135.817115,"version":"14.0b/19.0a"},{"town":"日野馬場出町","koaza":"","lat":34.937119,"lng":135.813814,"version":"14.0b/19.0a"},{"town":"日野不動講町","koaza":"","lat":34.936624,"lng":135.815719,"version":"14.0b/19.0a"},{"town":"日野船尾","koaza":"","lat":34.933946,"lng":135.822487,"version":"14.0b/19.0a"},{"town":"日野南山","koaza":"","lat":34.930609,"lng":135.826932,"version":"14.0b/19.0a"},{"town":"平戸町","koaza":"","lat":34.926441,"lng":135.766269,"version":"14.0b/19.0a"},{"town":"平野町","koaza":"","lat":34.932401,"lng":135.760651,"version":"14.0b/19.0a"},{"town":"深草相深町","koaza":"","lat":34.972465,"lng":135.76902,"version":"14.0b/19.0a"},{"town":"深草鐙ケ谷町","koaza":"","lat":34.948447,"lng":135.789363,"version":"14.0b/19.0a"},{"town":"深草池ノ内町","koaza":"","lat":34.954582,"lng":135.764944,"version":"14.0b/19.0a"},{"town":"深草飯食町","koaza":"","lat":34.955636,"lng":135.768839,"version":"14.0b/19.0a"},{"town":"深草飯食山町","koaza":"","lat":34.959638,"lng":135.787531,"version":"14.0b/19.0a"},{"town":"深草石橋町","koaza":"","lat":34.948201,"lng":135.771469,"version":"14.0b/19.0a"},{"town":"深草一ノ坪町","koaza":"","lat":34.968404,"lng":135.769013,"version":"14.0b/19.0a"},{"town":"深草稲荷榎木橋町","koaza":"","lat":34.969461,"lng":135.770933,"version":"14.0b/19.0a"},{"town":"深草稲荷御前町","koaza":"","lat":34.966944,"lng":135.770944,"version":"14.0b/19.0a"},{"town":"深草稲荷鳥居前町","koaza":"","lat":34.966501,"lng":135.769554,"version":"14.0b/19.0a"},{"town":"深草稲荷中之町","koaza":"","lat":34.96846,"lng":135.770928,"version":"14.0b/19.0a"},{"town":"深草今在家町","koaza":"","lat":34.965404,"lng":135.766886,"version":"14.0b/19.0a"},{"town":"深草馬谷町","koaza":"","lat":34.956122,"lng":135.786885,"version":"14.0b/19.0a"},{"town":"深草越後屋敷町","koaza":"","lat":34.950337,"lng":135.764437,"version":"14.0b/19.0a"},{"town":"深草扇ケ原町","koaza":"","lat":34.961097,"lng":135.790539,"version":"14.0b/19.0a"},{"town":"深草大亀谷安信町","koaza":"","lat":34.94001,"lng":135.784627,"version":"14.0b/19.0a"},{"town":"深草大亀谷岩山町","koaza":"","lat":34.941329,"lng":135.787953,"version":"14.0b/19.0a"},{"town":"深草大亀谷大谷町","koaza":"","lat":34.949073,"lng":135.780767,"version":"14.0b/19.0a"},{"town":"深草大亀谷大山町","koaza":"","lat":34.946859,"lng":135.778345,"version":"14.0b/19.0a"},{"town":"深草大亀谷金森出雲町","koaza":"","lat":34.944555,"lng":135.770973,"version":"14.0b/19.0a"},{"town":"深草大亀谷古城山","koaza":"","lat":34.939611,"lng":135.783837,"version":"14.0b/19.0a"},{"town":"深草大亀谷五郎太町","koaza":"","lat":34.941997,"lng":135.776879,"version":"14.0b/19.0a"},{"town":"深草大亀谷敦賀町","koaza":"","lat":34.943511,"lng":135.783927,"version":"14.0b/19.0a"},{"town":"深草大亀谷内膳町","koaza":"","lat":34.945757,"lng":135.772724,"version":"14.0b/19.0a"},{"town":"深草大亀谷西久宝寺町","koaza":"","lat":34.953478,"lng":135.776865,"version":"14.0b/19.0a"},{"town":"深草大亀谷西寺町","koaza":"","lat":34.95026,"lng":135.775459,"version":"14.0b/19.0a"},{"town":"深草大亀谷東安信町","koaza":"","lat":34.940693,"lng":135.785529,"version":"14.0b/19.0a"},{"town":"深草大亀谷東久宝寺町","koaza":"","lat":34.952656,"lng":135.779129,"version":"14.0b/19.0a"},{"town":"深草大亀谷東寺町","koaza":"","lat":34.949371,"lng":135.777953,"version":"14.0b/19.0a"},{"town":"深草大亀谷東古御香町","koaza":"","lat":34.944277,"lng":135.787114,"version":"14.0b/19.0a"},{"town":"深草大亀谷古御香町","koaza":"","lat":34.944605,"lng":135.784939,"version":"14.0b/19.0a"},{"town":"深草大亀谷万帖敷町","koaza":"","lat":34.944204,"lng":135.779325,"version":"14.0b/19.0a"},{"town":"深草大亀谷八島町","koaza":"","lat":34.947692,"lng":135.773672,"version":"14.0b/19.0a"},{"town":"深草大亀谷六躰町","koaza":"","lat":34.944985,"lng":135.774328,"version":"14.0b/19.0a"},{"town":"深草大島屋敷町","koaza":"","lat":34.94924,"lng":135.766254,"version":"14.0b/19.0a"},{"town":"深草ヲカヤ町","koaza":"","lat":34.964286,"lng":135.763747,"version":"14.0b/19.0a"},{"town":"深草開土口町","koaza":"","lat":34.969225,"lng":135.775608,"version":"14.0b/19.0a"},{"town":"深草開土町","koaza":"","lat":34.96942,"lng":135.772557,"version":"14.0b/19.0a"},{"town":"深草加賀屋敷町","koaza":"","lat":34.948821,"lng":135.757495,"version":"14.0b/19.0a"},{"town":"深草兜山町","koaza":"","lat":34.945808,"lng":135.78909,"version":"14.0b/19.0a"},{"town":"深草上横縄町","koaza":"","lat":34.97051,"lng":135.769242,"version":"14.0b/19.0a"},{"town":"深草枯木町","koaza":"","lat":34.954759,"lng":135.773604,"version":"14.0b/19.0a"},{"town":"深草川久保町","koaza":"","lat":34.965715,"lng":135.763884,"version":"14.0b/19.0a"},{"town":"深草瓦町","koaza":"","lat":34.957688,"lng":135.778534,"version":"14.0b/19.0a"},{"town":"深草願成町","koaza":"","lat":34.971211,"lng":135.774139,"version":"14.0b/19.0a"},{"town":"深草勧進橋町","koaza":"","lat":34.968861,"lng":135.761749,"version":"14.0b/19.0a"},{"town":"深草北鍵屋町","koaza":"","lat":34.949583,"lng":135.767333,"version":"14.0b/19.0a"},{"town":"深草北新町","koaza":"","lat":34.948696,"lng":135.769743,"version":"14.0b/19.0a"},{"town":"深草北蓮池町","koaza":"","lat":34.951701,"lng":135.767938,"version":"14.0b/19.0a"},{"town":"深草キトロ町","koaza":"","lat":34.958418,"lng":135.769457,"version":"14.0b/19.0a"},{"town":"深草霧ケ谷町","koaza":"","lat":34.952189,"lng":135.788898,"version":"14.0b/19.0a"},{"town":"深草鞍ケ谷","koaza":"","lat":34.95559,"lng":135.78296,"version":"14.0b/19.0a"},{"town":"深草車阪町","koaza":"","lat":34.975381,"lng":135.77704,"version":"14.0b/19.0a"},{"town":"深草ケナサ町","koaza":"","lat":34.963808,"lng":135.769552,"version":"14.0b/19.0a"},{"town":"深草小久保町","koaza":"","lat":34.95231,"lng":135.762062,"version":"14.0b/19.0a"},{"town":"深草極楽寺町","koaza":"","lat":34.962187,"lng":135.77298,"version":"14.0b/19.0a"},{"town":"深草極楽寺山町","koaza":"","lat":34.964593,"lng":135.789109,"version":"14.0b/19.0a"},{"town":"深草極楽町","koaza":"","lat":34.955699,"lng":135.770176,"version":"14.0b/19.0a"},{"town":"深草五反田町","koaza":"","lat":34.956644,"lng":135.764847,"version":"14.0b/19.0a"},{"town":"深草紺屋町","koaza":"","lat":34.945311,"lng":135.763017,"version":"14.0b/19.0a"},{"town":"深草笹山町","koaza":"","lat":34.966679,"lng":135.777637,"version":"14.0b/19.0a"},{"town":"深草佐野屋敷町","koaza":"","lat":34.947283,"lng":135.765309,"version":"14.0b/19.0a"},{"town":"深草柴田屋敷町","koaza":"","lat":34.947368,"lng":135.761913,"version":"14.0b/19.0a"},{"town":"深草下川原町","koaza":"","lat":34.96759,"lng":135.763085,"version":"14.0b/19.0a"},{"town":"深草下高松町","koaza":"","lat":34.972877,"lng":135.769339,"version":"14.0b/19.0a"},{"town":"深草下横縄町","koaza":"","lat":34.969499,"lng":135.769468,"version":"14.0b/19.0a"},{"town":"深草十九軒町","koaza":"","lat":34.951479,"lng":135.769692,"version":"14.0b/19.0a"},{"town":"深草正覚町","koaza":"","lat":34.972538,"lng":135.772282,"version":"14.0b/19.0a"},{"town":"深草白砂町","koaza":"","lat":34.94892,"lng":135.785251,"version":"14.0b/19.0a"},{"town":"深草真宗院山町","koaza":"","lat":34.960237,"lng":135.778418,"version":"14.0b/19.0a"},{"town":"深草神明講谷町","koaza":"","lat":34.957818,"lng":135.789617,"version":"14.0b/19.0a"},{"town":"深草新門丈町","koaza":"","lat":34.950162,"lng":135.761006,"version":"14.0b/19.0a"},{"town":"深草直違橋十丁目","koaza":"","lat":34.964296,"lng":135.771083,"version":"14.0b/19.0a"},{"town":"深草直違橋十一丁目","koaza":"","lat":34.965484,"lng":135.770929,"version":"14.0b/19.0a"},{"town":"深草直違橋二丁目","koaza":"","lat":34.954825,"lng":135.770825,"version":"14.0b/19.0a"},{"town":"深草直違橋三丁目","koaza":"","lat":34.956197,"lng":135.771233,"version":"14.0b/19.0a"},{"town":"深草直違橋四丁目","koaza":"","lat":34.957452,"lng":135.771354,"version":"14.0b/19.0a"},{"town":"深草直違橋五丁目","koaza":"","lat":34.958511,"lng":135.771186,"version":"14.0b/19.0a"},{"town":"深草直違橋六丁目","koaza":"","lat":34.959732,"lng":135.771178,"version":"14.0b/19.0a"},{"town":"深草直違橋七丁目","koaza":"","lat":34.960804,"lng":135.771185,"version":"14.0b/19.0a"},{"town":"深草直違橋八丁目","koaza":"","lat":34.961905,"lng":135.771148,"version":"14.0b/19.0a"},{"town":"深草直違橋九丁目","koaza":"","lat":34.963148,"lng":135.771099,"version":"14.0b/19.0a"},{"town":"深草直違橋片町","koaza":"","lat":34.951527,"lng":135.770933,"version":"14.0b/19.0a"},{"town":"深草直違橋北一丁目","koaza":"","lat":34.95372,"lng":135.770798,"version":"14.0b/19.0a"},{"town":"深草直違橋南一丁目","koaza":"","lat":34.952951,"lng":135.770259,"version":"14.0b/19.0a"},{"town":"深草鈴塚町","koaza":"","lat":34.969642,"lng":135.766465,"version":"14.0b/19.0a"},{"town":"深草スゝハキ町","koaza":"","lat":34.96534,"lng":135.769538,"version":"14.0b/19.0a"},{"town":"深草砂子谷町","koaza":"","lat":34.951417,"lng":135.785008,"version":"14.0b/19.0a"},{"town":"深草墨染町","koaza":"","lat":34.946455,"lng":135.768058,"version":"14.0b/19.0a"},{"town":"深草石峰寺山町","koaza":"","lat":34.964863,"lng":135.77653,"version":"14.0b/19.0a"},{"town":"深草関屋敷町","koaza":"","lat":34.951466,"lng":135.766967,"version":"14.0b/19.0a"},{"town":"深草仙石屋敷町","koaza":"","lat":34.952649,"lng":135.765238,"version":"14.0b/19.0a"},{"town":"深草善導寺町","koaza":"","lat":34.946154,"lng":135.759594,"version":"14.0b/19.0a"},{"town":"深草僧坊町","koaza":"","lat":34.958286,"lng":135.776058,"version":"14.0b/19.0a"},{"town":"深草僧坊山町","koaza":"","lat":34.962474,"lng":135.782807,"version":"14.0b/19.0a"},{"town":"深草大門町","koaza":"","lat":34.965056,"lng":135.772755,"version":"14.0b/19.0a"},{"town":"深草谷口町","koaza":"","lat":34.951884,"lng":135.781917,"version":"14.0b/19.0a"},{"town":"深草田谷町","koaza":"","lat":34.958706,"lng":135.773151,"version":"14.0b/19.0a"},{"town":"深草町通町","koaza":"","lat":34.960602,"lng":135.769495,"version":"14.0b/19.0a"},{"town":"深草塚本町","koaza":"","lat":34.963897,"lng":135.766662,"version":"14.0b/19.0a"},{"town":"深草寺内町","koaza":"","lat":34.953735,"lng":135.76878,"version":"14.0b/19.0a"},{"town":"深草出羽屋敷町","koaza":"","lat":34.94707,"lng":135.763859,"version":"14.0b/19.0a"},{"town":"深草東軸町","koaza":"","lat":34.952026,"lng":135.786781,"version":"14.0b/19.0a"},{"town":"深草砥粉山町","koaza":"","lat":34.961405,"lng":135.78538,"version":"14.0b/19.0a"},{"town":"深草鳥居崎町","koaza":"","lat":34.950337,"lng":135.771401,"version":"14.0b/19.0a"},{"town":"深草中川原町","koaza":"","lat":34.972093,"lng":135.766579,"version":"14.0b/19.0a"},{"town":"深草中ノ郷山町","koaza":"","lat":34.958899,"lng":135.783156,"version":"14.0b/19.0a"},{"town":"深草中ノ島町","koaza":"","lat":34.946247,"lng":135.770605,"version":"14.0b/19.0a"},{"town":"深草七瀬川町","koaza":"","lat":34.952917,"lng":135.76778,"version":"14.0b/19.0a"},{"town":"深草南明町","koaza":"","lat":34.972963,"lng":135.77569,"version":"14.0b/19.0a"},{"town":"深草西飯食町","koaza":"","lat":34.955171,"lng":135.767892,"version":"14.0b/19.0a"},{"town":"深草西浦町一丁目","koaza":"","lat":34.961678,"lng":135.762624,"version":"14.0b/19.0a"},{"town":"深草西浦町二丁目","koaza":"","lat":34.961663,"lng":135.764528,"version":"14.0b/19.0a"},{"town":"深草西浦町三丁目","koaza":"","lat":34.961334,"lng":135.766158,"version":"14.0b/19.0a"},{"town":"深草西浦町四丁目","koaza":"","lat":34.961352,"lng":135.767561,"version":"14.0b/19.0a"},{"town":"深草西浦町五丁目","koaza":"","lat":34.958266,"lng":135.76721,"version":"14.0b/19.0a"},{"town":"深草西浦町六丁目","koaza":"","lat":34.958243,"lng":135.765483,"version":"14.0b/19.0a"},{"town":"深草西浦町七丁目","koaza":"","lat":34.958871,"lng":135.764195,"version":"14.0b/19.0a"},{"town":"深草西浦町八丁目","koaza":"","lat":34.958433,"lng":135.762042,"version":"14.0b/19.0a"},{"town":"深草西川原町","koaza":"","lat":34.971552,"lng":135.764663,"version":"14.0b/19.0a"},{"town":"深草西伊達町","koaza":"","lat":34.956332,"lng":135.773636,"version":"14.0b/19.0a"},{"town":"深草西出町","koaza":"","lat":34.960424,"lng":135.772912,"version":"14.0b/19.0a"},{"town":"深草西出山町","koaza":"","lat":34.962699,"lng":135.777961,"version":"14.0b/19.0a"},{"town":"深草野田町","koaza":"","lat":34.959643,"lng":135.769487,"version":"14.0b/19.0a"},{"town":"深草野手町","koaza":"","lat":34.963635,"lng":135.772728,"version":"14.0b/19.0a"},{"town":"深草秡川町","koaza":"","lat":34.96744,"lng":135.769108,"version":"14.0b/19.0a"},{"town":"深草東瓦町","koaza":"","lat":34.957915,"lng":135.780615,"version":"14.0b/19.0a"},{"town":"深草東伊達町","koaza":"","lat":34.955485,"lng":135.778023,"version":"14.0b/19.0a"},{"town":"深草平田町","koaza":"","lat":34.96763,"lng":135.76524,"version":"14.0b/19.0a"},{"town":"深草フケノ内町","koaza":"","lat":34.968075,"lng":135.767235,"version":"14.0b/19.0a"},{"town":"深草泓ノ壺町","koaza":"","lat":34.948592,"lng":135.759764,"version":"14.0b/19.0a"},