[{"town":"青田","koaza":"","lat":36.37427,"lng":139.942822,"version":"13.0b/18.0a"},{"town":"青谷","koaza":"","lat":36.421296,"lng":140.065047,"version":"13.0b/18.0a"},{"town":"赤羽","koaza":"","lat":36.494465,"lng":140.042978,"version":"13.0b/18.0a"},{"town":"阿部岡","koaza":"","lat":36.403224,"lng":140.040243,"version":"13.0b/18.0a"},{"town":"阿部品","koaza":"","lat":36.37279,"lng":139.993457,"version":"13.0b/18.0a"},{"town":"荒町","koaza":"","lat":36.441687,"lng":140.01315,"version":"13.0b/18.0a"},{"town":"荒町二丁目","koaza":"","lat":36.446694,"lng":140.012303,"version":"13.0b/18.0a"},{"town":"荒町三丁目","koaza":"","lat":36.444137,"lng":140.016409,"version":"13.0b/18.0a"},{"town":"荒町四丁目","koaza":"","lat":36.448141,"lng":140.018168,"version":"13.0b/18.0a"},{"town":"飯貝","koaza":"","lat":36.478688,"lng":140.02278,"version":"13.0b/18.0a"},{"town":"砂ケ原","koaza":"","lat":36.382723,"lng":139.930665,"version":"13.0b/18.0a"},{"town":"石島","koaza":"","lat":36.388652,"lng":139.974694,"version":"13.0b/18.0a"},{"town":"伊勢崎","koaza":"","lat":36.425112,"lng":139.980244,"version":"13.0b/18.0a"},{"town":"大沼","koaza":"","lat":36.437498,"lng":139.949976,"version":"13.0b/18.0a"},{"town":"大根田","koaza":"","lat":36.378866,"lng":139.981373,"version":"13.0b/18.0a"},{"town":"大谷新町","koaza":"","lat":36.433055,"lng":139.999283,"version":"13.0b/18.0a"},{"town":"大谷台町","koaza":"","lat":36.435427,"lng":139.991404,"version":"13.0b/18.0a"},{"town":"大谷本町","koaza":"","lat":36.434712,"lng":139.998215,"version":"13.0b/18.0a"},{"town":"大和田","koaza":"","lat":36.404062,"lng":139.983686,"version":"13.0b/18.0a"},{"town":"沖","koaza":"","lat":36.395032,"lng":139.984765,"version":"13.0b/18.0a"},{"town":"加倉","koaza":"","lat":36.427811,"lng":139.955344,"version":"13.0b/18.0a"},{"town":"粕田","koaza":"","lat":36.426593,"lng":139.942142,"version":"13.0b/18.0a"},{"town":"勝瓜","koaza":"","lat":36.462392,"lng":139.963096,"version":"13.0b/18.0a"},{"town":"上江連","koaza":"","lat":36.343317,"lng":139.921106,"version":"13.0b/18.0a"},{"town":"上大曽","koaza":"","lat":36.390093,"lng":139.949446,"version":"13.0b/18.0a"},{"town":"上大田和","koaza":"","lat":36.482893,"lng":140.011787,"version":"13.0b/18.0a"},{"town":"上大沼","koaza":"","lat":36.439365,"lng":139.949588,"version":"13.0b/18.0a"},{"town":"上高間木","koaza":"","lat":36.443235,"lng":139.983568,"version":"13.0b/18.0a"},{"town":"上高間木一丁目","koaza":"","lat":36.446026,"lng":139.988359,"version":"13.0b/18.0a"},{"town":"上高間木二丁目","koaza":"","lat":36.441871,"lng":139.986981,"version":"13.0b/18.0a"},{"town":"上高間木三丁目","koaza":"","lat":36.438895,"lng":139.985476,"version":"13.0b/18.0a"},{"town":"上鷺谷","koaza":"","lat":36.48649,"lng":139.998623,"version":"13.0b/18.0a"},{"town":"上谷貝","koaza":"","lat":36.394297,"lng":139.937587,"version":"13.0b/18.0a"},{"town":"亀山","koaza":"","lat":36.459253,"lng":139.982932,"version":"13.0b/18.0a"},{"town":"亀山一丁目","koaza":"","lat":36.451435,"lng":139.986619,"version":"13.0b/18.0a"},{"town":"亀山二丁目","koaza":"","lat":36.453428,"lng":139.988023,"version":"13.0b/18.0a"},{"town":"亀山三丁目","koaza":"","lat":36.452253,"lng":139.978725,"version":"13.0b/18.0a"},{"town":"茅堤","koaza":"","lat":36.424988,"lng":139.971297,"version":"13.0b/18.0a"},{"town":"鬼怒ケ丘","koaza":"","lat":36.459723,"lng":139.968844,"version":"13.0b/18.0a"},{"town":"鬼怒ケ丘一丁目","koaza":"","lat":36.451,"lng":139.972418,"version":"13.0b/18.0a"},{"town":"君島","koaza":"","lat":36.417421,"lng":140.045286,"version":"13.0b/18.0a"},{"town":"京泉","koaza":"","lat":36.479478,"lng":140.033217,"version":"13.0b/18.0a"},{"town":"久下田","koaza":"","lat":36.375651,"lng":139.959841,"version":"13.0b/18.0a"},{"town":"久下田西一丁目","koaza":"","lat":36.378672,"lng":139.96712,"version":"13.0b/18.0a"},{"town":"久下田西二丁目","koaza":"","lat":36.374742,"lng":139.966351,"version":"13.0b/18.0a"},{"town":"久下田西三丁目","koaza":"","lat":36.374874,"lng":139.96455,"version":"13.0b/18.0a"},{"town":"久下田西四丁目","koaza":"","lat":36.378977,"lng":139.964993,"version":"13.0b/18.0a"},{"town":"久下田西五丁目","koaza":"","lat":36.379052,"lng":139.963126,"version":"13.0b/18.0a"},{"town":"久下田西六丁目","koaza":"","lat":36.3748,"lng":139.963069,"version":"13.0b/18.0a"},{"town":"久下田西七丁目","koaza":"","lat":36.371755,"lng":139.964371,"version":"13.0b/18.0a"},{"town":"熊倉一丁目","koaza":"","lat":36.449045,"lng":139.992682,"version":"13.0b/18.0a"},{"town":"熊倉二丁目","koaza":"","lat":36.443894,"lng":139.992908,"version":"13.0b/18.0a"},{"town":"熊倉三丁目","koaza":"","lat":36.43911,"lng":139.990674,"version":"13.0b/18.0a"},{"town":"熊倉町","koaza":"","lat":36.451668,"lng":139.993803,"version":"13.0b/18.0a"},{"town":"桑ノ川","koaza":"","lat":36.38038,"lng":140.002103,"version":"13.0b/18.0a"},{"town":"小橋","koaza":"","lat":36.419103,"lng":139.980427,"version":"13.0b/18.0a"},{"town":"小林","koaza":"","lat":36.428779,"lng":140.036524,"version":"13.0b/18.0a"},{"town":"古山","koaza":"","lat":36.356475,"lng":139.943285,"version":"13.0b/18.0a"},{"town":"境","koaza":"","lat":36.354386,"lng":139.957368,"version":"13.0b/18.0a"},{"town":"さくら一丁目","koaza":"","lat":36.385979,"lng":139.967897,"version":"13.0b/18.0a"},{"town":"さくら二丁目","koaza":"","lat":36.38231,"lng":139.967969,"version":"13.0b/18.0a"},{"town":"さくら三丁目","koaza":"","lat":36.382484,"lng":139.96526,"version":"13.0b/18.0a"},{"town":"さくら四丁目","koaza":"","lat":36.386094,"lng":139.965454,"version":"13.0b/18.0a"},{"town":"道祖土","koaza":"","lat":36.411185,"lng":140.04333,"version":"13.0b/18.0a"},{"town":"鹿","koaza":"","lat":36.388758,"lng":139.995164,"version":"13.0b/18.0a"},{"town":"島","koaza":"","lat":36.434804,"lng":140.026606,"version":"13.0b/18.0a"},{"town":"清水","koaza":"","lat":36.484752,"lng":140.064439,"version":"13.0b/18.0a"},{"town":"下大曽","koaza":"","lat":36.380692,"lng":139.951656,"version":"13.0b/18.0a"},{"town":"下大田和","koaza":"","lat":36.466622,"lng":140.005412,"version":"13.0b/18.0a"},{"town":"下大沼","koaza":"","lat":36.431244,"lng":139.951857,"version":"13.0b/18.0a"},{"town":"下高間木","koaza":"","lat":36.431188,"lng":139.983759,"version":"13.0b/18.0a"},{"town":"下高間木一丁目","koaza":"","lat":36.434123,"lng":139.984703,"version":"13.0b/18.0a"},{"town":"下高間木二丁目","koaza":"","lat":36.429404,"lng":139.98666,"version":"13.0b/18.0a"},{"town":"下籠谷","koaza":"","lat":36.482789,"lng":139.979821,"version":"13.0b/18.0a"},{"town":"下鷺谷","koaza":"","lat":36.467318,"lng":139.994128,"version":"13.0b/18.0a"},{"town":"須釜","koaza":"","lat":36.419847,"lng":140.056676,"version":"13.0b/18.0a"},{"town":"反町","koaza":"","lat":36.380906,"lng":140.018656,"version":"13.0b/18.0a"},{"town":"大道泉","koaza":"","lat":36.370396,"lng":139.922614,"version":"13.0b/18.0a"},{"town":"台町","koaza":"","lat":36.438502,"lng":140.004768,"version":"13.0b/18.0a"},{"town":"高勢町一丁目","koaza":"","lat":36.436871,"lng":139.976452,"version":"13.0b/18.0a"},{"town":"高勢町二丁目","koaza":"","lat":36.433783,"lng":139.977705,"version":"13.0b/18.0a"},{"town":"高勢町三丁目","koaza":"","lat":36.428656,"lng":139.980218,"version":"13.0b/18.0a"},{"town":"高田","koaza":"","lat":36.388653,"lng":140.019441,"version":"13.0b/18.0a"},{"town":"田島","koaza":"","lat":36.464553,"lng":140.029167,"version":"13.0b/18.0a"},{"town":"田町","koaza":"","lat":36.437133,"lng":140.013765,"version":"13.0b/18.0a"},{"town":"鶴田","koaza":"","lat":36.461779,"lng":140.054121,"version":"13.0b/18.0a"},{"town":"寺内","koaza":"","lat":36.412286,"lng":139.975877,"version":"13.0b/18.0a"},{"town":"寺久保一丁目","koaza":"","lat":36.448403,"lng":140.002541,"version":"13.0b/18.0a"},{"town":"寺分","koaza":"","lat":36.428375,"lng":139.944865,"version":"13.0b/18.0a"},{"town":"東光寺一丁目","koaza":"","lat":36.441059,"lng":140.021211,"version":"13.0b/18.0a"},{"town":"東光寺二丁目","koaza":"","lat":36.444502,"lng":140.023439,"version":"13.0b/18.0a"},{"town":"東光寺三丁目","koaza":"","lat":36.442517,"lng":140.024979,"version":"13.0b/18.0a"},{"town":"中","koaza":"","lat":36.414826,"lng":139.949091,"version":"13.0b/18.0a"},{"town":"中郷","koaza":"","lat":36.454136,"lng":140.016484,"version":"13.0b/18.0a"},{"town":"長島","koaza":"","lat":36.369769,"lng":139.954523,"version":"13.0b/18.0a"},{"town":"長田","koaza":"","lat":36.444465,"lng":139.963202,"version":"13.0b/18.0a"},{"town":"長田一丁目","koaza":"","lat":36.448647,"lng":139.965472,"version":"13.0b/18.0a"},{"town":"長沼","koaza":"","lat":36.357931,"lng":139.933265,"version":"13.0b/18.0a"},{"town":"並木町一丁目","koaza":"","lat":36.440278,"lng":140.001611,"version":"13.0b/18.0a"},{"town":"並木町二丁目","koaza":"","lat":36.440639,"lng":139.996367,"version":"13.0b/18.0a"},{"town":"並木町三丁目","koaza":"","lat":36.445441,"lng":139.997621,"version":"13.0b/18.0a"},{"town":"並木町四丁目","koaza":"","lat":36.446927,"lng":140.00012,"version":"13.0b/18.0a"},{"town":"西大島","koaza":"","lat":36.355145,"lng":139.913695,"version":"13.0b/18.0a"},{"town":"西郷","koaza":"","lat":36.45697,"lng":140.006633,"version":"13.0b/18.0a"},{"town":"西高間木","koaza":"","lat":36.439227,"lng":139.980762,"version":"13.0b/18.0a"},{"town":"西田井","koaza":"","lat":36.451381,"lng":140.059924,"version":"13.0b/18.0a"},{"town":"西沼","koaza":"","lat":36.427214,"lng":140.006227,"version":"13.0b/18.0a"},{"town":"根小屋","koaza":"","lat":36.375596,"lng":140.015078,"version":"13.0b/18.0a"},{"town":"根本","koaza":"","lat":36.432917,"lng":140.055627,"version":"13.0b/18.0a"},{"town":"白布ケ丘","koaza":"","lat":36.437108,"lng":139.998909,"version":"13.0b/18.0a"},{"town":"八條","koaza":"","lat":36.451188,"lng":140.041381,"version":"13.0b/18.0a"},{"town":"原町","koaza":"","lat":36.473214,"lng":140.041072,"version":"13.0b/18.0a"},{"town":"東大島","koaza":"","lat":36.412159,"lng":140.028489,"version":"13.0b/18.0a"},{"town":"東郷","koaza":"","lat":36.450473,"lng":140.028034,"version":"13.0b/18.0a"},{"town":"東沼","koaza":"","lat":36.424308,"lng":140.016717,"version":"13.0b/18.0a"},{"town":"程島","koaza":"","lat":36.359266,"lng":139.951175,"version":"13.0b/18.0a"},{"town":"堀内","koaza":"","lat":36.474004,"lng":140.008938,"version":"13.0b/18.0a"},{"town":"堀込","koaza":"","lat":36.373771,"lng":139.932077,"version":"13.0b/18.0a"},{"town":"松山町","koaza":"","lat":36.421824,"lng":139.963707,"version":"13.0b/18.0a"},{"town":"水戸部","koaza":"","lat":36.382112,"lng":140.029234,"version":"13.0b/18.0a"},{"town":"南高岡","koaza":"","lat":36.400233,"lng":140.058396,"version":"13.0b/18.0a"},{"town":"三谷","koaza":"","lat":36.386738,"lng":140.046125,"version":"13.0b/18.0a"},{"town":"物井","koaza":"","lat":36.402657,"lng":140.005281,"version":"13.0b/18.0a"},{"town":"谷貝新田","koaza":"","lat":36.396905,"lng":139.92789,"version":"13.0b/18.0a"},{"town":"八木岡","koaza":"","lat":36.421896,"lng":139.992344,"version":"13.0b/18.0a"},{"town":"柳林","koaza":"","lat":36.451676,"lng":139.954388,"version":"13.0b/18.0a"},{"town":"横田","koaza":"","lat":36.410874,"lng":139.992718,"version":"13.0b/18.0a"},{"town":"若旅","koaza":"","lat":36.399922,"lng":139.946008,"version":"13.0b/18.0a"},{"town":"鷲巣","koaza":"","lat":36.35797,"lng":139.921687,"version":"13.0b/18.0a"},{"town":"長田三丁目","koaza":"","lat":36.440284,"lng":139.959209,"version":"13.0b/18.0a"},{"town":"長田二丁目","koaza":"","lat":36.438291,"lng":139.965472,"version":"13.0b/18.0a"},{"town":"長田五丁目","koaza":"","lat":36.435617,"lng":139.96012,"version":"13.0b/18.0a"},{"town":"長田四丁目","koaza":"","lat":36.438653,"lng":139.959478,"version":"13.0b/18.0a"},{"town":"上大沼二丁目","koaza":"","lat":36.438384,"lng":139.955357,"version":"13.0b/18.0a"},{"town":"上大沼一丁目","koaza":"","lat":36.435028,"lng":139.95546,"version":"13.0b/18.0a"},{"town":"下大沼二丁目","koaza":"","lat":36.432324,"lng":139.956267,"version":"13.0b/18.0a"},{"town":"下大沼一丁目","koaza":"","lat":36.432385,"lng":139.959105,"version":"13.0b/18.0a"},{"town":"台町","koaza":"南原","lat":36.432777,"lng":140.001612,"version":"13.0b/18.0a"},{"town":"亀山","koaza":"大野","lat":36.469281,"lng":139.96508,"version":"13.0b/18.0a"},{"town":"青田","koaza":"","lat":36.37427,"lng":139.942822,"version":"14.0b/19.0a"},{"town":"青谷","koaza":"","lat":36.421296,"lng":140.065047,"version":"14.0b/19.0a"},{"town":"赤羽","koaza":"","lat":36.494465,"lng":140.042978,"version":"14.0b/19.0a"},{"town":"阿部岡","koaza":"","lat":36.403224,"lng":140.040243,"version":"14.0b/19.0a"},{"town":"阿部品","koaza":"","lat":36.37279,"lng":139.993457,"version":"14.0b/19.0a"},{"town":"荒町","koaza":"","lat":36.441687,"lng":140.01315,"version":"14.0b/19.0a"},{"town":"荒町二丁目","koaza":"","lat":36.446694,"lng":140.012303,"version":"14.0b/19.0a"},{"town":"荒町三丁目","koaza":"","lat":36.444137,"lng":140.016409,"version":"14.0b/19.0a"},{"town":"荒町四丁目","koaza":"","lat":36.448141,"lng":140.018168,"version":"14.0b/19.0a"},{"town":"飯貝","koaza":"","lat":36.478688,"lng":140.02278,"version":"14.0b/19.0a"},{"town":"砂ケ原","koaza":"","lat":36.382723,"lng":139.930665,"version":"14.0b/19.0a"},{"town":"石島","koaza":"","lat":36.388652,"lng":139.974694,"version":"14.0b/19.0a"},{"town":"伊勢崎","koaza":"","lat":36.425112,"lng":139.980244,"version":"14.0b/19.0a"},{"town":"大沼","koaza":"","lat":36.437498,"lng":139.949976,"version":"14.0b/19.0a"},{"town":"大根田","koaza":"","lat":36.378866,"lng":139.981373,"version":"14.0b/19.0a"},{"town":"大谷新町","koaza":"","lat":36.433055,"lng":139.999283,"version":"14.0b/19.0a"},{"town":"大谷台町","koaza":"","lat":36.435427,"lng":139.991404,"version":"14.0b/19.0a"},{"town":"大谷本町","koaza":"","lat":36.434712,"lng":139.998215,"version":"14.0b/19.0a"},{"town":"大和田","koaza":"","lat":36.404062,"lng":139.983686,"version":"14.0b/19.0a"},{"town":"沖","koaza":"","lat":36.395032,"lng":139.984765,"version":"14.0b/19.0a"},{"town":"加倉","koaza":"","lat":36.427811,"lng":139.955344,"version":"14.0b/19.0a"},{"town":"粕田","koaza":"","lat":36.426593,"lng":139.942142,"version":"14.0b/19.0a"},{"town":"勝瓜","koaza":"","lat":36.462392,"lng":139.963096,"version":"14.0b/19.0a"},{"town":"上江連","koaza":"","lat":36.343317,"lng":139.921106,"version":"14.0b/19.0a"},{"town":"上大曽","koaza":"","lat":36.390093,"lng":139.949446,"version":"14.0b/19.0a"},{"town":"上大田和","koaza":"","lat":36.482893,"lng":140.011787,"version":"14.0b/19.0a"},{"town":"上大沼","koaza":"","lat":36.439365,"lng":139.949588,"version":"14.0b/19.0a"},{"town":"上高間木","koaza":"","lat":36.443235,"lng":139.983568,"version":"14.0b/19.0a"},{"town":"上高間木一丁目","koaza":"","lat":36.446026,"lng":139.988359,"version":"14.0b/19.0a"},{"town":"上高間木二丁目","koaza":"","lat":36.441871,"lng":139.986981,"version":"14.0b/19.0a"},{"town":"上高間木三丁目","koaza":"","lat":36.438895,"lng":139.985476,"version":"14.0b/19.0a"},{"town":"上鷺谷","koaza":"","lat":36.48649,"lng":139.998623,"version":"14.0b/19.0a"},{"town":"上谷貝","koaza":"","lat":36.394297,"lng":139.937587,"version":"14.0b/19.0a"},{"town":"亀山","koaza":"","lat":36.459253,"lng":139.982932,"version":"14.0b/19.0a"},{"town":"亀山一丁目","koaza":"","lat":36.451435,"lng":139.986619,"version":"14.0b/19.0a"},{"town":"亀山二丁目","koaza":"","lat":36.453428,"lng":139.988023,"version":"14.0b/19.0a"},{"town":"亀山三丁目","koaza":"","lat":36.452253,"lng":139.978725,"version":"14.0b/19.0a"},{"town":"茅堤","koaza":"","lat":36.424988,"lng":139.971297,"version":"14.0b/19.0a"},{"town":"鬼怒ケ丘","koaza":"","lat":36.459723,"lng":139.968844,"version":"14.0b/19.0a"},{"town":"鬼怒ケ丘一丁目","koaza":"","lat":36.451,"lng":139.972418,"version":"14.0b/19.0a"},{"town":"君島","koaza":"","lat":36.417421,"lng":140.045286,"version":"14.0b/19.0a"},{"town":"京泉","koaza":"","lat":36.479478,"lng":140.033217,"version":"14.0b/19.0a"},{"town":"久下田","koaza":"","lat":36.375651,"lng":139.959841,"version":"14.0b/19.0a"},{"town":"久下田西一丁目","koaza":"","lat":36.378672,"lng":139.96712,"version":"14.0b/19.0a"},{"town":"久下田西二丁目","koaza":"","lat":36.374742,"lng":139.966351,"version":"14.0b/19.0a"},{"town":"久下田西三丁目","koaza":"","lat":36.374874,"lng":139.96455,"version":"14.0b/19.0a"},{"town":"久下田西四丁目","koaza":"","lat":36.378977,"lng":139.964993,"version":"14.0b/19.0a"},{"town":"久下田西五丁目","koaza":"","lat":36.379052,"lng":139.963126,"version":"14.0b/19.0a"},{"town":"久下田西六丁目","koaza":"","lat":36.3748,"lng":139.963069,"version":"14.0b/19.0a"},{"town":"久下田西七丁目","koaza":"","lat":36.371755,"lng":139.964371,"version":"14.0b/19.0a"},{"town":"熊倉一丁目","koaza":"","lat":36.449045,"lng":139.992682,"version":"14.0b/19.0a"},{"town":"熊倉二丁目","koaza":"","lat":36.443894,"lng":139.992908,"version":"14.0b/19.0a"},{"town":"熊倉三丁目","koaza":"","lat":36.43911,"lng":139.990674,"version":"14.0b/19.0a"},{"town":"熊倉町","koaza":"","lat":36.451668,"lng":139.993803,"version":"14.0b/19.0a"},{"town":"桑ノ川","koaza":"","lat":36.38038,"lng":140.002103,"version":"14.0b/19.0a"},{"town":"小橋","koaza":"","lat":36.419103,"lng":139.980427,"version":"14.0b/19.0a"},{"town":"小林","koaza":"","lat":36.428779,"lng":140.036524,"version":"14.0b/19.0a"},{"town":"古山","koaza":"","lat":36.356475,"lng":139.943285,"version":"14.0b/19.0a"},{"town":"境","koaza":"","lat":36.354386,"lng":139.957368,"version":"14.0b/19.0a"},{"town":"さくら一丁目","koaza":"","lat":36.385979,"lng":139.967897,"version":"14.0b/19.0a"},{"town":"さくら二丁目","koaza":"","lat":36.38231,"lng":139.967969,"version":"14.0b/19.0a"},{"town":"さくら三丁目","koaza":"","lat":36.382484,"lng":139.96526,"version":"14.0b/19.0a"},{"town":"さくら四丁目","koaza":"","lat":36.386094,"lng":139.965454,"version":"14.0b/19.0a"},{"town":"道祖土","koaza":"","lat":36.411185,"lng":140.04333,"version":"14.0b/19.0a"},{"town":"鹿","koaza":"","lat":36.388758,"lng":139.995164,"version":"14.0b/19.0a"},{"town":"島","koaza":"","lat":36.434804,"lng":140.026606,"version":"14.0b/19.0a"},{"town":"清水","koaza":"","lat":36.484752,"lng":140.064439,"version":"14.0b/19.0a"},{"town":"下大曽","koaza":"","lat":36.380692,"lng":139.951656,"version":"14.0b/19.0a"},{"town":"下大田和","koaza":"","lat":36.466622,"lng":140.005412,"version":"14.0b/19.0a"},{"town":"下大沼","koaza":"","lat":36.431244,"lng":139.951857,"version":"14.0b/19.0a"},{"town":"下高間木","koaza":"","lat":36.431188,"lng":139.983759,"version":"14.0b/19.0a"},{"town":"下高間木一丁目","koaza":"","lat":36.434123,"lng":139.984703,"version":"14.0b/19.0a"},{"town":"下高間木二丁目","koaza":"","lat":36.429404,"lng":139.98666,"version":"14.0b/19.0a"},{"town":"下籠谷","koaza":"","lat":36.482789,"lng":139.979821,"version":"14.0b/19.0a"},{"town":"下鷺谷","koaza":"","lat":36.467318,"lng":139.994128,"version":"14.0b/19.0a"},{"town":"須釜","koaza":"","lat":36.419847,"lng":140.056676,"version":"14.0b/19.0a"},{"town":"反町","koaza":"","lat":36.380906,"lng":140.018656,"version":"14.0b/19.0a"},{"town":"大道泉","koaza":"","lat":36.370396,"lng":139.922614,"version":"14.0b/19.0a"},{"town":"台町","koaza":"","lat":36.438502,"lng":140.004768,"version":"14.0b/19.0a"},{"town":"高勢町一丁目","koaza":"","lat":36.436871,"lng":139.976452,"version":"14.0b/19.0a"},{"town":"高勢町二丁目","koaza":"","lat":36.433783,"lng":139.977705,"version":"14.0b/19.0a"},{"town":"高勢町三丁目","koaza":"","lat":36.428656,"lng":139.980218,"version":"14.0b/19.0a"},{"town":"高田","koaza":"","lat":36.388653,"lng":140.019441,"version":"14.0b/19.0a"},{"town":"田島","koaza":"","lat":36.464553,"lng":140.029167,"version":"14.0b/19.0a"},{"town":"田町","koaza":"","lat":36.437133,"lng":140.013765,"version":"14.0b/19.0a"},{"town":"鶴田","koaza":"","lat":36.461779,"lng":140.054121,"version":"14.0b/19.0a"},{"town":"寺内","koaza":"","lat":36.412286,"lng":139.975877,"version":"14.0b/19.0a"},{"town":"寺久保一丁目","koaza":"","lat":36.448403,"lng":140.002541,"version":"14.0b/19.0a"},{"town":"寺分","koaza":"","lat":36.428375,"lng":139.944865,"version":"14.0b/19.0a"},{"town":"東光寺一丁目","koaza":"","lat":36.441059,"lng":140.021211,"version":"14.0b/19.0a"},{"town":"東光寺二丁目","koaza":"","lat":36.444502,"lng":140.023439,"version":"14.0b/19.0a"},{"town":"東光寺三丁目","koaza":"","lat":36.442517,"lng":140.024979,"version":"14.0b/19.0a"},{"town":"中","koaza":"","lat":36.414826,"lng":139.949091,"version":"14.0b/19.0a"},{"town":"中郷","koaza":"","lat":36.454136,"lng":140.016484,"version":"14.0b/19.0a"},{"town":"長島","koaza":"","lat":36.369769,"lng":139.954523,"version":"14.0b/19.0a"},{"town":"長田","koaza":"","lat":36.444465,"lng":139.963202,"version":"14.0b/19.0a"},{"town":"長田一丁目","koaza":"","lat":36.448647,"lng":139.965472,"version":"14.0b/19.0a"},{"town":"長沼","koaza":"","lat":36.357931,"lng":139.933265,"version":"14.0b/19.0a"},{"town":"並木町一丁目","koaza":"","lat":36.440278,"lng":140.001611,"version":"14.0b/19.0a"},{"town":"並木町二丁目","koaza":"","lat":36.440639,"lng":139.996367,"version":"14.0b/19.0a"},{"town":"並木町三丁目","koaza":"","lat":36.445441,"lng":139.997621,"version":"14.0b/19.0a"},{"town":"並木町四丁目","koaza":"","lat":36.446927,"lng":140.00012,"version":"14.0b/19.0a"},{"town":"西大島","koaza":"","lat":36.355145,"lng":139.913695,"version":"14.0b/19.0a"},{"town":"西郷","koaza":"","lat":36.45697,"lng":140.006633,"version":"14.0b/19.0a"},{"town":"西高間木","koaza":"","lat":36.439227,"lng":139.980762,"version":"14.0b/19.0a"},{"town":"西田井","koaza":"","lat":36.451381,"lng":140.059924,"version":"14.0b/19.0a"},{"town":"西沼","koaza":"","lat":36.427214,"lng":140.006227,"version":"14.0b/19.0a"},{"town":"根小屋","koaza":"","lat":36.375596,"lng":140.015078,"version":"14.0b/19.0a"},{"town":"根本","koaza":"","lat":36.432917,"lng":140.055627,"version":"14.0b/19.0a"},{"town":"白布ケ丘","koaza":"","lat":36.437108,"lng":139.998909,"version":"14.0b/19.0a"},{"town":"八條","koaza":"","lat":36.451188,"lng":140.041381,"version":"14.0b/19.0a"},{"town":"原町","koaza":"","lat":36.473214,"lng":140.041072,"version":"14.0b/19.0a"},{"town":"東大島","koaza":"","lat":36.412159,"lng":140.028489,"version":"14.0b/19.0a"},{"town":"東郷","koaza":"","lat":36.450473,"lng":140.028034,"version":"14.0b/19.0a"},{"town":"東沼","koaza":"","lat":36.424308,"lng":140.016717,"version":"14.0b/19.0a"},{"town":"程島","koaza":"","lat":36.359266,"lng":139.951175,"version":"14.0b/19.0a"},{"town":"堀内","koaza":"","lat":36.474004,"lng":140.008938,"version":"14.0b/19.0a"},{"town":"堀込","koaza":"","lat":36.373771,"lng":139.932077,"version":"14.0b/19.0a"},{"town":"松山町","koaza":"","lat":36.421824,"lng":139.963707,"version":"14.0b/19.0a"},{"town":"水戸部","koaza":"","lat":36.382112,"lng":140.029234,"version":"14.0b/19.0a"},{"town":"南高岡","koaza":"","lat":36.400233,"lng":140.058396,"version":"14.0b/19.0a"},{"town":"三谷","koaza":"","lat":36.386738,"lng":140.046125,"version":"14.0b/19.0a"},{"town":"物井","koaza":"","lat":36.402657,"lng":140.005281,"version":"14.0b/19.0a"},{"town":"谷貝新田","koaza":"","lat":36.396905,"lng":139.92789,"version":"14.0b/19.0a"},{"town":"八木岡","koaza":"","lat":36.421896,"lng":139.992344,"version":"14.0b/19.0a"},{"town":"柳林","koaza":"","lat":36.451676,"lng":139.954388,"version":"14.0b/19.0a"},{"town":"横田","koaza":"","lat":36.410874,"lng":139.992718,"version":"14.0b/19.0a"},{"town":"若旅","koaza":"","lat":36.399922,"lng":139.946008,"version":"14.0b/19.0a"},{"town":"鷲巣","koaza":"","lat":36.35797,"lng":139.921687,"version":"14.0b/19.0a"},{"town":"長田三丁目","koaza":"","lat":36.440284,"lng":139.959209,"version":"14.0b/19.0a"},{"town":"長田二丁目","koaza":"","lat":36.438291,"lng":139.965472,"version":"14.0b/19.0a"},{"town":"長田五丁目","koaza":"","lat":36.435617,"lng":139.96012,"version":"14.0b/19.0a"},{"town":"長田四丁目","koaza":"","lat":36.438653,"lng":139.959478,"version":"14.0b/19.0a"},{"town":"上大沼二丁目","koaza":"","lat":36.438384,"lng":139.955357,"version":"14.0b/19.0a"},{"town":"上大沼一丁目","koaza":"","lat":36.435028,"lng":139.95546,"version":"14.0b/19.0a"},{"town":"下大沼二丁目","koaza":"","lat":36.432324,"lng":139.956267,"version":"14.0b/19.0a"},{"town":"下大沼一丁目","koaza":"","lat":36.432385,"lng":139.959105,"version":"14.0b/19.0a"},{"town":"台町","koaza":"南原","lat":36.432777,"lng":140.001612,"version":"14.0b/19.0a"},{"town":"亀山","koaza":"大野","lat":36.469281,"lng":139.96508,"version":"14.0b/19.0a"}]