[{"town":"蒼久保","koaza":"","lat":36.383098,"lng":138.285921,"version":"13.0b/18.0a"},{"town":"秋和","koaza":"","lat":36.419796,"lng":138.229906,"version":"13.0b/18.0a"},{"town":"生田","koaza":"","lat":36.359752,"lng":138.270818,"version":"13.0b/18.0a"},{"town":"岩下","koaza":"","lat":36.372526,"lng":138.283355,"version":"13.0b/18.0a"},{"town":"上田","koaza":"","lat":36.423229,"lng":138.259451,"version":"13.0b/18.0a"},{"town":"上田原","koaza":"","lat":36.389149,"lng":138.223314,"version":"13.0b/18.0a"},{"town":"上野","koaza":"","lat":36.423052,"lng":138.293933,"version":"13.0b/18.0a"},{"town":"浦野","koaza":"","lat":36.382545,"lng":138.157166,"version":"13.0b/18.0a"},{"town":"漆戸","koaza":"","lat":36.395921,"lng":138.299601,"version":"13.0b/18.0a"},{"town":"大手一丁目","koaza":"","lat":36.40067,"lng":138.249268,"version":"13.0b/18.0a"},{"town":"大手二丁目","koaza":"","lat":36.403114,"lng":138.248752,"version":"13.0b/18.0a"},{"town":"大屋","koaza":"","lat":36.371961,"lng":138.293643,"version":"13.0b/18.0a"},{"town":"岡","koaza":"","lat":36.382548,"lng":138.171206,"version":"13.0b/18.0a"},{"town":"鹿教湯温泉","koaza":"","lat":36.283624,"lng":138.101095,"version":"13.0b/18.0a"},{"town":"神畑","koaza":"","lat":36.382536,"lng":138.216234,"version":"13.0b/18.0a"},{"town":"上塩尻","koaza":"","lat":36.418874,"lng":138.215827,"version":"13.0b/18.0a"},{"town":"上武石","koaza":"","lat":36.28378,"lng":138.217912,"version":"13.0b/18.0a"},{"town":"上丸子","koaza":"","lat":36.319171,"lng":138.277385,"version":"13.0b/18.0a"},{"town":"上室賀","koaza":"","lat":36.416571,"lng":138.140623,"version":"13.0b/18.0a"},{"town":"古安曽","koaza":"","lat":36.335579,"lng":138.213636,"version":"13.0b/18.0a"},{"town":"小泉","koaza":"","lat":36.398463,"lng":138.188185,"version":"13.0b/18.0a"},{"town":"越戸","koaza":"","lat":36.364394,"lng":138.157935,"version":"13.0b/18.0a"},{"town":"五加","koaza":"","lat":36.363361,"lng":138.207847,"version":"13.0b/18.0a"},{"town":"国分","koaza":"","lat":36.381919,"lng":138.274084,"version":"13.0b/18.0a"},{"town":"国分一丁目","koaza":"","lat":36.385082,"lng":138.264734,"version":"13.0b/18.0a"},{"town":"古里","koaza":"","lat":36.394406,"lng":138.280547,"version":"13.0b/18.0a"},{"town":"腰越","koaza":"","lat":36.302031,"lng":138.26903,"version":"13.0b/18.0a"},{"town":"小島","koaza":"","lat":36.375143,"lng":138.207158,"version":"13.0b/18.0a"},{"town":"御所","koaza":"","lat":36.389806,"lng":138.235462,"version":"13.0b/18.0a"},{"town":"小牧","koaza":"","lat":36.37853,"lng":138.25595,"version":"13.0b/18.0a"},{"town":"材木町一丁目","koaza":"","lat":36.398825,"lng":138.261938,"version":"13.0b/18.0a"},{"town":"材木町二丁目","koaza":"","lat":36.397271,"lng":138.266277,"version":"13.0b/18.0a"},{"town":"真田町長","koaza":"","lat":36.492018,"lng":138.374519,"version":"13.0b/18.0a"},{"town":"真田町傍陽","koaza":"","lat":36.488627,"lng":138.281541,"version":"13.0b/18.0a"},{"town":"真田町本原","koaza":"","lat":36.428513,"lng":138.340888,"version":"13.0b/18.0a"},{"town":"塩川","koaza":"","lat":36.349106,"lng":138.30608,"version":"13.0b/18.0a"},{"town":"下塩尻","koaza":"","lat":36.418269,"lng":138.20172,"version":"13.0b/18.0a"},{"town":"下武石","koaza":"","lat":36.286594,"lng":138.239083,"version":"13.0b/18.0a"},{"town":"下之郷","koaza":"","lat":36.366431,"lng":138.233251,"version":"13.0b/18.0a"},{"town":"下之条","koaza":"","lat":36.402084,"lng":138.214971,"version":"13.0b/18.0a"},{"town":"下丸子","koaza":"","lat":36.334719,"lng":138.287946,"version":"13.0b/18.0a"},{"town":"下室賀","koaza":"","lat":36.401858,"lng":138.169839,"version":"13.0b/18.0a"},{"town":"十人","koaza":"","lat":36.355371,"lng":138.194074,"version":"13.0b/18.0a"},{"town":"新町","koaza":"","lat":36.353414,"lng":138.187292,"version":"13.0b/18.0a"},{"town":"菅平高原","koaza":"","lat":36.523527,"lng":138.33082,"version":"13.0b/18.0a"},{"town":"住吉","koaza":"","lat":36.421353,"lng":138.280062,"version":"13.0b/18.0a"},{"town":"諏訪形","koaza":"","lat":36.380535,"lng":138.239824,"version":"13.0b/18.0a"},{"town":"武石沖","koaza":"","lat":36.295105,"lng":138.249304,"version":"13.0b/18.0a"},{"town":"武石小沢根","koaza":"","lat":36.248895,"lng":138.197483,"version":"13.0b/18.0a"},{"town":"武石上本入","koaza":"","lat":36.252778,"lng":138.123568,"version":"13.0b/18.0a"},{"town":"武石下本入","koaza":"","lat":36.256322,"lng":138.18261,"version":"13.0b/18.0a"},{"town":"武石鳥屋","koaza":"","lat":36.298824,"lng":138.236503,"version":"13.0b/18.0a"},{"town":"武石余里","koaza":"","lat":36.24891,"lng":138.220221,"version":"13.0b/18.0a"},{"town":"中央一丁目","koaza":"","lat":36.397645,"lng":138.252201,"version":"13.0b/18.0a"},{"town":"中央二丁目","koaza":"","lat":36.399528,"lng":138.255489,"version":"13.0b/18.0a"},{"town":"中央三丁目","koaza":"","lat":36.402401,"lng":138.2541,"version":"13.0b/18.0a"},{"town":"中央四丁目","koaza":"","lat":36.405366,"lng":138.251927,"version":"13.0b/18.0a"},{"town":"中央五丁目","koaza":"","lat":36.405447,"lng":138.257158,"version":"13.0b/18.0a"},{"town":"中央六丁目","koaza":"","lat":36.402138,"lng":138.259197,"version":"13.0b/18.0a"},{"town":"中央北一丁目","koaza":"","lat":36.40888,"lng":138.256481,"version":"13.0b/18.0a"},{"town":"中央北二丁目","koaza":"","lat":36.40951,"lng":138.253174,"version":"13.0b/18.0a"},{"town":"中央北三丁目","koaza":"","lat":36.414078,"lng":138.254325,"version":"13.0b/18.0a"},{"town":"中央西一丁目","koaza":"","lat":36.406444,"lng":138.24704,"version":"13.0b/18.0a"},{"town":"中央西二丁目","koaza":"","lat":36.409379,"lng":138.247665,"version":"13.0b/18.0a"},{"town":"中央東","koaza":"","lat":36.404397,"lng":138.262682,"version":"13.0b/18.0a"},{"town":"築地","koaza":"","lat":36.396692,"lng":138.20576,"version":"13.0b/18.0a"},{"town":"手塚","koaza":"","lat":36.342952,"lng":138.17672,"version":"13.0b/18.0a"},{"town":"天神一丁目","koaza":"","lat":36.397002,"lng":138.250006,"version":"13.0b/18.0a"},{"town":"天神二丁目","koaza":"","lat":36.40117,"lng":138.245163,"version":"13.0b/18.0a"},{"town":"天神三丁目","koaza":"","lat":36.400319,"lng":138.241204,"version":"13.0b/18.0a"},{"town":"天神四丁目","koaza":"","lat":36.395935,"lng":138.247319,"version":"13.0b/18.0a"},{"town":"常入","koaza":"","lat":36.390203,"lng":138.254004,"version":"13.0b/18.0a"},{"town":"常入一丁目","koaza":"","lat":36.390211,"lng":138.26948,"version":"13.0b/18.0a"},{"town":"常田一丁目","koaza":"","lat":36.392941,"lng":138.25416,"version":"13.0b/18.0a"},{"town":"常田二丁目","koaza":"","lat":36.394562,"lng":138.257027,"version":"13.0b/18.0a"},{"town":"常田三丁目","koaza":"","lat":36.394116,"lng":138.262845,"version":"13.0b/18.0a"},{"town":"常磐城","koaza":"","lat":36.424689,"lng":138.24424,"version":"13.0b/18.0a"},{"town":"常磐城一丁目","koaza":"","lat":36.405882,"lng":138.241252,"version":"13.0b/18.0a"},{"town":"常磐城二丁目","koaza":"","lat":36.406633,"lng":138.239387,"version":"13.0b/18.0a"},{"town":"常磐城三丁目","koaza":"","lat":36.40563,"lng":138.236107,"version":"13.0b/18.0a"},{"town":"常磐城四丁目","koaza":"","lat":36.410818,"lng":138.236708,"version":"13.0b/18.0a"},{"town":"常磐城五丁目","koaza":"","lat":36.4107,"lng":138.241595,"version":"13.0b/18.0a"},{"town":"常磐城六丁目","koaza":"","lat":36.414949,"lng":138.238903,"version":"13.0b/18.0a"},{"town":"殿城","koaza":"","lat":36.413484,"lng":138.323891,"version":"13.0b/18.0a"},{"town":"長瀬","koaza":"","lat":36.350333,"lng":138.285794,"version":"13.0b/18.0a"},{"town":"中野","koaza":"","lat":36.363408,"lng":138.194128,"version":"13.0b/18.0a"},{"town":"中之条","koaza":"","lat":36.397612,"lng":138.227603,"version":"13.0b/18.0a"},{"town":"中丸子","koaza":"","lat":36.330527,"lng":138.280893,"version":"13.0b/18.0a"},{"town":"仁古田","koaza":"","lat":36.374012,"lng":138.175419,"version":"13.0b/18.0a"},{"town":"西内","koaza":"","lat":36.310012,"lng":138.120652,"version":"13.0b/18.0a"},{"town":"二の丸","koaza":"","lat":36.404177,"lng":138.244677,"version":"13.0b/18.0a"},{"town":"野倉","koaza":"","lat":36.326748,"lng":138.143812,"version":"13.0b/18.0a"},{"town":"林之郷","koaza":"","lat":36.392827,"lng":138.294246,"version":"13.0b/18.0a"},{"town":"東内","koaza":"","lat":36.307013,"lng":138.219314,"version":"13.0b/18.0a"},{"town":"平井","koaza":"","lat":36.297107,"lng":138.17549,"version":"13.0b/18.0a"},{"town":"福田","koaza":"","lat":36.384596,"lng":138.203384,"version":"13.0b/18.0a"},{"town":"富士山","koaza":"","lat":36.341773,"lng":138.238494,"version":"13.0b/18.0a"},{"town":"藤原田","koaza":"","lat":36.329066,"lng":138.305517,"version":"13.0b/18.0a"},{"town":"踏入一丁目","koaza":"","lat":36.38803,"lng":138.259667,"version":"13.0b/18.0a"},{"town":"踏入二丁目","koaza":"","lat":36.389062,"lng":138.262954,"version":"13.0b/18.0a"},{"town":"別所温泉","koaza":"","lat":36.347558,"lng":138.146506,"version":"13.0b/18.0a"},{"town":"保野","koaza":"","lat":36.37487,"lng":138.196131,"version":"13.0b/18.0a"},{"town":"本郷","koaza":"","lat":36.366781,"lng":138.202194,"version":"13.0b/18.0a"},{"town":"舞田","koaza":"","lat":36.365131,"lng":138.184839,"version":"13.0b/18.0a"},{"town":"前山","koaza":"","lat":36.332434,"lng":138.190245,"version":"13.0b/18.0a"},{"town":"御嶽堂","koaza":"","lat":36.335672,"lng":138.25713,"version":"13.0b/18.0a"},{"town":"緑が丘一丁目","koaza":"","lat":36.412141,"lng":138.248606,"version":"13.0b/18.0a"},{"town":"緑が丘二丁目","koaza":"","lat":36.414877,"lng":138.248657,"version":"13.0b/18.0a"},{"town":"緑が丘三丁目","koaza":"","lat":36.414967,"lng":138.243625,"version":"13.0b/18.0a"},{"town":"本海野","koaza":"","lat":36.358871,"lng":138.316579,"version":"13.0b/18.0a"},{"town":"八木沢","koaza":"","lat":36.360336,"lng":138.175068,"version":"13.0b/18.0a"},{"town":"山田","koaza":"","lat":36.347653,"lng":138.168509,"version":"13.0b/18.0a"},{"town":"吉田","koaza":"","lat":36.384902,"lng":138.198189,"version":"13.0b/18.0a"},{"town":"芳田","koaza":"","lat":36.391356,"lng":138.309258,"version":"13.0b/18.0a"},{"town":"小泉","koaza":"地ノ目","lat":36.384934,"lng":138.191332,"version":"13.0b/18.0a"},{"town":"小泉","koaza":"塩田川原","lat":36.407222,"lng":138.205036,"version":"13.0b/18.0a"},{"town":"福田","koaza":"下田","lat":36.388484,"lng":138.207622,"version":"13.0b/18.0a"},{"town":"小島","koaza":"下小島","lat":36.382526,"lng":138.210788,"version":"13.0b/18.0a"},{"town":"神畑","koaza":"宮下","lat":36.389887,"lng":138.213593,"version":"13.0b/18.0a"},{"town":"上田原","koaza":"中原","lat":36.386975,"lng":138.224459,"version":"13.0b/18.0a"},{"town":"秋和","koaza":"五里堂","lat":36.410281,"lng":138.227157,"version":"13.0b/18.0a"},{"town":"中之条","koaza":"宮方","lat":36.398626,"lng":138.229283,"version":"13.0b/18.0a"},{"town":"御所","koaza":"番外","lat":36.396989,"lng":138.238487,"version":"13.0b/18.0a"},{"town":"上田","koaza":"山口","lat":36.419442,"lng":138.265407,"version":"13.0b/18.0a"},{"town":"上田","koaza":"蛇沢","lat":36.409298,"lng":138.26774,"version":"13.0b/18.0a"},{"town":"古里","koaza":"大畑","lat":36.400725,"lng":138.274651,"version":"13.0b/18.0a"},{"town":"古里","koaza":"天笠","lat":36.401049,"lng":138.277438,"version":"13.0b/18.0a"},{"town":"芳田","koaza":"大日ノ木","lat":36.39746,"lng":138.310423,"version":"13.0b/18.0a"},{"town":"蒼久保","koaza":"大河原","lat":36.377608,"lng":138.279358,"version":"13.0b/18.0a"},{"town":"蒼久保","koaza":"","lat":36.383098,"lng":138.285921,"version":"14.0b/19.0a"},{"town":"秋和","koaza":"","lat":36.419796,"lng":138.229906,"version":"14.0b/19.0a"},{"town":"生田","koaza":"","lat":36.359752,"lng":138.270818,"version":"14.0b/19.0a"},{"town":"岩下","koaza":"","lat":36.372526,"lng":138.283355,"version":"14.0b/19.0a"},{"town":"上田","koaza":"","lat":36.423229,"lng":138.259451,"version":"14.0b/19.0a"},{"town":"上田原","koaza":"","lat":36.389149,"lng":138.223314,"version":"14.0b/19.0a"},{"town":"上野","koaza":"","lat":36.423052,"lng":138.293933,"version":"14.0b/19.0a"},{"town":"浦野","koaza":"","lat":36.382545,"lng":138.157166,"version":"14.0b/19.0a"},{"town":"漆戸","koaza":"","lat":36.395921,"lng":138.299601,"version":"14.0b/19.0a"},{"town":"大手一丁目","koaza":"","lat":36.40067,"lng":138.249268,"version":"14.0b/19.0a"},{"town":"大手二丁目","koaza":"","lat":36.403114,"lng":138.248752,"version":"14.0b/19.0a"},{"town":"大屋","koaza":"","lat":36.371961,"lng":138.293643,"version":"14.0b/19.0a"},{"town":"岡","koaza":"","lat":36.382548,"lng":138.171206,"version":"14.0b/19.0a"},{"town":"鹿教湯温泉","koaza":"","lat":36.283624,"lng":138.101095,"version":"14.0b/19.0a"},{"town":"神畑","koaza":"","lat":36.382536,"lng":138.216234,"version":"14.0b/19.0a"},{"town":"上塩尻","koaza":"","lat":36.418874,"lng":138.215827,"version":"14.0b/19.0a"},{"town":"上武石","koaza":"","lat":36.28378,"lng":138.217912,"version":"14.0b/19.0a"},{"town":"上丸子","koaza":"","lat":36.319171,"lng":138.277385,"version":"14.0b/19.0a"},{"town":"上室賀","koaza":"","lat":36.416571,"lng":138.140623,"version":"14.0b/19.0a"},{"town":"古安曽","koaza":"","lat":36.335579,"lng":138.213636,"version":"14.0b/19.0a"},{"town":"小泉","koaza":"","lat":36.398463,"lng":138.188185,"version":"14.0b/19.0a"},{"town":"越戸","koaza":"","lat":36.364394,"lng":138.157935,"version":"14.0b/19.0a"},{"town":"五加","koaza":"","lat":36.363361,"lng":138.207847,"version":"14.0b/19.0a"},{"town":"国分","koaza":"","lat":36.381919,"lng":138.274084,"version":"14.0b/19.0a"},{"town":"国分一丁目","koaza":"","lat":36.385082,"lng":138.264734,"version":"14.0b/19.0a"},{"town":"古里","koaza":"","lat":36.394406,"lng":138.280547,"version":"14.0b/19.0a"},{"town":"腰越","koaza":"","lat":36.302031,"lng":138.26903,"version":"14.0b/19.0a"},{"town":"小島","koaza":"","lat":36.375143,"lng":138.207158,"version":"14.0b/19.0a"},{"town":"御所","koaza":"","lat":36.389806,"lng":138.235462,"version":"14.0b/19.0a"},{"town":"小牧","koaza":"","lat":36.37853,"lng":138.25595,"version":"14.0b/19.0a"},{"town":"材木町一丁目","koaza":"","lat":36.398825,"lng":138.261938,"version":"14.0b/19.0a"},{"town":"材木町二丁目","koaza":"","lat":36.397271,"lng":138.266277,"version":"14.0b/19.0a"},{"town":"真田町長","koaza":"","lat":36.492018,"lng":138.374519,"version":"14.0b/19.0a"},{"town":"真田町傍陽","koaza":"","lat":36.488627,"lng":138.281541,"version":"14.0b/19.0a"},{"town":"真田町本原","koaza":"","lat":36.428513,"lng":138.340888,"version":"14.0b/19.0a"},{"town":"塩川","koaza":"","lat":36.349106,"lng":138.30608,"version":"14.0b/19.0a"},{"town":"下塩尻","koaza":"","lat":36.418269,"lng":138.20172,"version":"14.0b/19.0a"},{"town":"下武石","koaza":"","lat":36.286594,"lng":138.239083,"version":"14.0b/19.0a"},{"town":"下之郷","koaza":"","lat":36.366431,"lng":138.233251,"version":"14.0b/19.0a"},{"town":"下之条","koaza":"","lat":36.402084,"lng":138.214971,"version":"14.0b/19.0a"},{"town":"下丸子","koaza":"","lat":36.334719,"lng":138.287946,"version":"14.0b/19.0a"},{"town":"下室賀","koaza":"","lat":36.401858,"lng":138.169839,"version":"14.0b/19.0a"},{"town":"十人","koaza":"","lat":36.355371,"lng":138.194074,"version":"14.0b/19.0a"},{"town":"新町","koaza":"","lat":36.353414,"lng":138.187292,"version":"14.0b/19.0a"},{"town":"菅平高原","koaza":"","lat":36.523527,"lng":138.33082,"version":"14.0b/19.0a"},{"town":"住吉","koaza":"","lat":36.421353,"lng":138.280062,"version":"14.0b/19.0a"},{"town":"諏訪形","koaza":"","lat":36.380535,"lng":138.239824,"version":"14.0b/19.0a"},{"town":"武石沖","koaza":"","lat":36.295105,"lng":138.249304,"version":"14.0b/19.0a"},{"town":"武石小沢根","koaza":"","lat":36.248895,"lng":138.197483,"version":"14.0b/19.0a"},{"town":"武石上本入","koaza":"","lat":36.252778,"lng":138.123568,"version":"14.0b/19.0a"},{"town":"武石下本入","koaza":"","lat":36.256322,"lng":138.18261,"version":"14.0b/19.0a"},{"town":"武石鳥屋","koaza":"","lat":36.298824,"lng":138.236503,"version":"14.0b/19.0a"},{"town":"武石余里","koaza":"","lat":36.24891,"lng":138.220221,"version":"14.0b/19.0a"},{"town":"中央一丁目","koaza":"","lat":36.397645,"lng":138.252201,"version":"14.0b/19.0a"},{"town":"中央二丁目","koaza":"","lat":36.399528,"lng":138.255489,"version":"14.0b/19.0a"},{"town":"中央三丁目","koaza":"","lat":36.402401,"lng":138.2541,"version":"14.0b/19.0a"},{"town":"中央四丁目","koaza":"","lat":36.405366,"lng":138.251927,"version":"14.0b/19.0a"},{"town":"中央五丁目","koaza":"","lat":36.405447,"lng":138.257158,"version":"14.0b/19.0a"},{"town":"中央六丁目","koaza":"","lat":36.402138,"lng":138.259197,"version":"14.0b/19.0a"},{"town":"中央北一丁目","koaza":"","lat":36.40888,"lng":138.256481,"version":"14.0b/19.0a"},{"town":"中央北二丁目","koaza":"","lat":36.40951,"lng":138.253174,"version":"14.0b/19.0a"},{"town":"中央北三丁目","koaza":"","lat":36.414078,"lng":138.254325,"version":"14.0b/19.0a"},{"town":"中央西一丁目","koaza":"","lat":36.406444,"lng":138.24704,"version":"14.0b/19.0a"},{"town":"中央西二丁目","koaza":"","lat":36.409379,"lng":138.247665,"version":"14.0b/19.0a"},{"town":"中央東","koaza":"","lat":36.404397,"lng":138.262682,"version":"14.0b/19.0a"},{"town":"築地","koaza":"","lat":36.396692,"lng":138.20576,"version":"14.0b/19.0a"},{"town":"手塚","koaza":"","lat":36.342952,"lng":138.17672,"version":"14.0b/19.0a"},{"town":"天神一丁目","koaza":"","lat":36.397002,"lng":138.250006,"version":"14.0b/19.0a"},{"town":"天神二丁目","koaza":"","lat":36.40117,"lng":138.245163,"version":"14.0b/19.0a"},{"town":"天神三丁目","koaza":"","lat":36.400319,"lng":138.241204,"version":"14.0b/19.0a"},{"town":"天神四丁目","koaza":"","lat":36.395935,"lng":138.247319,"version":"14.0b/19.0a"},{"town":"常入","koaza":"","lat":36.390203,"lng":138.254004,"version":"14.0b/19.0a"},{"town":"常入一丁目","koaza":"","lat":36.390211,"lng":138.26948,"version":"14.0b/19.0a"},{"town":"常田一丁目","koaza":"","lat":36.392941,"lng":138.25416,"version":"14.0b/19.0a"},{"town":"常田二丁目","koaza":"","lat":36.394562,"lng":138.257027,"version":"14.0b/19.0a"},{"town":"常田三丁目","koaza":"","lat":36.394116,"lng":138.262845,"version":"14.0b/19.0a"},{"town":"常磐城","koaza":"","lat":36.424689,"lng":138.24424,"version":"14.0b/19.0a"},{"town":"常磐城一丁目","koaza":"","lat":36.405882,"lng":138.241252,"version":"14.0b/19.0a"},{"town":"常磐城二丁目","koaza":"","lat":36.406633,"lng":138.239387,"version":"14.0b/19.0a"},{"town":"常磐城三丁目","koaza":"","lat":36.40563,"lng":138.236107,"version":"14.0b/19.0a"},{"town":"常磐城四丁目","koaza":"","lat":36.410818,"lng":138.236708,"version":"14.0b/19.0a"},{"town":"常磐城五丁目","koaza":"","lat":36.4107,"lng":138.241595,"version":"14.0b/19.0a"},{"town":"常磐城六丁目","koaza":"","lat":36.414949,"lng":138.238903,"version":"14.0b/19.0a"},{"town":"殿城","koaza":"","lat":36.413484,"lng":138.323891,"version":"14.0b/19.0a"},{"town":"長瀬","koaza":"","lat":36.350333,"lng":138.285794,"version":"14.0b/19.0a"},{"town":"中野","koaza":"","lat":36.363408,"lng":138.194128,"version":"14.0b/19.0a"},{"town":"中之条","koaza":"","lat":36.397612,"lng":138.227603,"version":"14.0b/19.0a"},{"town":"中丸子","koaza":"","lat":36.330527,"lng":138.280893,"version":"14.0b/19.0a"},{"town":"仁古田","koaza":"","lat":36.374012,"lng":138.175419,"version":"14.0b/19.0a"},{"town":"西内","koaza":"","lat":36.310012,"lng":138.120652,"version":"14.0b/19.0a"},{"town":"二の丸","koaza":"","lat":36.404177,"lng":138.244677,"version":"14.0b/19.0a"},{"town":"野倉","koaza":"","lat":36.326748,"lng":138.143812,"version":"14.0b/19.0a"},{"town":"林之郷","koaza":"","lat":36.392827,"lng":138.294246,"version":"14.0b/19.0a"},{"town":"東内","koaza":"","lat":36.307013,"lng":138.219314,"version":"14.0b/19.0a"},{"town":"平井","koaza":"","lat":36.297107,"lng":138.17549,"version":"14.0b/19.0a"},{"town":"福田","koaza":"","lat":36.384596,"lng":138.203384,"version":"14.0b/19.0a"},{"town":"富士山","koaza":"","lat":36.341773,"lng":138.238494,"version":"14.0b/19.0a"},{"town":"藤原田","koaza":"","lat":36.329066,"lng":138.305517,"version":"14.0b/19.0a"},{"town":"踏入一丁目","koaza":"","lat":36.38803,"lng":138.259667,"version":"14.0b/19.0a"},{"town":"踏入二丁目","koaza":"","lat":36.389062,"lng":138.262954,"version":"14.0b/19.0a"},{"town":"別所温泉","koaza":"","lat":36.347558,"lng":138.146506,"version":"14.0b/19.0a"},{"town":"保野","koaza":"","lat":36.37487,"lng":138.196131,"version":"14.0b/19.0a"},{"town":"本郷","koaza":"","lat":36.366781,"lng":138.202194,"version":"14.0b/19.0a"},{"town":"舞田","koaza":"","lat":36.365131,"lng":138.184839,"version":"14.0b/19.0a"},{"town":"前山","koaza":"","lat":36.332434,"lng":138.190245,"version":"14.0b/19.0a"},{"town":"御嶽堂","koaza":"","lat":36.335672,"lng":138.25713,"version":"14.0b/19.0a"},{"town":"緑が丘一丁目","koaza":"","lat":36.412141,"lng":138.248606,"version":"14.0b/19.0a"},{"town":"緑が丘二丁目","koaza":"","lat":36.414877,"lng":138.248657,"version":"14.0b/19.0a"},{"town":"緑が丘三丁目","koaza":"","lat":36.414967,"lng":138.243625,"version":"14.0b/19.0a"},{"town":"本海野","koaza":"","lat":36.358871,"lng":138.316579,"version":"14.0b/19.0a"},{"town":"八木沢","koaza":"","lat":36.360336,"lng":138.175068,"version":"14.0b/19.0a"},{"town":"山田","koaza":"","lat":36.347653,"lng":138.168509,"version":"14.0b/19.0a"},{"town":"吉田","koaza":"","lat":36.384902,"lng":138.198189,"version":"14.0b/19.0a"},{"town":"芳田","koaza":"","lat":36.391356,"lng":138.309258,"version":"14.0b/19.0a"},{"town":"小泉","koaza":"地ノ目","lat":36.384934,"lng":138.191332,"version":"14.0b/19.0a"},{"town":"小泉","koaza":"塩田川原","lat":36.407222,"lng":138.205036,"version":"14.0b/19.0a"},{"town":"福田","koaza":"下田","lat":36.388484,"lng":138.207622,"version":"14.0b/19.0a"},{"town":"小島","koaza":"下小島","lat":36.382526,"lng":138.210788,"version":"14.0b/19.0a"},{"town":"神畑","koaza":"宮下","lat":36.389887,"lng":138.213593,"version":"14.0b/19.0a"},{"town":"上田原","koaza":"中原","lat":36.386975,"lng":138.224459,"version":"14.0b/19.0a"},{"town":"秋和","koaza":"五里堂","lat":36.410281,"lng":138.227157,"version":"14.0b/19.0a"},{"town":"中之条","koaza":"宮方","lat":36.398626,"lng":138.229283,"version":"14.0b/19.0a"},{"town":"御所","koaza":"番外","lat":36.396989,"lng":138.238487,"version":"14.0b/19.0a"},{"town":"上田","koaza":"山口","lat":36.419442,"lng":138.265407,"version":"14.0b/19.0a"},{"town":"上田","koaza":"蛇沢","lat":36.409298,"lng":138.26774,"version":"14.0b/19.0a"},{"town":"古里","koaza":"大畑","lat":36.400725,"lng":138.274651,"version":"14.0b/19.0a"},{"town":"古里","koaza":"天笠","lat":36.401049,"lng":138.277438,"version":"14.0b/19.0a"},{"town":"芳田","koaza":"大日ノ木","lat":36.39746,"lng":138.310423,"version":"14.0b/19.0a"},{"town":"蒼久保","koaza":"大河原","lat":36.377608,"lng":138.279358,"version":"14.0b/19.0a"}]