[{"town":"大字芦田","koaza":"","lat":36.236881,"lng":138.299684,"version":"13.0b/18.0a"},{"town":"大字芦田八ケ野","koaza":"","lat":36.13233,"lng":138.278302,"version":"13.0b/18.0a"},{"town":"大字牛鹿","koaza":"","lat":36.305595,"lng":138.294422,"version":"13.0b/18.0a"},{"town":"大字宇山","koaza":"","lat":36.27862,"lng":138.290507,"version":"13.0b/18.0a"},{"town":"大字桐原","koaza":"","lat":36.297479,"lng":138.315659,"version":"13.0b/18.0a"},{"town":"大字塩沢","koaza":"","lat":36.293302,"lng":138.331845,"version":"13.0b/18.0a"},{"town":"大字藤沢","koaza":"","lat":36.307255,"lng":138.330404,"version":"13.0b/18.0a"},{"town":"大字茂田井","koaza":"","lat":36.261872,"lng":138.326809,"version":"13.0b/18.0a"},{"town":"大字山部","koaza":"","lat":36.284,"lng":138.303442,"version":"13.0b/18.0a"},{"town":"大字芦田","koaza":"","lat":36.236881,"lng":138.299684,"version":"14.0b/19.0a"},{"town":"大字芦田八ケ野","koaza":"","lat":36.13233,"lng":138.278302,"version":"14.0b/19.0a"},{"town":"大字牛鹿","koaza":"","lat":36.305595,"lng":138.294422,"version":"14.0b/19.0a"},{"town":"大字宇山","koaza":"","lat":36.27862,"lng":138.290507,"version":"14.0b/19.0a"},{"town":"大字桐原","koaza":"","lat":36.297479,"lng":138.315659,"version":"14.0b/19.0a"},{"town":"大字塩沢","koaza":"","lat":36.293302,"lng":138.331845,"version":"14.0b/19.0a"},{"town":"大字藤沢","koaza":"","lat":36.307255,"lng":138.330404,"version":"14.0b/19.0a"},{"town":"大字茂田井","koaza":"","lat":36.261872,"lng":138.326809,"version":"14.0b/19.0a"},{"town":"大字山部","koaza":"","lat":36.284,"lng":138.303442,"version":"14.0b/19.0a"}]