[{"town":"大字会染","koaza":"","lat":36.404205,"lng":137.887261,"version":"13.0b/18.0a"},{"town":"大字池田","koaza":"","lat":36.440165,"lng":137.889128,"version":"13.0b/18.0a"},{"town":"大字中鵜","koaza":"","lat":36.374988,"lng":137.896517,"version":"13.0b/18.0a"},{"town":"大字広津","koaza":"","lat":36.453702,"lng":137.912671,"version":"13.0b/18.0a"},{"town":"大字陸郷","koaza":"","lat":36.411376,"lng":137.9095,"version":"13.0b/18.0a"},{"town":"大字会染","koaza":"","lat":36.404205,"lng":137.887261,"version":"14.0b/19.0a"},{"town":"大字池田","koaza":"","lat":36.440165,"lng":137.889128,"version":"14.0b/19.0a"},{"town":"大字中鵜","koaza":"","lat":36.374988,"lng":137.896517,"version":"14.0b/19.0a"},{"town":"大字広津","koaza":"","lat":36.453702,"lng":137.912671,"version":"14.0b/19.0a"},{"town":"大字陸郷","koaza":"","lat":36.411376,"lng":137.9095,"version":"14.0b/19.0a"}]