[{"town":"鳥居峠","koaza":"","lat":36.039919,"lng":138.49411,"version":"13.0b/18.0a"},{"town":"上軽井沢","koaza":"","lat":36.045364,"lng":138.492426,"version":"13.0b/18.0a"},{"town":"中軽井沢","koaza":"","lat":36.048278,"lng":138.492842,"version":"13.0b/18.0a"},{"town":"大ヒラ","koaza":"","lat":36.044702,"lng":138.495775,"version":"13.0b/18.0a"},{"town":"舟窪","koaza":"","lat":36.043566,"lng":138.498955,"version":"13.0b/18.0a"},{"town":"道陸神","koaza":"","lat":36.049622,"lng":138.494867,"version":"13.0b/18.0a"},{"town":"よしくろ","koaza":"","lat":36.05106,"lng":138.498151,"version":"13.0b/18.0a"},{"town":"本沢下","koaza":"","lat":36.052717,"lng":138.4981,"version":"13.0b/18.0a"},{"town":"本沢","koaza":"","lat":36.053948,"lng":138.498377,"version":"13.0b/18.0a"},{"town":"長張","koaza":"","lat":36.047066,"lng":138.50237,"version":"13.0b/18.0a"},{"town":"南沢下","koaza":"","lat":36.053277,"lng":138.502227,"version":"13.0b/18.0a"},{"town":"中沢下","koaza":"","lat":36.055061,"lng":138.504075,"version":"13.0b/18.0a"},{"town":"軽井沢","koaza":"","lat":36.057472,"lng":138.504654,"version":"13.0b/18.0a"},{"town":"川俣","koaza":"","lat":36.056315,"lng":138.507065,"version":"13.0b/18.0a"},{"town":"三尺","koaza":"","lat":36.052458,"lng":138.504365,"version":"13.0b/18.0a"},{"town":"あめご","koaza":"","lat":36.052377,"lng":138.506518,"version":"13.0b/18.0a"},{"town":"酒舟","koaza":"","lat":36.055688,"lng":138.510071,"version":"13.0b/18.0a"},{"town":"いほり沢","koaza":"","lat":36.052313,"lng":138.51118,"version":"13.0b/18.0a"},{"town":"りうしん","koaza":"","lat":36.052281,"lng":138.509733,"version":"13.0b/18.0a"},{"town":"花田","koaza":"","lat":36.051075,"lng":138.508319,"version":"13.0b/18.0a"},{"town":"越道","koaza":"","lat":36.048568,"lng":138.504927,"version":"13.0b/18.0a"},{"town":"越道坂","koaza":"","lat":36.048487,"lng":138.507001,"version":"13.0b/18.0a"},{"town":"赤そう","koaza":"","lat":36.046398,"lng":138.50594,"version":"13.0b/18.0a"},{"town":"栃山","koaza":"","lat":36.042605,"lng":138.50766,"version":"13.0b/18.0a"},{"town":"芦の窪","koaza":"","lat":36.042476,"lng":138.513173,"version":"13.0b/18.0a"},{"town":"小松平","koaza":"","lat":36.038715,"lng":138.513398,"version":"13.0b/18.0a"},{"town":"九蔵畑","koaza":"","lat":36.046671,"lng":138.51163,"version":"13.0b/18.0a"},{"town":"番匠田","koaza":"","lat":36.046655,"lng":138.509428,"version":"13.0b/18.0a"},{"town":"風石","koaza":"","lat":36.048728,"lng":138.509621,"version":"13.0b/18.0a"},{"town":"風石坂向","koaza":"","lat":36.050384,"lng":138.51126,"version":"13.0b/18.0a"},{"town":"風石坂","koaza":"","lat":36.050609,"lng":138.514073,"version":"13.0b/18.0a"},{"town":"倉沢","koaza":"","lat":36.047137,"lng":138.5156,"version":"13.0b/18.0a"},{"town":"清水窪","koaza":"","lat":36.056326,"lng":138.511374,"version":"13.0b/18.0a"},{"town":"清水","koaza":"","lat":36.056694,"lng":138.513477,"version":"13.0b/18.0a"},{"town":"土岩向","koaza":"","lat":36.051916,"lng":138.516972,"version":"13.0b/18.0a"},{"town":"蟹沢","koaza":"","lat":36.052203,"lng":138.518132,"version":"13.0b/18.0a"},{"town":"上野坂","koaza":"","lat":36.053131,"lng":138.517641,"version":"13.0b/18.0a"},{"town":"中平","koaza":"","lat":36.053595,"lng":138.514064,"version":"13.0b/18.0a"},{"town":"西上野","koaza":"","lat":36.054565,"lng":138.514364,"version":"13.0b/18.0a"},{"town":"東上野","koaza":"","lat":36.054155,"lng":138.518255,"version":"13.0b/18.0a"},{"town":"板鳥畑","koaza":"","lat":36.055479,"lng":138.515279,"version":"13.0b/18.0a"},{"town":"神宿","koaza":"","lat":36.056012,"lng":138.5182,"version":"13.0b/18.0a"},{"town":"住宿","koaza":"","lat":36.052858,"lng":138.519238,"version":"13.0b/18.0a"},{"town":"宮の上","koaza":"","lat":36.052694,"lng":138.5222,"version":"13.0b/18.0a"},{"town":"宮の西","koaza":"","lat":36.051739,"lng":138.519743,"version":"13.0b/18.0a"},{"town":"宮の向","koaza":"","lat":36.050824,"lng":138.520248,"version":"13.0b/18.0a"},{"town":"宮本","koaza":"","lat":36.051275,"lng":138.521668,"version":"13.0b/18.0a"},{"town":"宮の東","koaza":"","lat":36.051234,"lng":138.524002,"version":"13.0b/18.0a"},{"town":"城窪","koaza":"","lat":36.053595,"lng":138.524166,"version":"13.0b/18.0a"},{"town":"大星","koaza":"","lat":36.053254,"lng":138.526624,"version":"13.0b/18.0a"},{"town":"はりの木平","koaza":"","lat":36.049322,"lng":138.518487,"version":"13.0b/18.0a"},{"town":"とどめき","koaza":"","lat":36.048257,"lng":138.521668,"version":"13.0b/18.0a"},{"town":"前田","koaza":"","lat":36.05051,"lng":138.52246,"version":"13.0b/18.0a"},{"town":"はっぷり","koaza":"","lat":36.051493,"lng":138.525313,"version":"13.0b/18.0a"},{"town":"御屋敷","koaza":"","lat":36.05092,"lng":138.526569,"version":"13.0b/18.0a"},{"town":"つく似","koaza":"","lat":36.052517,"lng":138.528931,"version":"13.0b/18.0a"},{"town":"横吹","koaza":"","lat":36.050182,"lng":138.527402,"version":"13.0b/18.0a"},{"town":"まと場","koaza":"","lat":36.049786,"lng":138.52605,"version":"13.0b/18.0a"},{"town":"古宿","koaza":"","lat":36.048776,"lng":138.526119,"version":"13.0b/18.0a"},{"town":"小平牧場","koaza":"","lat":36.047902,"lng":138.524385,"version":"13.0b/18.0a"},{"town":"うば小屋","koaza":"","lat":36.047684,"lng":138.526583,"version":"13.0b/18.0a"},{"town":"大畑舟打沢","koaza":"","lat":36.044571,"lng":138.519634,"version":"13.0b/18.0a"},{"town":"びくに田","koaza":"","lat":36.041636,"lng":138.518419,"version":"13.0b/18.0a"},{"town":"平林","koaza":"","lat":36.03952,"lng":138.518241,"version":"13.0b/18.0a"},{"town":"大久保","koaza":"","lat":36.035288,"lng":138.51005,"version":"13.0b/18.0a"},{"town":"松平","koaza":"","lat":36.032503,"lng":138.512671,"version":"13.0b/18.0a"},{"town":"かな八","koaza":"","lat":36.030155,"lng":138.505873,"version":"13.0b/18.0a"},{"town":"かっぱ坂","koaza":"","lat":36.027793,"lng":138.514965,"version":"13.0b/18.0a"},{"town":"なぞふり","koaza":"","lat":36.030019,"lng":138.518542,"version":"13.0b/18.0a"},{"town":"白土","koaza":"","lat":36.02524,"lng":138.526405,"version":"13.0b/18.0a"},{"town":"山神","koaza":"","lat":36.036462,"lng":138.522009,"version":"13.0b/18.0a"},{"town":"弓木","koaza":"","lat":36.034674,"lng":138.527661,"version":"13.0b/18.0a"},{"town":"一ノ渡場","koaza":"","lat":36.044626,"lng":138.52362,"version":"13.0b/18.0a"},{"town":"よしの久保","koaza":"","lat":36.041909,"lng":138.525491,"version":"13.0b/18.0a"},{"town":"なぎの上","koaza":"","lat":36.044913,"lng":138.527061,"version":"13.0b/18.0a"},{"town":"原","koaza":"","lat":36.042879,"lng":138.527593,"version":"13.0b/18.0a"},{"town":"古宿岩前","koaza":"","lat":36.046783,"lng":138.527525,"version":"13.0b/18.0a"},{"town":"藤塚","koaza":"","lat":36.045118,"lng":138.529532,"version":"13.0b/18.0a"},{"town":"神殿","koaza":"","lat":36.044831,"lng":138.531798,"version":"13.0b/18.0a"},{"town":"釜の窪","koaza":"","lat":36.04322,"lng":138.529572,"version":"13.0b/18.0a"},{"town":"南釜の久保","koaza":"","lat":36.041295,"lng":138.528985,"version":"13.0b/18.0a"},{"town":"長畑","koaza":"","lat":36.039534,"lng":138.529791,"version":"13.0b/18.0a"},{"town":"杭日向","koaza":"","lat":36.041158,"lng":138.522787,"version":"13.0b/18.0a"},{"town":"神岩","koaza":"","lat":36.037786,"lng":138.525409,"version":"13.0b/18.0a"},{"town":"弓木出口","koaza":"","lat":36.039193,"lng":138.531047,"version":"13.0b/18.0a"},{"town":"さす窪","koaza":"","lat":36.033117,"lng":138.529613,"version":"13.0b/18.0a"},{"town":"矢久保城平","koaza":"","lat":36.029459,"lng":138.530883,"version":"13.0b/18.0a"},{"town":"小松原","koaza":"","lat":36.034756,"lng":138.532276,"version":"13.0b/18.0a"},{"town":"岩下","koaza":"","lat":36.034592,"lng":138.534569,"version":"13.0b/18.0a"},{"town":"なめ岩","koaza":"","lat":36.037636,"lng":138.533136,"version":"13.0b/18.0a"},{"town":"とびのす","koaza":"","lat":36.037623,"lng":138.534992,"version":"13.0b/18.0a"},{"town":"矢窪","koaza":"","lat":36.027493,"lng":138.535784,"version":"13.0b/18.0a"},{"town":"木伐久保","koaza":"","lat":36.021609,"lng":138.540283,"version":"13.0b/18.0a"},{"town":"すげの入","koaza":"","lat":36.028322,"lng":138.540379,"version":"13.0b/18.0a"},{"town":"すげの入出口","koaza":"","lat":36.032208,"lng":138.542995,"version":"13.0b/18.0a"},{"town":"にわとり","koaza":"","lat":36.029938,"lng":138.54413,"version":"13.0b/18.0a"},{"town":"つくえ原","koaza":"","lat":36.0339,"lng":138.541302,"version":"13.0b/18.0a"},{"town":"矢久保上の山","koaza":"","lat":36.035401,"lng":138.538879,"version":"13.0b/18.0a"},{"town":"西沢","koaza":"","lat":36.034708,"lng":138.537282,"version":"13.0b/18.0a"},{"town":"西沢出口","koaza":"","lat":36.037401,"lng":138.538167,"version":"13.0b/18.0a"},{"town":"東和田","koaza":"","lat":36.035997,"lng":138.542014,"version":"13.0b/18.0a"},{"town":"西和田","koaza":"","lat":36.036882,"lng":138.540148,"version":"13.0b/18.0a"},{"town":"火とぼし","koaza":"","lat":36.039055,"lng":138.537321,"version":"13.0b/18.0a"},{"town":"わぐ","koaza":"","lat":36.039113,"lng":138.539417,"version":"13.0b/18.0a"},{"town":"田通","koaza":"","lat":36.038478,"lng":138.54111,"version":"13.0b/18.0a"},{"town":"御所向","koaza":"","lat":36.04044,"lng":138.533705,"version":"13.0b/18.0a"},{"town":"滝の上","koaza":"","lat":36.039805,"lng":138.534859,"version":"13.0b/18.0a"},{"town":"三田沢","koaza":"","lat":36.052866,"lng":138.5308,"version":"13.0b/18.0a"},{"town":"わらびおね","koaza":"","lat":36.051039,"lng":138.531512,"version":"13.0b/18.0a"},{"town":"づうが窪","koaza":"","lat":36.049711,"lng":138.534051,"version":"13.0b/18.0a"},{"town":"ズミ沢","koaza":"","lat":36.048423,"lng":138.536898,"version":"13.0b/18.0a"},{"town":"上の山","koaza":"","lat":36.047422,"lng":138.534474,"version":"13.0b/18.0a"},{"town":"堅築地","koaza":"","lat":36.049577,"lng":138.531954,"version":"13.0b/18.0a"},{"town":"上之段","koaza":"","lat":36.049269,"lng":138.528607,"version":"13.0b/18.0a"},{"town":"堂かいど","koaza":"","lat":36.047788,"lng":138.528588,"version":"13.0b/18.0a"},{"town":"田屋道上","koaza":"","lat":36.048076,"lng":138.529454,"version":"13.0b/18.0a"},{"town":"田屋道下","koaza":"","lat":36.047576,"lng":138.52955,"version":"13.0b/18.0a"},{"town":"林向","koaza":"","lat":36.046961,"lng":138.529608,"version":"13.0b/18.0a"},{"town":"赤ばね道上","koaza":"","lat":36.047557,"lng":138.531531,"version":"13.0b/18.0a"},{"town":"宮丁","koaza":"","lat":36.046345,"lng":138.532223,"version":"13.0b/18.0a"},{"town":"明王寺","koaza":"","lat":36.046441,"lng":138.530839,"version":"13.0b/18.0a"},{"town":"こも立","koaza":"","lat":36.046191,"lng":138.533839,"version":"13.0b/18.0a"},{"town":"下祝田","koaza":"","lat":36.045961,"lng":138.532858,"version":"13.0b/18.0a"},{"town":"桐ヶ谷","koaza":"","lat":36.046865,"lng":138.540321,"version":"13.0b/18.0a"},{"town":"底桐ヶ谷","koaza":"","lat":36.04548,"lng":138.53784,"version":"13.0b/18.0a"},{"town":"高橋","koaza":"","lat":36.044383,"lng":138.535878,"version":"13.0b/18.0a"},{"town":"森脇","koaza":"","lat":36.045345,"lng":138.534705,"version":"13.0b/18.0a"},{"town":"白山","koaza":"","lat":36.043999,"lng":138.53557,"version":"13.0b/18.0a"},{"town":"衣掛石","koaza":"","lat":36.043537,"lng":138.534589,"version":"13.0b/18.0a"},{"town":"沢出口","koaza":"","lat":36.044345,"lng":138.533378,"version":"13.0b/18.0a"},{"town":"はば上","koaza":"","lat":36.043672,"lng":138.533089,"version":"13.0b/18.0a"},{"town":"迎坂下","koaza":"","lat":36.041979,"lng":138.533031,"version":"13.0b/18.0a"},{"town":"ませ口","koaza":"","lat":36.042902,"lng":138.534512,"version":"13.0b/18.0a"},{"town":"祝平","koaza":"","lat":36.042979,"lng":138.535974,"version":"13.0b/18.0a"},{"town":"小峰塚前","koaza":"","lat":36.043941,"lng":138.537359,"version":"13.0b/18.0a"},{"town":"ぬく井","koaza":"","lat":36.041652,"lng":138.534455,"version":"13.0b/18.0a"},{"town":"御所平","koaza":"","lat":36.041844,"lng":138.535859,"version":"13.0b/18.0a"},{"town":"栗の木原","koaza":"","lat":36.041979,"lng":138.538359,"version":"13.0b/18.0a"},{"town":"栗の木原道下","koaza":"","lat":36.041267,"lng":138.539764,"version":"13.0b/18.0a"},{"town":"横畑","koaza":"","lat":36.041209,"lng":138.537417,"version":"13.0b/18.0a"},{"town":"三ヶ尻","koaza":"","lat":36.040652,"lng":138.535917,"version":"13.0b/18.0a"},{"town":"おみか道下","koaza":"","lat":36.040979,"lng":138.540571,"version":"13.0b/18.0a"},{"town":"広峯","koaza":"","lat":36.043402,"lng":138.541206,"version":"13.0b/18.0a"},{"town":"権通","koaza":"","lat":36.042479,"lng":138.544842,"version":"13.0b/18.0a"},{"town":"茂沢","koaza":"","lat":36.043229,"lng":138.549362,"version":"13.0b/18.0a"},{"town":"小茂沢","koaza":"","lat":36.039478,"lng":138.548631,"version":"13.0b/18.0a"},{"town":"大し","koaza":"","lat":36.038824,"lng":138.544072,"version":"13.0b/18.0a"},{"town":"大し道上","koaza":"","lat":36.039248,"lng":138.543168,"version":"13.0b/18.0a"},{"town":"権進出口","koaza":"","lat":36.03894,"lng":138.541745,"version":"13.0b/18.0a"},{"town":"大し道下","koaza":"","lat":36.037882,"lng":138.542495,"version":"13.0b/18.0a"},{"town":"作道","koaza":"","lat":36.037709,"lng":138.545015,"version":"13.0b/18.0a"},{"town":"岩ば祢","koaza":"","lat":36.03592,"lng":138.54538,"version":"13.0b/18.0a"},{"town":"西原","koaza":"","lat":36.034843,"lng":138.543534,"version":"13.0b/18.0a"},{"town":"下原","koaza":"","lat":36.033419,"lng":138.544111,"version":"13.0b/18.0a"},{"town":"中原","koaza":"","lat":36.033246,"lng":138.545265,"version":"13.0b/18.0a"},{"town":"東原","koaza":"","lat":36.032304,"lng":138.547073,"version":"13.0b/18.0a"},{"town":"上原上","koaza":"","lat":36.030361,"lng":138.547342,"version":"13.0b/18.0a"},{"town":"孫市","koaza":"","lat":36.027726,"lng":138.54613,"version":"13.0b/18.0a"},{"town":"狐平","koaza":"","lat":36.025129,"lng":138.54715,"version":"13.0b/18.0a"},{"town":"沢の上","koaza":"","lat":36.020513,"lng":138.548612,"version":"13.0b/18.0a"},{"town":"臨幸","koaza":"","lat":36.01705,"lng":138.54161,"version":"13.0b/18.0a"},{"town":"そうり","koaza":"","lat":36.014781,"lng":138.556594,"version":"13.0b/18.0a"},{"town":"めってい","koaza":"","lat":36.010876,"lng":138.561153,"version":"13.0b/18.0a"},{"town":"犬ころしバ","koaza":"","lat":36.012626,"lng":138.566346,"version":"13.0b/18.0a"},{"town":"立原","koaza":"","lat":36.005336,"lng":138.56725,"version":"13.0b/18.0a"},{"town":"蔦の木","koaza":"","lat":35.999296,"lng":138.572021,"version":"13.0b/18.0a"},{"town":"柏木平","koaza":"","lat":36.003086,"lng":138.579811,"version":"13.0b/18.0a"},{"town":"三川栃原","koaza":"","lat":35.998354,"lng":138.583735,"version":"13.0b/18.0a"},{"town":"一本木道下","koaza":"","lat":36.005452,"lng":138.580888,"version":"13.0b/18.0a"},{"town":"一本木","koaza":"","lat":36.007548,"lng":138.583023,"version":"13.0b/18.0a"},{"town":"上一本木","koaza":"","lat":36.005759,"lng":138.584235,"version":"13.0b/18.0a"},{"town":"板鳥","koaza":"","lat":36.005836,"lng":138.586255,"version":"13.0b/18.0a"},{"town":"立原下","koaza":"","lat":36.011511,"lng":138.573213,"version":"13.0b/18.0a"},{"town":"上郷地","koaza":"","lat":36.012068,"lng":138.576041,"version":"13.0b/18.0a"},{"town":"郷地","koaza":"","lat":36.014107,"lng":138.575156,"version":"13.0b/18.0a"},{"town":"猿畑","koaza":"","lat":36.016935,"lng":138.574752,"version":"13.0b/18.0a"},{"town":"直坂","koaza":"","lat":36.017858,"lng":138.570982,"version":"13.0b/18.0a"},{"town":"犬ころし場日向","koaza":"","lat":36.01755,"lng":138.566616,"version":"13.0b/18.0a"},{"town":"上熊立間","koaza":"","lat":36.019685,"lng":138.56625,"version":"13.0b/18.0a"},{"town":"奥熊立間","koaza":"","lat":36.018358,"lng":138.563577,"version":"13.0b/18.0a"},{"town":"熊立間","koaza":"","lat":36.022282,"lng":138.562057,"version":"13.0b/18.0a"},{"town":"平休場","koaza":"","lat":36.024167,"lng":138.557075,"version":"13.0b/18.0a"},{"town":"中尾","koaza":"","lat":36.026629,"lng":138.554344,"version":"13.0b/18.0a"},{"town":"立岩","koaza":"","lat":36.024437,"lng":138.551382,"version":"13.0b/18.0a"},{"town":"せん尻","koaza":"","lat":36.02811,"lng":138.549747,"version":"13.0b/18.0a"},{"town":"東せん尻","koaza":"","lat":36.026841,"lng":138.551285,"version":"13.0b/18.0a"},{"town":"下せん尻","koaza":"","lat":36.028284,"lng":138.551497,"version":"13.0b/18.0a"},{"town":"東中山","koaza":"","lat":36.028687,"lng":138.552305,"version":"13.0b/18.0a"},{"town":"中山","koaza":"","lat":36.030726,"lng":138.552055,"version":"13.0b/18.0a"},{"town":"中山道下","koaza":"","lat":36.030149,"lng":138.551132,"version":"13.0b/18.0a"},{"town":"中山上の山","koaza":"","lat":36.030111,"lng":138.553209,"version":"13.0b/18.0a"},{"town":"土岩山の上","koaza":"","lat":36.037209,"lng":138.549189,"version":"13.0b/18.0a"},{"town":"土岩","koaza":"","lat":36.034516,"lng":138.548746,"version":"13.0b/18.0a"},{"town":"下土岩","koaza":"","lat":36.035804,"lng":138.547977,"version":"13.0b/18.0a"},{"town":"上土岩","koaza":"","lat":36.03442,"lng":138.549612,"version":"13.0b/18.0a"},{"town":"見上","koaza":"","lat":36.034554,"lng":138.546996,"version":"13.0b/18.0a"},{"town":"青木平","koaza":"","lat":36.031227,"lng":138.549054,"version":"13.0b/18.0a"},{"town":"境内続","koaza":"","lat":36.034535,"lng":138.551093,"version":"13.0b/18.0a"},{"town":"寺向","koaza":"","lat":36.033227,"lng":138.551478,"version":"13.0b/18.0a"},{"town":"寺の前","koaza":"","lat":36.033842,"lng":138.550093,"version":"13.0b/18.0a"},{"town":"神明前","koaza":"","lat":36.033112,"lng":138.549497,"version":"13.0b/18.0a"},{"town":"坂の下","koaza":"","lat":36.031823,"lng":138.550439,"version":"13.0b/18.0a"},{"town":"丸山","koaza":"","lat":36.032342,"lng":138.552363,"version":"13.0b/18.0a"},{"town":"柳平","koaza":"","lat":36.028495,"lng":138.55569,"version":"13.0b/18.0a"},{"town":"柳平坂下","koaza":"","lat":36.031323,"lng":138.553747,"version":"13.0b/18.0a"},{"town":"せん日向","koaza":"","lat":36.03163,"lng":138.555459,"version":"13.0b/18.0a"},{"town":"寺の上","koaza":"","lat":36.037574,"lng":138.554632,"version":"13.0b/18.0a"},{"town":"すす久保","koaza":"","lat":36.036382,"lng":138.560172,"version":"13.0b/18.0a"},{"town":"足の久保","koaza":"","lat":36.033419,"lng":138.565135,"version":"13.0b/18.0a"},{"town":"大森沢","koaza":"","lat":36.032477,"lng":138.558364,"version":"13.0b/18.0a"},{"town":"上の段","koaza":"","lat":36.031573,"lng":138.557325,"version":"13.0b/18.0a"},{"town":"粟生川家の前","koaza":"","lat":36.030207,"lng":138.55771,"version":"13.0b/18.0a"},{"town":"長坂","koaza":"","lat":36.029053,"lng":138.558191,"version":"13.0b/18.0a"},{"town":"茂沢奥","koaza":"","lat":36.041998,"lng":138.556979,"version":"13.0b/18.0a"},{"town":"上程久保","koaza":"","lat":36.030457,"lng":138.569463,"version":"13.0b/18.0a"},{"town":"程久保","koaza":"","lat":36.02788,"lng":138.564231,"version":"13.0b/18.0a"},{"town":"棚畑","koaza":"","lat":36.029284,"lng":138.562384,"version":"13.0b/18.0a"},{"town":"中川原","koaza":"","lat":36.028668,"lng":138.561038,"version":"13.0b/18.0a"},{"town":"長山","koaza":"","lat":36.025552,"lng":138.562576,"version":"13.0b/18.0a"},{"town":"あく平","koaza":"","lat":36.025475,"lng":138.56727,"version":"13.0b/18.0a"},{"town":"志の八","koaza":"","lat":36.024994,"lng":138.569289,"version":"13.0b/18.0a"},{"town":"せん下","koaza":"","lat":36.023975,"lng":138.572482,"version":"13.0b/18.0a"},{"town":"大平","koaza":"","lat":36.021628,"lng":138.570309,"version":"13.0b/18.0a"},{"town":"大田","koaza":"","lat":36.030207,"lng":138.579984,"version":"13.0b/18.0a"},{"town":"西栗尾","koaza":"","lat":36.024283,"lng":138.577714,"version":"13.0b/18.0a"},{"town":"東栗尾","koaza":"","lat":36.023802,"lng":138.581869,"version":"13.0b/18.0a"},{"town":"まま下","koaza":"","lat":36.022628,"lng":138.578291,"version":"13.0b/18.0a"},{"town":"石骨","koaza":"","lat":36.018839,"lng":138.580965,"version":"13.0b/18.0a"},{"town":"石合","koaza":"","lat":36.0123,"lng":138.580905,"version":"13.0b/18.0a"},{"town":"赤づら","koaza":"","lat":36.025651,"lng":138.592677,"version":"13.0b/18.0a"},{"town":"上栗尾","koaza":"","lat":36.020555,"lng":138.589575,"version":"13.0b/18.0a"},{"town":"上栗尾日影","koaza":"","lat":36.016289,"lng":138.588716,"version":"13.0b/18.0a"},{"town":"道祖神久保","koaza":"","lat":36.015043,"lng":138.585503,"version":"13.0b/18.0a"},{"town":"唐沢","koaza":"","lat":36.019751,"lng":138.598549,"version":"13.0b/18.0a"},{"town":"唐沢向山","koaza":"","lat":36.019751,"lng":138.604117,"version":"13.0b/18.0a"},{"town":"奥田日影","koaza":"","lat":36.014516,"lng":138.597995,"version":"13.0b/18.0a"},{"town":"落合","koaza":"","lat":36.013575,"lng":138.591292,"version":"13.0b/18.0a"},{"town":"栗尾坂","koaza":"","lat":36.011553,"lng":138.602621,"version":"13.0b/18.0a"},{"town":"風穴","koaza":"","lat":36.007758,"lng":138.58855,"version":"13.0b/18.0a"},{"town":"堂久保","koaza":"","lat":36.008035,"lng":138.593397,"version":"13.0b/18.0a"},{"town":"堰久保","koaza":"","lat":36.012411,"lng":138.598882,"version":"13.0b/18.0a"},{"town":"三川足の久保","koaza":"","lat":35.996955,"lng":138.593259,"version":"13.0b/18.0a"},{"town":"ひこうね平","koaza":"","lat":36.003714,"lng":138.592954,"version":"13.0b/18.0a"},{"town":"下平","koaza":"","lat":36.006345,"lng":138.592594,"version":"13.0b/18.0a"},{"town":"手作","koaza":"","lat":36.007896,"lng":138.59661,"version":"13.0b/18.0a"},{"town":"おやしき","koaza":"","lat":36.005431,"lng":138.596694,"version":"13.0b/18.0a"},{"town":"下平川向","koaza":"","lat":36.000058,"lng":138.598106,"version":"13.0b/18.0a"},{"town":"手作川向","koaza":"","lat":36.002384,"lng":138.598466,"version":"13.0b/18.0a"},{"town":"腰巻","koaza":"","lat":36.007896,"lng":138.599713,"version":"13.0b/18.0a"},{"town":"上腰巻","koaza":"","lat":36.006955,"lng":138.606443,"version":"13.0b/18.0a"},{"town":"せんバ切原","koaza":"","lat":35.997122,"lng":138.606665,"version":"13.0b/18.0a"},{"town":"火打石","koaza":"","lat":36.0046,"lng":138.613479,"version":"13.0b/18.0a"},{"town":"二ツ橋","koaza":"","lat":36.00521,"lng":138.622508,"version":"13.0b/18.0a"},{"town":"二ツ橋川向","koaza":"","lat":35.996623,"lng":138.618714,"version":"13.0b/18.0a"},{"town":"板小屋","koaza":"","lat":36.00244,"lng":138.630347,"version":"13.0b/18.0a"},{"town":"坂向","koaza":"","lat":36.049165,"lng":138.513004,"version":"13.0b/18.0a"},{"town":"おみか道上","koaza":"","lat":36.039305,"lng":138.541514,"version":"13.0b/18.0a"},{"town":"御三壅","koaza":"","lat":36.039526,"lng":138.539904,"version":"13.0b/18.0a"},{"town":"桃木平","koaza":"","lat":36.032534,"lng":138.548862,"version":"13.0b/18.0a"},{"town":"上野境","koaza":"","lat":36.054237,"lng":138.516426,"version":"13.0b/18.0a"},{"town":"奥せん尻","koaza":"","lat":36.027614,"lng":138.551189,"version":"13.0b/18.0a"},{"town":"久保井戸","koaza":"","lat":36.029745,"lng":138.550978,"version":"13.0b/18.0a"},{"town":"孫七坂","koaza":"","lat":36.033831,"lng":138.537993,"version":"13.0b/18.0a"},{"town":"鳥の向","koaza":"","lat":36.015608,"lng":138.550689,"version":"13.0b/18.0a"},{"town":"平石","koaza":"","lat":36.059369,"lng":138.505699,"version":"13.0b/18.0a"},{"town":"鳥居峠","koaza":"","lat":36.039919,"lng":138.49411,"version":"14.0b/19.0a"},{"town":"上軽井沢","koaza":"","lat":36.045364,"lng":138.492426,"version":"14.0b/19.0a"},{"town":"中軽井沢","koaza":"","lat":36.048278,"lng":138.492842,"version":"14.0b/19.0a"},{"town":"大ヒラ","koaza":"","lat":36.044702,"lng":138.495775,"version":"14.0b/19.0a"},{"town":"舟窪","koaza":"","lat":36.043566,"lng":138.498955,"version":"14.0b/19.0a"},{"town":"道陸神","koaza":"","lat":36.049622,"lng":138.494867,"version":"14.0b/19.0a"},{"town":"よしくろ","koaza":"","lat":36.05106,"lng":138.498151,"version":"14.0b/19.0a"},{"town":"本沢下","koaza":"","lat":36.052717,"lng":138.4981,"version":"14.0b/19.0a"},{"town":"本沢","koaza":"","lat":36.053948,"lng":138.498377,"version":"14.0b/19.0a"},{"town":"長張","koaza":"","lat":36.047066,"lng":138.50237,"version":"14.0b/19.0a"},{"town":"南沢下","koaza":"","lat":36.053277,"lng":138.502227,"version":"14.0b/19.0a"},{"town":"中沢下","koaza":"","lat":36.055061,"lng":138.504075,"version":"14.0b/19.0a"},{"town":"軽井沢","koaza":"","lat":36.057472,"lng":138.504654,"version":"14.0b/19.0a"},{"town":"川俣","koaza":"","lat":36.056315,"lng":138.507065,"version":"14.0b/19.0a"},{"town":"三尺","koaza":"","lat":36.052458,"lng":138.504365,"version":"14.0b/19.0a"},{"town":"あめご","koaza":"","lat":36.052377,"lng":138.506518,"version":"14.0b/19.0a"},{"town":"酒舟","koaza":"","lat":36.055688,"lng":138.510071,"version":"14.0b/19.0a"},{"town":"いほり沢","koaza":"","lat":36.052313,"lng":138.51118,"version":"14.0b/19.0a"},{"town":"りうしん","koaza":"","lat":36.052281,"lng":138.509733,"version":"14.0b/19.0a"},{"town":"花田","koaza":"","lat":36.051075,"lng":138.508319,"version":"14.0b/19.0a"},{"town":"越道","koaza":"","lat":36.048568,"lng":138.504927,"version":"14.0b/19.0a"},{"town":"越道坂","koaza":"","lat":36.048487,"lng":138.507001,"version":"14.0b/19.0a"},{"town":"赤そう","koaza":"","lat":36.046398,"lng":138.50594,"version":"14.0b/19.0a"},{"town":"栃山","koaza":"","lat":36.042605,"lng":138.50766,"version":"14.0b/19.0a"},{"town":"芦の窪","koaza":"","lat":36.042476,"lng":138.513173,"version":"14.0b/19.0a"},{"town":"小松平","koaza":"","lat":36.038715,"lng":138.513398,"version":"14.0b/19.0a"},{"town":"九蔵畑","koaza":"","lat":36.046671,"lng":138.51163,"version":"14.0b/19.0a"},{"town":"番匠田","koaza":"","lat":36.046655,"lng":138.509428,"version":"14.0b/19.0a"},{"town":"風石","koaza":"","lat":36.048728,"lng":138.509621,"version":"14.0b/19.0a"},{"town":"風石坂向","koaza":"","lat":36.050384,"lng":138.51126,"version":"14.0b/19.0a"},{"town":"風石坂","koaza":"","lat":36.050609,"lng":138.514073,"version":"14.0b/19.0a"},{"town":"倉沢","koaza":"","lat":36.047137,"lng":138.5156,"version":"14.0b/19.0a"},{"town":"清水窪","koaza":"","lat":36.056326,"lng":138.511374,"version":"14.0b/19.0a"},{"town":"清水","koaza":"","lat":36.056694,"lng":138.513477,"version":"14.0b/19.0a"},{"town":"土岩向","koaza":"","lat":36.051916,"lng":138.516972,"version":"14.0b/19.0a"},{"town":"蟹沢","koaza":"","lat":36.052203,"lng":138.518132,"version":"14.0b/19.0a"},{"town":"上野坂","koaza":"","lat":36.053131,"lng":138.517641,"version":"14.0b/19.0a"},{"town":"中平","koaza":"","lat":36.053595,"lng":138.514064,"version":"14.0b/19.0a"},{"town":"西上野","koaza":"","lat":36.054565,"lng":138.514364,"version":"14.0b/19.0a"},{"town":"東上野","koaza":"","lat":36.054155,"lng":138.518255,"version":"14.0b/19.0a"},{"town":"板鳥畑","koaza":"","lat":36.055479,"lng":138.515279,"version":"14.0b/19.0a"},{"town":"神宿","koaza":"","lat":36.056012,"lng":138.5182,"version":"14.0b/19.0a"},{"town":"住宿","koaza":"","lat":36.052858,"lng":138.519238,"version":"14.0b/19.0a"},{"town":"宮の上","koaza":"","lat":36.052694,"lng":138.5222,"version":"14.0b/19.0a"},{"town":"宮の西","koaza":"","lat":36.051739,"lng":138.519743,"version":"14.0b/19.0a"},{"town":"宮の向","koaza":"","lat":36.050824,"lng":138.520248,"version":"14.0b/19.0a"},{"town":"宮本","koaza":"","lat":36.051275,"lng":138.521668,"version":"14.0b/19.0a"},{"town":"宮の東","koaza":"","lat":36.051234,"lng":138.524002,"version":"14.0b/19.0a"},{"town":"城窪","koaza":"","lat":36.053595,"lng":138.524166,"version":"14.0b/19.0a"},{"town":"大星","koaza":"","lat":36.053254,"lng":138.526624,"version":"14.0b/19.0a"},{"town":"はりの木平","koaza":"","lat":36.049322,"lng":138.518487,"version":"14.0b/19.0a"},{"town":"とどめき","koaza":"","lat":36.048257,"lng":138.521668,"version":"14.0b/19.0a"},{"town":"前田","koaza":"","lat":36.05051,"lng":138.52246,"version":"14.0b/19.0a"},{"town":"はっぷり","koaza":"","lat":36.051493,"lng":138.525313,"version":"14.0b/19.0a"},{"town":"御屋敷","koaza":"","lat":36.05092,"lng":138.526569,"version":"14.0b/19.0a"},{"town":"つく似","koaza":"","lat":36.052517,"lng":138.528931,"version":"14.0b/19.0a"},{"town":"横吹","koaza":"","lat":36.050182,"lng":138.527402,"version":"14.0b/19.0a"},{"town":"まと場","koaza":"","lat":36.049786,"lng":138.52605,"version":"14.0b/19.0a"},{"town":"古宿","koaza":"","lat":36.048776,"lng":138.526119,"version":"14.0b/19.0a"},{"town":"小平牧場","koaza":"","lat":36.047902,"lng":138.524385,"version":"14.0b/19.0a"},{"town":"うば小屋","koaza":"","lat":36.047684,"lng":138.526583,"version":"14.0b/19.0a"},{"town":"大畑舟打沢","koaza":"","lat":36.044571,"lng":138.519634,"version":"14.0b/19.0a"},{"town":"びくに田","koaza":"","lat":36.041636,"lng":138.518419,"version":"14.0b/19.0a"},{"town":"平林","koaza":"","lat":36.03952,"lng":138.518241,"version":"14.0b/19.0a"},{"town":"大久保","koaza":"","lat":36.035288,"lng":138.51005,"version":"14.0b/19.0a"},{"town":"松平","koaza":"","lat":36.032503,"lng":138.512671,"version":"14.0b/19.0a"},{"town":"かな八","koaza":"","lat":36.030155,"lng":138.505873,"version":"14.0b/19.0a"},{"town":"かっぱ坂","koaza":"","lat":36.027793,"lng":138.514965,"version":"14.0b/19.0a"},{"town":"なぞふり","koaza":"","lat":36.030019,"lng":138.518542,"version":"14.0b/19.0a"},{"town":"白土","koaza":"","lat":36.02524,"lng":138.526405,"version":"14.0b/19.0a"},{"town":"山神","koaza":"","lat":36.036462,"lng":138.522009,"version":"14.0b/19.0a"},{"town":"弓木","koaza":"","lat":36.034674,"lng":138.527661,"version":"14.0b/19.0a"},{"town":"一ノ渡場","koaza":"","lat":36.044626,"lng":138.52362,"version":"14.0b/19.0a"},{"town":"よしの久保","koaza":"","lat":36.041909,"lng":138.525491,"version":"14.0b/19.0a"},{"town":"なぎの上","koaza":"","lat":36.044913,"lng":138.527061,"version":"14.0b/19.0a"},{"town":"原","koaza":"","lat":36.042879,"lng":138.527593,"version":"14.0b/19.0a"},{"town":"古宿岩前","koaza":"","lat":36.046783,"lng":138.527525,"version":"14.0b/19.0a"},{"town":"藤塚","koaza":"","lat":36.045118,"lng":138.529532,"version":"14.0b/19.0a"},{"town":"神殿","koaza":"","lat":36.044831,"lng":138.531798,"version":"14.0b/19.0a"},{"town":"釜の窪","koaza":"","lat":36.04322,"lng":138.529572,"version":"14.0b/19.0a"},{"town":"南釜の久保","koaza":"","lat":36.041295,"lng":138.528985,"version":"14.0b/19.0a"},{"town":"長畑","koaza":"","lat":36.039534,"lng":138.529791,"version":"14.0b/19.0a"},{"town":"杭日向","koaza":"","lat":36.041158,"lng":138.522787,"version":"14.0b/19.0a"},{"town":"神岩","koaza":"","lat":36.037786,"lng":138.525409,"version":"14.0b/19.0a"},{"town":"弓木出口","koaza":"","lat":36.039193,"lng":138.531047,"version":"14.0b/19.0a"},{"town":"さす窪","koaza":"","lat":36.033117,"lng":138.529613,"version":"14.0b/19.0a"},{"town":"矢久保城平","koaza":"","lat":36.029459,"lng":138.530883,"version":"14.0b/19.0a"},{"town":"小松原","koaza":"","lat":36.034756,"lng":138.532276,"version":"14.0b/19.0a"},{"town":"岩下","koaza":"","lat":36.034592,"lng":138.534569,"version":"14.0b/19.0a"},{"town":"なめ岩","koaza":"","lat":36.037636,"lng":138.533136,"version":"14.0b/19.0a"},{"town":"とびのす","koaza":"","lat":36.037623,"lng":138.534992,"version":"14.0b/19.0a"},{"town":"矢窪","koaza":"","lat":36.027493,"lng":138.535784,"version":"14.0b/19.0a"},{"town":"木伐久保","koaza":"","lat":36.021609,"lng":138.540283,"version":"14.0b/19.0a"},{"town":"すげの入","koaza":"","lat":36.028322,"lng":138.540379,"version":"14.0b/19.0a"},{"town":"すげの入出口","koaza":"","lat":36.032208,"lng":138.542995,"version":"14.0b/19.0a"},{"town":"にわとり","koaza":"","lat":36.029938,"lng":138.54413,"version":"14.0b/19.0a"},{"town":"つくえ原","koaza":"","lat":36.0339,"lng":138.541302,"version":"14.0b/19.0a"},{"town":"矢久保上の山","koaza":"","lat":36.035401,"lng":138.538879,"version":"14.0b/19.0a"},{"town":"西沢","koaza":"","lat":36.034708,"lng":138.537282,"version":"14.0b/19.0a"},{"town":"西沢出口","koaza":"","lat":36.037401,"lng":138.538167,"version":"14.0b/19.0a"},{"town":"東和田","koaza":"","lat":36.035997,"lng":138.542014,"version":"14.0b/19.0a"},{"town":"西和田","koaza":"","lat":36.036882,"lng":138.540148,"version":"14.0b/19.0a"},{"town":"火とぼし","koaza":"","lat":36.039055,"lng":138.537321,"version":"14.0b/19.0a"},{"town":"わぐ","koaza":"","lat":36.039113,"lng":138.539417,"version":"14.0b/19.0a"},{"town":"田通","koaza":"","lat":36.038478,"lng":138.54111,"version":"14.0b/19.0a"},{"town":"御所向","koaza":"","lat":36.04044,"lng":138.533705,"version":"14.0b/19.0a"},{"town":"滝の上","koaza":"","lat":36.039805,"lng":138.534859,"version":"14.0b/19.0a"},{"town":"三田沢","koaza":"","lat":36.052866,"lng":138.5308,"version":"14.0b/19.0a"},{"town":"わらびおね","koaza":"","lat":36.051039,"lng":138.531512,"version":"14.0b/19.0a"},{"town":"づうが窪","koaza":"","lat":36.049711,"lng":138.534051,"version":"14.0b/19.0a"},{"town":"ズミ沢","koaza":"","lat":36.048423,"lng":138.536898,"version":"14.0b/19.0a"},{"town":"上の山","koaza":"","lat":36.047422,"lng":138.534474,"version":"14.0b/19.0a"},{"town":"堅築地","koaza":"","lat":36.049577,"lng":138.531954,"version":"14.0b/19.0a"},{"town":"上之段","koaza":"","lat":36.049269,"lng":138.528607,"version":"14.0b/19.0a"},{"town":"堂かいど","koaza":"","lat":36.047788,"lng":138.528588,"version":"14.0b/19.0a"},{"town":"田屋道上","koaza":"","lat":36.048076,"lng":138.529454,"version":"14.0b/19.0a"},{"town":"田屋道下","koaza":"","lat":36.047576,"lng":138.52955,"version":"14.0b/19.0a"},{"town":"林向","koaza":"","lat":36.046961,"lng":138.529608,"version":"14.0b/19.0a"},{"town":"赤ばね道上","koaza":"","lat":36.047557,"lng":138.531531,"version":"14.0b/19.0a"},{"town":"宮丁","koaza":"","lat":36.046345,"lng":138.532223,"version":"14.0b/19.0a"},{"town":"明王寺","koaza":"","lat":36.046441,"lng":138.530839,"version":"14.0b/19.0a"},{"town":"こも立","koaza":"","lat":36.046191,"lng":138.533839,"version":"14.0b/19.0a"},{"town":"下祝田","koaza":"","lat":36.045961,"lng":138.532858,"version":"14.0b/19.0a"},{"town":"桐ヶ谷","koaza":"","lat":36.046865,"lng":138.540321,"version":"14.0b/19.0a"},{"town":"底桐ヶ谷","koaza":"","lat":36.04548,"lng":138.53784,"version":"14.0b/19.0a"},{"town":"高橋","koaza":"","lat":36.044383,"lng":138.535878,"version":"14.0b/19.0a"},{"town":"森脇","koaza":"","lat":36.045345,"lng":138.534705,"version":"14.0b/19.0a"},{"town":"白山","koaza":"","lat":36.043999,"lng":138.53557,"version":"14.0b/19.0a"},{"town":"衣掛石","koaza":"","lat":36.043537,"lng":138.534589,"version":"14.0b/19.0a"},{"town":"沢出口","koaza":"","lat":36.044345,"lng":138.533378,"version":"14.0b/19.0a"},{"town":"はば上","koaza":"","lat":36.043672,"lng":138.533089,"version":"14.0b/19.0a"},{"town":"迎坂下","koaza":"","lat":36.041979,"lng":138.533031,"version":"14.0b/19.0a"},{"town":"ませ口","koaza":"","lat":36.042902,"lng":138.534512,"version":"14.0b/19.0a"},{"town":"祝平","koaza":"","lat":36.042979,"lng":138.535974,"version":"14.0b/19.0a"},{"town":"小峰塚前","koaza":"","lat":36.043941,"lng":138.537359,"version":"14.0b/19.0a"},{"town":"ぬく井","koaza":"","lat":36.041652,"lng":138.534455,"version":"14.0b/19.0a"},{"town":"御所平","koaza":"","lat":36.041844,"lng":138.535859,"version":"14.0b/19.0a"},{"town":"栗の木原","koaza":"","lat":36.041979,"lng":138.538359,"version":"14.0b/19.0a"},{"town":"栗の木原道下","koaza":"","lat":36.041267,"lng":138.539764,"version":"14.0b/19.0a"},{"town":"横畑","koaza":"","lat":36.041209,"lng":138.537417,"version":"14.0b/19.0a"},{"town":"三ヶ尻","koaza":"","lat":36.040652,"lng":138.535917,"version":"14.0b/19.0a"},{"town":"おみか道下","koaza":"","lat":36.040979,"lng":138.540571,"version":"14.0b/19.0a"},{"town":"広峯","koaza":"","lat":36.043402,"lng":138.541206,"version":"14.0b/19.0a"},{"town":"権通","koaza":"","lat":36.042479,"lng":138.544842,"version":"14.0b/19.0a"},{"town":"茂沢","koaza":"","lat":36.043229,"lng":138.549362,"version":"14.0b/19.0a"},{"town":"小茂沢","koaza":"","lat":36.039478,"lng":138.548631,"version":"14.0b/19.0a"},{"town":"大し","koaza":"","lat":36.038824,"lng":138.544072,"version":"14.0b/19.0a"},{"town":"大し道上","koaza":"","lat":36.039248,"lng":138.543168,"version":"14.0b/19.0a"},{"town":"権進出口","koaza":"","lat":36.03894,"lng":138.541745,"version":"14.0b/19.0a"},{"town":"大し道下","koaza":"","lat":36.037882,"lng":138.542495,"version":"14.0b/19.0a"},{"town":"作道","koaza":"","lat":36.037709,"lng":138.545015,"version":"14.0b/19.0a"},{"town":"岩ば祢","koaza":"","lat":36.03592,"lng":138.54538,"version":"14.0b/19.0a"},{"town":"西原","koaza":"","lat":36.034843,"lng":138.543534,"version":"14.0b/19.0a"},{"town":"下原","koaza":"","lat":36.033419,"lng":138.544111,"version":"14.0b/19.0a"},{"town":"中原","koaza":"","lat":36.033246,"lng":138.545265,"version":"14.0b/19.0a"},{"town":"東原","koaza":"","lat":36.032304,"lng":138.547073,"version":"14.0b/19.0a"},{"town":"上原上","koaza":"","lat":36.030361,"lng":138.547342,"version":"14.0b/19.0a"},{"town":"孫市","koaza":"","lat":36.027726,"lng":138.54613,"version":"14.0b/19.0a"},{"town":"狐平","koaza":"","lat":36.025129,"lng":138.54715,"version":"14.0b/19.0a"},{"town":"沢の上","koaza":"","lat":36.020513,"lng":138.548612,"version":"14.0b/19.0a"},{"town":"臨幸","koaza":"","lat":36.01705,"lng":138.54161,"version":"14.0b/19.0a"},{"town":"そうり","koaza":"","lat":36.014781,"lng":138.556594,"version":"14.0b/19.0a"},{"town":"めってい","koaza":"","lat":36.010876,"lng":138.561153,"version":"14.0b/19.0a"},{"town":"犬ころしバ","koaza":"","lat":36.012626,"lng":138.566346,"version":"14.0b/19.0a"},{"town":"立原","koaza":"","lat":36.005336,"lng":138.56725,"version":"14.0b/19.0a"},{"town":"蔦の木","koaza":"","lat":35.999296,"lng":138.572021,"version":"14.0b/19.0a"},{"town":"柏木平","koaza":"","lat":36.003086,"lng":138.579811,"version":"14.0b/19.0a"},{"town":"三川栃原","koaza":"","lat":35.998354,"lng":138.583735,"version":"14.0b/19.0a"},{"town":"一本木道下","koaza":"","lat":36.005452,"lng":138.580888,"version":"14.0b/19.0a"},{"town":"一本木","koaza":"","lat":36.007548,"lng":138.583023,"version":"14.0b/19.0a"},{"town":"上一本木","koaza":"","lat":36.005759,"lng":138.584235,"version":"14.0b/19.0a"},{"town":"板鳥","koaza":"","lat":36.005836,"lng":138.586255,"version":"14.0b/19.0a"},{"town":"立原下","koaza":"","lat":36.011511,"lng":138.573213,"version":"14.0b/19.0a"},{"town":"上郷地","koaza":"","lat":36.012068,"lng":138.576041,"version":"14.0b/19.0a"},{"town":"郷地","koaza":"","lat":36.014107,"lng":138.575156,"version":"14.0b/19.0a"},{"town":"猿畑","koaza":"","lat":36.016935,"lng":138.574752,"version":"14.0b/19.0a"},{"town":"直坂","koaza":"","lat":36.017858,"lng":138.570982,"version":"14.0b/19.0a"},{"town":"犬ころし場日向","koaza":"","lat":36.01755,"lng":138.566616,"version":"14.0b/19.0a"},{"town":"上熊立間","koaza":"","lat":36.019685,"lng":138.56625,"version":"14.0b/19.0a"},{"town":"奥熊立間","koaza":"","lat":36.018358,"lng":138.563577,"version":"14.0b/19.0a"},{"town":"熊立間","koaza":"","lat":36.022282,"lng":138.562057,"version":"14.0b/19.0a"},{"town":"平休場","koaza":"","lat":36.024167,"lng":138.557075,"version":"14.0b/19.0a"},{"town":"中尾","koaza":"","lat":36.026629,"lng":138.554344,"version":"14.0b/19.0a"},{"town":"立岩","koaza":"","lat":36.024437,"lng":138.551382,"version":"14.0b/19.0a"},{"town":"せん尻","koaza":"","lat":36.02811,"lng":138.549747,"version":"14.0b/19.0a"},{"town":"東せん尻","koaza":"","lat":36.026841,"lng":138.551285,"version":"14.0b/19.0a"},{"town":"下せん尻","koaza":"","lat":36.028284,"lng":138.551497,"version":"14.0b/19.0a"},{"town":"東中山","koaza":"","lat":36.028687,"lng":138.552305,"version":"14.0b/19.0a"},{"town":"中山","koaza":"","lat":36.030726,"lng":138.552055,"version":"14.0b/19.0a"},{"town":"中山道下","koaza":"","lat":36.030149,"lng":138.551132,"version":"14.0b/19.0a"},{"town":"中山上の山","koaza":"","lat":36.030111,"lng":138.553209,"version":"14.0b/19.0a"},{"town":"土岩山の上","koaza":"","lat":36.037209,"lng":138.549189,"version":"14.0b/19.0a"},{"town":"土岩","koaza":"","lat":36.034516,"lng":138.548746,"version":"14.0b/19.0a"},{"town":"下土岩","koaza":"","lat":36.035804,"lng":138.547977,"version":"14.0b/19.0a"},{"town":"上土岩","koaza":"","lat":36.03442,"lng":138.549612,"version":"14.0b/19.0a"},{"town":"見上","koaza":"","lat":36.034554,"lng":138.546996,"version":"14.0b/19.0a"},{"town":"青木平","koaza":"","lat":36.031227,"lng":138.549054,"version":"14.0b/19.0a"},{"town":"境内続","koaza":"","lat":36.034535,"lng":138.551093,"version":"14.0b/19.0a"},{"town":"寺向","koaza":"","lat":36.033227,"lng":138.551478,"version":"14.0b/19.0a"},{"town":"寺の前","koaza":"","lat":36.033842,"lng":138.550093,"version":"14.0b/19.0a"},{"town":"神明前","koaza":"","lat":36.033112,"lng":138.549497,"version":"14.0b/19.0a"},{"town":"坂の下","koaza":"","lat":36.031823,"lng":138.550439,"version":"14.0b/19.0a"},{"town":"丸山","koaza":"","lat":36.032342,"lng":138.552363,"version":"14.0b/19.0a"},{"town":"柳平","koaza":"","lat":36.028495,"lng":138.55569,"version":"14.0b/19.0a"},{"town":"柳平坂下","koaza":"","lat":36.031323,"lng":138.553747,"version":"14.0b/19.0a"},{"town":"せん日向","koaza":"","lat":36.03163,"lng":138.555459,"version":"14.0b/19.0a"},{"town":"寺の上","koaza":"","lat":36.037574,"lng":138.554632,"version":"14.0b/19.0a"},{"town":"すす久保","koaza":"","lat":36.036382,"lng":138.560172,"version":"14.0b/19.0a"},{"town":"足の久保","koaza":"","lat":36.033419,"lng":138.565135,"version":"14.0b/19.0a"},{"town":"大森沢","koaza":"","lat":36.032477,"lng":138.558364,"version":"14.0b/19.0a"},{"town":"上の段","koaza":"","lat":36.031573,"lng":138.557325,"version":"14.0b/19.0a"},{"town":"粟生川家の前","koaza":"","lat":36.030207,"lng":138.55771,"version":"14.0b/19.0a"},{"town":"長坂","koaza":"","lat":36.029053,"lng":138.558191,"version":"14.0b/19.0a"},{"town":"茂沢奥","koaza":"","lat":36.041998,"lng":138.556979,"version":"14.0b/19.0a"},{"town":"上程久保","koaza":"","lat":36.030457,"lng":138.569463,"version":"14.0b/19.0a"},{"town":"程久保","koaza":"","lat":36.02788,"lng":138.564231,"version":"14.0b/19.0a"},{"town":"棚畑","koaza":"","lat":36.029284,"lng":138.562384,"version":"14.0b/19.0a"},{"town":"中川原","koaza":"","lat":36.028668,"lng":138.561038,"version":"14.0b/19.0a"},{"town":"長山","koaza":"","lat":36.025552,"lng":138.562576,"version":"14.0b/19.0a"},{"town":"あく平","koaza":"","lat":36.025475,"lng":138.56727,"version":"14.0b/19.0a"},{"town":"志の八","koaza":"","lat":36.024994,"lng":138.569289,"version":"14.0b/19.0a"},{"town":"せん下","koaza":"","lat":36.023975,"lng":138.572482,"version":"14.0b/19.0a"},{"town":"大平","koaza":"","lat":36.021628,"lng":138.570309,"version":"14.0b/19.0a"},{"town":"大田","koaza":"","lat":36.030207,"lng":138.579984,"version":"14.0b/19.0a"},{"town":"西栗尾","koaza":"","lat":36.024283,"lng":138.577714,"version":"14.0b/19.0a"},{"town":"東栗尾","koaza":"","lat":36.023802,"lng":138.581869,"version":"14.0b/19.0a"},{"town":"まま下","koaza":"","lat":36.022628,"lng":138.578291,"version":"14.0b/19.0a"},{"town":"石骨","koaza":"","lat":36.018839,"lng":138.580965,"version":"14.0b/19.0a"},{"town":"石合","koaza":"","lat":36.0123,"lng":138.580905,"version":"14.0b/19.0a"},{"town":"赤づら","koaza":"","lat":36.025651,"lng":138.592677,"version":"14.0b/19.0a"},{"town":"上栗尾","koaza":"","lat":36.020555,"lng":138.589575,"version":"14.0b/19.0a"},{"town":"上栗尾日影","koaza":"","lat":36.016289,"lng":138.588716,"version":"14.0b/19.0a"},{"town":"道祖神久保","koaza":"","lat":36.015043,"lng":138.585503,"version":"14.0b/19.0a"},{"town":"唐沢","koaza":"","lat":36.019751,"lng":138.598549,"version":"14.0b/19.0a"},{"town":"唐沢向山","koaza":"","lat":36.019751,"lng":138.604117,"version":"14.0b/19.0a"},{"town":"奥田日影","koaza":"","lat":36.014516,"lng":138.597995,"version":"14.0b/19.0a"},{"town":"落合","koaza":"","lat":36.013575,"lng":138.591292,"version":"14.0b/19.0a"},{"town":"栗尾坂","koaza":"","lat":36.011553,"lng":138.602621,"version":"14.0b/19.0a"},{"town":"風穴","koaza":"","lat":36.007758,"lng":138.58855,"version":"14.0b/19.0a"},{"town":"堂久保","koaza":"","lat":36.008035,"lng":138.593397,"version":"14.0b/19.0a"},{"town":"堰久保","koaza":"","lat":36.012411,"lng":138.598882,"version":"14.0b/19.0a"},{"town":"三川足の久保","koaza":"","lat":35.996955,"lng":138.593259,"version":"14.0b/19.0a"},{"town":"ひこうね平","koaza":"","lat":36.003714,"lng":138.592954,"version":"14.0b/19.0a"},{"town":"下平","koaza":"","lat":36.006345,"lng":138.592594,"version":"14.0b/19.0a"},{"town":"手作","koaza":"","lat":36.007896,"lng":138.59661,"version":"14.0b/19.0a"},{"town":"おやしき","koaza":"","lat":36.005431,"lng":138.596694,"version":"14.0b/19.0a"},{"town":"下平川向","koaza":"","lat":36.000058,"lng":138.598106,"version":"14.0b/19.0a"},{"town":"手作川向","koaza":"","lat":36.002384,"lng":138.598466,"version":"14.0b/19.0a"},{"town":"腰巻","koaza":"","lat":36.007896,"lng":138.599713,"version":"14.0b/19.0a"},{"town":"上腰巻","koaza":"","lat":36.006955,"lng":138.606443,"version":"14.0b/19.0a"},{"town":"せんバ切原","koaza":"","lat":35.997122,"lng":138.606665,"version":"14.0b/19.0a"},{"town":"火打石","koaza":"","lat":36.0046,"lng":138.613479,"version":"14.0b/19.0a"},{"town":"二ツ橋","koaza":"","lat":36.00521,"lng":138.622508,"version":"14.0b/19.0a"},{"town":"二ツ橋川向","koaza":"","lat":35.996623,"lng":138.618714,"version":"14.0b/19.0a"},{"town":"板小屋","koaza":"","lat":36.00244,"lng":138.630347,"version":"14.0b/19.0a"},{"town":"坂向","koaza":"","lat":36.049165,"lng":138.513004,"version":"14.0b/19.0a"},{"town":"おみか道上","koaza":"","lat":36.039305,"lng":138.541514,"version":"14.0b/19.0a"},{"town":"御三壅","koaza":"","lat":36.039526,"lng":138.539904,"version":"14.0b/19.0a"},{"town":"桃木平","koaza":"","lat":36.032534,"lng":138.548862,"version":"14.0b/19.0a"},{"town":"上野境","koaza":"","lat":36.054237,"lng":138.516426,"version":"14.0b/19.0a"},{"town":"奥せん尻","koaza":"","lat":36.027614,"lng":138.551189,"version":"14.0b/19.0a"},{"town":"久保井戸","koaza":"","lat":36.029745,"lng":138.550978,"version":"14.0b/19.0a"},{"town":"孫七坂","koaza":"","lat":36.033831,"lng":138.537993,"version":"14.0b/19.0a"},{"town":"鳥の向","koaza":"","lat":36.015608,"lng":138.550689,"version":"14.0b/19.0a"},{"town":"平石","koaza":"","lat":36.059369,"lng":138.505699,"version":"14.0b/19.0a"}]