[{"town":"大字安雲","koaza":"","lat":33.574508,"lng":131.147191,"version":"13.0b/18.0a"},{"town":"大字宇野","koaza":"","lat":33.574854,"lng":131.156947,"version":"13.0b/18.0a"},{"town":"大字緒方","koaza":"","lat":33.579155,"lng":131.136488,"version":"13.0b/18.0a"},{"town":"大字上唐原","koaza":"","lat":33.547583,"lng":131.180899,"version":"13.0b/18.0a"},{"town":"大字尻高","koaza":"","lat":33.560171,"lng":131.130855,"version":"13.0b/18.0a"},{"town":"大字下唐原","koaza":"","lat":33.557904,"lng":131.169434,"version":"13.0b/18.0a"},{"town":"大字大ノ瀬","koaza":"","lat":33.588746,"lng":131.152775,"version":"13.0b/18.0a"},{"town":"大字垂水","koaza":"","lat":33.580482,"lng":131.168893,"version":"13.0b/18.0a"},{"town":"大字土佐井","koaza":"","lat":33.560334,"lng":131.150618,"version":"13.0b/18.0a"},{"town":"大字中村","koaza":"","lat":33.593731,"lng":131.157554,"version":"13.0b/18.0a"},{"town":"大字成恒","koaza":"","lat":33.583375,"lng":131.145588,"version":"13.0b/18.0a"},{"town":"大字西友枝","koaza":"","lat":33.529376,"lng":131.109738,"version":"13.0b/18.0a"},{"town":"大字原井","koaza":"","lat":33.522102,"lng":131.164604,"version":"13.0b/18.0a"},{"town":"大字東上","koaza":"","lat":33.522109,"lng":131.138451,"version":"13.0b/18.0a"},{"town":"大字東下","koaza":"","lat":33.547592,"lng":131.159482,"version":"13.0b/18.0a"},{"town":"大字百留","koaza":"","lat":33.542087,"lng":131.180247,"version":"13.0b/18.0a"},{"town":"大字矢方","koaza":"","lat":33.568055,"lng":131.127265,"version":"13.0b/18.0a"},{"town":"大字八ツ並","koaza":"","lat":33.583953,"lng":131.155524,"version":"13.0b/18.0a"},{"town":"大字吉岡","koaza":"","lat":33.590024,"lng":131.161185,"version":"13.0b/18.0a"},{"town":"大字安雲","koaza":"","lat":33.574508,"lng":131.147191,"version":"14.0b/19.0a"},{"town":"大字宇野","koaza":"","lat":33.574854,"lng":131.156947,"version":"14.0b/19.0a"},{"town":"大字緒方","koaza":"","lat":33.579155,"lng":131.136488,"version":"14.0b/19.0a"},{"town":"大字上唐原","koaza":"","lat":33.547583,"lng":131.180899,"version":"14.0b/19.0a"},{"town":"大字尻高","koaza":"","lat":33.560171,"lng":131.130855,"version":"14.0b/19.0a"},{"town":"大字下唐原","koaza":"","lat":33.557904,"lng":131.169434,"version":"14.0b/19.0a"},{"town":"大字大ノ瀬","koaza":"","lat":33.588746,"lng":131.152775,"version":"14.0b/19.0a"},{"town":"大字垂水","koaza":"","lat":33.580482,"lng":131.168893,"version":"14.0b/19.0a"},{"town":"大字土佐井","koaza":"","lat":33.560334,"lng":131.150618,"version":"14.0b/19.0a"},{"town":"大字中村","koaza":"","lat":33.593731,"lng":131.157554,"version":"14.0b/19.0a"},{"town":"大字成恒","koaza":"","lat":33.583375,"lng":131.145588,"version":"14.0b/19.0a"},{"town":"大字西友枝","koaza":"","lat":33.529376,"lng":131.109738,"version":"14.0b/19.0a"},{"town":"大字原井","koaza":"","lat":33.522102,"lng":131.164604,"version":"14.0b/19.0a"},{"town":"大字東上","koaza":"","lat":33.522109,"lng":131.138451,"version":"14.0b/19.0a"},{"town":"大字東下","koaza":"","lat":33.547592,"lng":131.159482,"version":"14.0b/19.0a"},{"town":"大字百留","koaza":"","lat":33.542087,"lng":131.180247,"version":"14.0b/19.0a"},{"town":"大字矢方","koaza":"","lat":33.568055,"lng":131.127265,"version":"14.0b/19.0a"},{"town":"大字八ツ並","koaza":"","lat":33.583953,"lng":131.155524,"version":"14.0b/19.0a"},{"town":"大字吉岡","koaza":"","lat":33.590024,"lng":131.161185,"version":"14.0b/19.0a"}]