[{"town":"大字相島","koaza":"","lat":33.761034,"lng":130.37239,"version":"13.0b/18.0a"},{"town":"大字下府","koaza":"","lat":33.708197,"lng":130.436972,"version":"13.0b/18.0a"},{"town":"大字新宮","koaza":"","lat":33.714863,"lng":130.432087,"version":"13.0b/18.0a"},{"town":"大字立花口","koaza":"","lat":33.684431,"lng":130.483767,"version":"13.0b/18.0a"},{"town":"大字原上","koaza":"","lat":33.688899,"lng":130.458583,"version":"13.0b/18.0a"},{"town":"大字的野","koaza":"","lat":33.691151,"lng":130.494887,"version":"13.0b/18.0a"},{"town":"大字三代","koaza":"","lat":33.698897,"lng":130.457925,"version":"13.0b/18.0a"},{"town":"大字湊","koaza":"","lat":33.713599,"lng":130.423562,"version":"13.0b/18.0a"},{"town":"桜山手一丁目","koaza":"","lat":33.70282,"lng":130.437831,"version":"13.0b/18.0a"},{"town":"桜山手二丁目","koaza":"","lat":33.703967,"lng":130.437784,"version":"13.0b/18.0a"},{"town":"桜山手三丁目","koaza":"","lat":33.706147,"lng":130.438224,"version":"13.0b/18.0a"},{"town":"下府一丁目","koaza":"","lat":33.711331,"lng":130.439864,"version":"13.0b/18.0a"},{"town":"下府二丁目","koaza":"","lat":33.707962,"lng":130.444373,"version":"13.0b/18.0a"},{"town":"下府三丁目","koaza":"","lat":33.708761,"lng":130.440217,"version":"13.0b/18.0a"},{"town":"下府四丁目","koaza":"","lat":33.71077,"lng":130.43609,"version":"13.0b/18.0a"},{"town":"下府五丁目","koaza":"","lat":33.713085,"lng":130.436181,"version":"13.0b/18.0a"},{"town":"下府六丁目","koaza":"","lat":33.714041,"lng":130.435028,"version":"13.0b/18.0a"},{"town":"下府七丁目","koaza":"","lat":33.716572,"lng":130.440565,"version":"13.0b/18.0a"},{"town":"下府八丁目","koaza":"","lat":33.715878,"lng":130.440367,"version":"13.0b/18.0a"},{"town":"中央駅前二丁目","koaza":"","lat":33.709799,"lng":130.451634,"version":"13.0b/18.0a"},{"town":"花立花一丁目","koaza":"","lat":33.692945,"lng":130.478873,"version":"13.0b/18.0a"},{"town":"花立花二丁目","koaza":"","lat":33.691705,"lng":130.475435,"version":"13.0b/18.0a"},{"town":"花立花三丁目","koaza":"","lat":33.693845,"lng":130.47748,"version":"13.0b/18.0a"},{"town":"花立花四丁目","koaza":"","lat":33.693039,"lng":130.47637,"version":"13.0b/18.0a"},{"town":"花立花五丁目","koaza":"","lat":33.693192,"lng":130.475645,"version":"13.0b/18.0a"},{"town":"美咲一丁目","koaza":"","lat":33.704043,"lng":130.442657,"version":"13.0b/18.0a"},{"town":"美咲二丁目","koaza":"","lat":33.701523,"lng":130.440839,"version":"13.0b/18.0a"},{"town":"美咲三丁目","koaza":"","lat":33.70467,"lng":130.440539,"version":"13.0b/18.0a"},{"town":"緑ケ浜一丁目","koaza":"","lat":33.716631,"lng":130.447563,"version":"13.0b/18.0a"},{"town":"緑ケ浜二丁目","koaza":"","lat":33.719917,"lng":130.451349,"version":"13.0b/18.0a"},{"town":"緑ケ浜四丁目","koaza":"","lat":33.712136,"lng":130.446714,"version":"13.0b/18.0a"},{"town":"湊坂一丁目","koaza":"","lat":33.705711,"lng":130.435202,"version":"13.0b/18.0a"},{"town":"湊坂二丁目","koaza":"","lat":33.706545,"lng":130.434169,"version":"13.0b/18.0a"},{"town":"湊坂三丁目","koaza":"","lat":33.70551,"lng":130.433737,"version":"13.0b/18.0a"},{"town":"湊坂四丁目","koaza":"","lat":33.708595,"lng":130.430146,"version":"13.0b/18.0a"},{"town":"湊坂五丁目","koaza":"","lat":33.708893,"lng":130.431638,"version":"13.0b/18.0a"},{"town":"湊坂六丁目","koaza":"","lat":33.709993,"lng":130.430965,"version":"13.0b/18.0a"},{"town":"杜の宮一丁目","koaza":"","lat":33.715594,"lng":130.443589,"version":"13.0b/18.0a"},{"town":"杜の宮二丁目","koaza":"","lat":33.714934,"lng":130.440697,"version":"13.0b/18.0a"},{"town":"杜の宮三丁目","koaza":"","lat":33.712529,"lng":130.439891,"version":"13.0b/18.0a"},{"town":"杜の宮四丁目","koaza":"","lat":33.712658,"lng":130.442784,"version":"13.0b/18.0a"},{"town":"夜臼一丁目","koaza":"","lat":33.700462,"lng":130.443989,"version":"13.0b/18.0a"},{"town":"夜臼二丁目","koaza":"","lat":33.702915,"lng":130.444742,"version":"13.0b/18.0a"},{"town":"夜臼三丁目","koaza":"","lat":33.701642,"lng":130.446409,"version":"13.0b/18.0a"},{"town":"夜臼四丁目","koaza":"","lat":33.699946,"lng":130.445903,"version":"13.0b/18.0a"},{"town":"夜臼五丁目","koaza":"","lat":33.699781,"lng":130.447951,"version":"13.0b/18.0a"},{"town":"夜臼六丁目","koaza":"","lat":33.702632,"lng":130.44829,"version":"13.0b/18.0a"},{"town":"緑ケ浜三丁目","koaza":"","lat":33.717585,"lng":130.452616,"version":"13.0b/18.0a"},{"town":"大字上府","koaza":"","lat":33.707864,"lng":130.459866,"version":"13.0b/18.0a"},{"town":"上府北三丁目","koaza":"","lat":33.716554,"lng":130.458655,"version":"13.0b/18.0a"},{"town":"中央駅前一丁目","koaza":"","lat":33.711626,"lng":130.452714,"version":"13.0b/18.0a"},{"town":"上府北四丁目","koaza":"","lat":33.718408,"lng":130.456183,"version":"13.0b/18.0a"},{"town":"上府北一丁目","koaza":"","lat":33.715057,"lng":130.453166,"version":"13.0b/18.0a"},{"town":"上府北二丁目","koaza":"","lat":33.713075,"lng":130.455744,"version":"13.0b/18.0a"},{"town":"新宮東一丁目","koaza":"","lat":33.70761,"lng":130.449588,"version":"13.0b/18.0a"},{"town":"新宮東二丁目","koaza":"","lat":33.705427,"lng":130.447177,"version":"13.0b/18.0a"},{"town":"新宮東三丁目","koaza":"","lat":33.703716,"lng":130.450297,"version":"13.0b/18.0a"},{"town":"新宮東四丁目","koaza":"","lat":33.705951,"lng":130.45168,"version":"13.0b/18.0a"},{"town":"新宮東五丁目","koaza":"","lat":33.702691,"lng":130.452619,"version":"13.0b/18.0a"},{"town":"三代西一丁目","koaza":"","lat":33.700384,"lng":130.451134,"version":"13.0b/18.0a"},{"town":"三代西二丁目","koaza":"","lat":33.698169,"lng":130.449753,"version":"13.0b/18.0a"},{"town":"大字三代","koaza":"山ノ後","lat":33.698777,"lng":130.450982,"version":"13.0b/18.0a"},{"town":"大字三代","koaza":"壁塗","lat":33.703803,"lng":130.455308,"version":"13.0b/18.0a"},{"town":"大字相島","koaza":"","lat":33.761034,"lng":130.37239,"version":"14.0b/19.0a"},{"town":"大字下府","koaza":"","lat":33.708197,"lng":130.436972,"version":"14.0b/19.0a"},{"town":"大字新宮","koaza":"","lat":33.714863,"lng":130.432087,"version":"14.0b/19.0a"},{"town":"大字立花口","koaza":"","lat":33.684431,"lng":130.483767,"version":"14.0b/19.0a"},{"town":"大字原上","koaza":"","lat":33.688899,"lng":130.458583,"version":"14.0b/19.0a"},{"town":"大字的野","koaza":"","lat":33.691151,"lng":130.494887,"version":"14.0b/19.0a"},{"town":"大字三代","koaza":"","lat":33.698897,"lng":130.457925,"version":"14.0b/19.0a"},{"town":"大字湊","koaza":"","lat":33.713599,"lng":130.423562,"version":"14.0b/19.0a"},{"town":"桜山手一丁目","koaza":"","lat":33.70282,"lng":130.437831,"version":"14.0b/19.0a"},{"town":"桜山手二丁目","koaza":"","lat":33.703967,"lng":130.437784,"version":"14.0b/19.0a"},{"town":"桜山手三丁目","koaza":"","lat":33.706147,"lng":130.438224,"version":"14.0b/19.0a"},{"town":"下府一丁目","koaza":"","lat":33.711331,"lng":130.439864,"version":"14.0b/19.0a"},{"town":"下府二丁目","koaza":"","lat":33.707962,"lng":130.444373,"version":"14.0b/19.0a"},{"town":"下府三丁目","koaza":"","lat":33.708761,"lng":130.440217,"version":"14.0b/19.0a"},{"town":"下府四丁目","koaza":"","lat":33.71077,"lng":130.43609,"version":"14.0b/19.0a"},{"town":"下府五丁目","koaza":"","lat":33.713085,"lng":130.436181,"version":"14.0b/19.0a"},{"town":"下府六丁目","koaza":"","lat":33.714041,"lng":130.435028,"version":"14.0b/19.0a"},{"town":"下府七丁目","koaza":"","lat":33.716572,"lng":130.440565,"version":"14.0b/19.0a"},{"town":"下府八丁目","koaza":"","lat":33.715878,"lng":130.440367,"version":"14.0b/19.0a"},{"town":"中央駅前二丁目","koaza":"","lat":33.709799,"lng":130.451634,"version":"14.0b/19.0a"},{"town":"花立花一丁目","koaza":"","lat":33.692945,"lng":130.478873,"version":"14.0b/19.0a"},{"town":"花立花二丁目","koaza":"","lat":33.691705,"lng":130.475435,"version":"14.0b/19.0a"},{"town":"花立花三丁目","koaza":"","lat":33.693845,"lng":130.47748,"version":"14.0b/19.0a"},{"town":"花立花四丁目","koaza":"","lat":33.693039,"lng":130.47637,"version":"14.0b/19.0a"},{"town":"花立花五丁目","koaza":"","lat":33.693192,"lng":130.475645,"version":"14.0b/19.0a"},{"town":"美咲一丁目","koaza":"","lat":33.704043,"lng":130.442657,"version":"14.0b/19.0a"},{"town":"美咲二丁目","koaza":"","lat":33.701523,"lng":130.440839,"version":"14.0b/19.0a"},{"town":"美咲三丁目","koaza":"","lat":33.70467,"lng":130.440539,"version":"14.0b/19.0a"},{"town":"緑ケ浜一丁目","koaza":"","lat":33.716631,"lng":130.447563,"version":"14.0b/19.0a"},{"town":"緑ケ浜二丁目","koaza":"","lat":33.719917,"lng":130.451349,"version":"14.0b/19.0a"},{"town":"緑ケ浜四丁目","koaza":"","lat":33.712136,"lng":130.446714,"version":"14.0b/19.0a"},{"town":"湊坂一丁目","koaza":"","lat":33.705711,"lng":130.435202,"version":"14.0b/19.0a"},{"town":"湊坂二丁目","koaza":"","lat":33.706545,"lng":130.434169,"version":"14.0b/19.0a"},{"town":"湊坂三丁目","koaza":"","lat":33.70551,"lng":130.433737,"version":"14.0b/19.0a"},{"town":"湊坂四丁目","koaza":"","lat":33.708595,"lng":130.430146,"version":"14.0b/19.0a"},{"town":"湊坂五丁目","koaza":"","lat":33.708893,"lng":130.431638,"version":"14.0b/19.0a"},{"town":"湊坂六丁目","koaza":"","lat":33.709993,"lng":130.430965,"version":"14.0b/19.0a"},{"town":"杜の宮一丁目","koaza":"","lat":33.715594,"lng":130.443589,"version":"14.0b/19.0a"},{"town":"杜の宮二丁目","koaza":"","lat":33.714934,"lng":130.440697,"version":"14.0b/19.0a"},{"town":"杜の宮三丁目","koaza":"","lat":33.712529,"lng":130.439891,"version":"14.0b/19.0a"},{"town":"杜の宮四丁目","koaza":"","lat":33.712658,"lng":130.442784,"version":"14.0b/19.0a"},{"town":"夜臼一丁目","koaza":"","lat":33.700462,"lng":130.443989,"version":"14.0b/19.0a"},{"town":"夜臼二丁目","koaza":"","lat":33.702915,"lng":130.444742,"version":"14.0b/19.0a"},{"town":"夜臼三丁目","koaza":"","lat":33.701642,"lng":130.446409,"version":"14.0b/19.0a"},{"town":"夜臼四丁目","koaza":"","lat":33.699946,"lng":130.445903,"version":"14.0b/19.0a"},{"town":"夜臼五丁目","koaza":"","lat":33.699781,"lng":130.447951,"version":"14.0b/19.0a"},{"town":"夜臼六丁目","koaza":"","lat":33.702632,"lng":130.44829,"version":"14.0b/19.0a"},{"town":"緑ケ浜三丁目","koaza":"","lat":33.717585,"lng":130.452616,"version":"14.0b/19.0a"},{"town":"大字上府","koaza":"","lat":33.707864,"lng":130.459866,"version":"14.0b/19.0a"},{"town":"上府北三丁目","koaza":"","lat":33.716554,"lng":130.458655,"version":"14.0b/19.0a"},{"town":"中央駅前一丁目","koaza":"","lat":33.711626,"lng":130.452714,"version":"14.0b/19.0a"},{"town":"上府北四丁目","koaza":"","lat":33.718408,"lng":130.456183,"version":"14.0b/19.0a"},{"town":"上府北一丁目","koaza":"","lat":33.715057,"lng":130.453166,"version":"14.0b/19.0a"},{"town":"上府北二丁目","koaza":"","lat":33.713075,"lng":130.455744,"version":"14.0b/19.0a"},{"town":"新宮東一丁目","koaza":"","lat":33.70761,"lng":130.449588,"version":"14.0b/19.0a"},{"town":"新宮東二丁目","koaza":"","lat":33.705427,"lng":130.447177,"version":"14.0b/19.0a"},{"town":"新宮東三丁目","koaza":"","lat":33.703716,"lng":130.450297,"version":"14.0b/19.0a"},{"town":"新宮東四丁目","koaza":"","lat":33.705951,"lng":130.45168,"version":"14.0b/19.0a"},{"town":"新宮東五丁目","koaza":"","lat":33.702691,"lng":130.452619,"version":"14.0b/19.0a"},{"town":"三代西一丁目","koaza":"","lat":33.700384,"lng":130.451134,"version":"14.0b/19.0a"},{"town":"三代西二丁目","koaza":"","lat":33.698169,"lng":130.449753,"version":"14.0b/19.0a"},{"town":"大字三代","koaza":"壁塗","lat":33.703803,"lng":130.455308,"version":"14.0b/19.0a"}]