[{"town":"泉中央一丁目","koaza":"","lat":33.715394,"lng":130.978589,"version":"13.0b/18.0a"},{"town":"泉中央二丁目","koaza":"","lat":33.71436,"lng":130.982247,"version":"13.0b/18.0a"},{"town":"泉中央三丁目","koaza":"","lat":33.711213,"lng":130.979812,"version":"13.0b/18.0a"},{"town":"泉中央四丁目","koaza":"","lat":33.70713,"lng":130.978437,"version":"13.0b/18.0a"},{"town":"泉中央五丁目","koaza":"","lat":33.711033,"lng":130.984767,"version":"13.0b/18.0a"},{"town":"泉中央六丁目","koaza":"","lat":33.710266,"lng":130.988351,"version":"13.0b/18.0a"},{"town":"泉中央七丁目","koaza":"","lat":33.705593,"lng":130.985653,"version":"13.0b/18.0a"},{"town":"泉中央八丁目","koaza":"","lat":33.705317,"lng":130.981302,"version":"13.0b/18.0a"},{"town":"内蔵","koaza":"","lat":33.741448,"lng":130.899365,"version":"13.0b/18.0a"},{"town":"大字天生田","koaza":"","lat":33.689182,"lng":130.95631,"version":"13.0b/18.0a"},{"town":"大字稲童","koaza":"","lat":33.696947,"lng":131.025369,"version":"13.0b/18.0a"},{"town":"大字今井","koaza":"","lat":33.726638,"lng":131.001961,"version":"13.0b/18.0a"},{"town":"大字大谷","koaza":"","lat":33.688252,"lng":130.947389,"version":"13.0b/18.0a"},{"town":"大字大野井","koaza":"","lat":33.71746,"lng":130.961978,"version":"13.0b/18.0a"},{"town":"大字大橋","koaza":"","lat":33.73025,"lng":130.988376,"version":"13.0b/18.0a"},{"town":"大字長木","koaza":"","lat":33.719354,"lng":130.936503,"version":"13.0b/18.0a"},{"town":"大字金屋","koaza":"","lat":33.728934,"lng":130.99266,"version":"13.0b/18.0a"},{"town":"大字上検地","koaza":"","lat":33.717955,"lng":130.951629,"version":"13.0b/18.0a"},{"town":"大字上津熊","koaza":"","lat":33.727722,"lng":130.952089,"version":"13.0b/18.0a"},{"town":"大字上稗田","koaza":"","lat":33.697994,"lng":130.934674,"version":"13.0b/18.0a"},{"town":"大字草野","koaza":"","lat":33.734913,"lng":130.957456,"version":"13.0b/18.0a"},{"town":"大字沓尾","koaza":"","lat":33.727888,"lng":131.016298,"version":"13.0b/18.0a"},{"town":"大字下検地","koaza":"","lat":33.721092,"lng":130.950669,"version":"13.0b/18.0a"},{"town":"大字下崎","koaza":"","lat":33.728456,"lng":130.927586,"version":"13.0b/18.0a"},{"town":"大字下津熊","koaza":"","lat":33.731506,"lng":130.962963,"version":"13.0b/18.0a"},{"town":"大字下稗田","koaza":"","lat":33.703536,"lng":130.94471,"version":"13.0b/18.0a"},{"town":"大字須磨園","koaza":"","lat":33.74038,"lng":130.927405,"version":"13.0b/18.0a"},{"town":"大字高来","koaza":"","lat":33.739207,"lng":130.916379,"version":"13.0b/18.0a"},{"town":"大字高瀬","koaza":"","lat":33.703934,"lng":131.00811,"version":"13.0b/18.0a"},{"town":"大字宝山","koaza":"","lat":33.704592,"lng":130.955938,"version":"13.0b/18.0a"},{"town":"大字竹田","koaza":"","lat":33.708695,"lng":130.996026,"version":"13.0b/18.0a"},{"town":"大字長音寺","koaza":"","lat":33.733006,"lng":130.953261,"version":"13.0b/18.0a"},{"town":"大字辻垣","koaza":"","lat":33.704886,"lng":130.999641,"version":"13.0b/18.0a"},{"town":"大字津積","koaza":"","lat":33.680857,"lng":130.933257,"version":"13.0b/18.0a"},{"town":"大字常松","koaza":"","lat":33.737544,"lng":130.92535,"version":"13.0b/18.0a"},{"town":"大字津留","koaza":"","lat":33.715201,"lng":131.001041,"version":"13.0b/18.0a"},{"town":"大字寺畔","koaza":"","lat":33.710328,"lng":130.961085,"version":"13.0b/18.0a"},{"town":"大字道場寺","koaza":"","lat":33.693657,"lng":131.005579,"version":"13.0b/18.0a"},{"town":"大字徳永","koaza":"","lat":33.742866,"lng":130.925717,"version":"13.0b/18.0a"},{"town":"大字長井","koaza":"","lat":33.716242,"lng":131.019738,"version":"13.0b/18.0a"},{"town":"大字長尾","koaza":"","lat":33.734166,"lng":130.927626,"version":"13.0b/18.0a"},{"town":"大字中川","koaza":"","lat":33.710148,"lng":130.9507,"version":"13.0b/18.0a"},{"town":"大字中津熊","koaza":"","lat":33.730691,"lng":130.957899,"version":"13.0b/18.0a"},{"town":"大字西谷","koaza":"","lat":33.68507,"lng":130.939572,"version":"13.0b/18.0a"},{"town":"大字入覚","koaza":"","lat":33.72439,"lng":130.909635,"version":"13.0b/18.0a"},{"town":"大字延永","koaza":"","lat":33.735112,"lng":130.94502,"version":"13.0b/18.0a"},{"town":"大字羽根木","koaza":"","lat":33.717665,"lng":130.988458,"version":"13.0b/18.0a"},{"town":"大字馬場","koaza":"","lat":33.710054,"lng":131.009292,"version":"13.0b/18.0a"},{"town":"大字東徳永","koaza":"","lat":33.686157,"lng":131.010367,"version":"13.0b/18.0a"},{"town":"大字福原","koaza":"","lat":33.703241,"lng":130.96865,"version":"13.0b/18.0a"},{"town":"大字福丸","koaza":"","lat":33.740907,"lng":130.918688,"version":"13.0b/18.0a"},{"town":"大字袋迫","koaza":"","lat":33.680233,"lng":131.012062,"version":"13.0b/18.0a"},{"town":"大字二塚","koaza":"","lat":33.723837,"lng":130.941361,"version":"13.0b/18.0a"},{"town":"大字前田","koaza":"","lat":33.710363,"lng":130.943641,"version":"13.0b/18.0a"},{"town":"大字真菰","koaza":"","lat":33.722141,"lng":131.000606,"version":"13.0b/18.0a"},{"town":"大字松原","koaza":"","lat":33.686105,"lng":131.036471,"version":"13.0b/18.0a"},{"town":"大字蓑島","koaza":"","lat":33.745149,"lng":131.014901,"version":"13.0b/18.0a"},{"town":"大字宮市","koaza":"","lat":33.723242,"lng":130.956426,"version":"13.0b/18.0a"},{"town":"大字元永","koaza":"","lat":33.719215,"lng":131.011416,"version":"13.0b/18.0a"},{"town":"大字矢留","koaza":"","lat":33.693333,"lng":130.96667,"version":"13.0b/18.0a"},{"town":"大字矢山","koaza":"","lat":33.743267,"lng":130.9068,"version":"13.0b/18.0a"},{"town":"大字吉国","koaza":"","lat":33.725819,"lng":130.948337,"version":"13.0b/18.0a"},{"town":"大字流末","koaza":"","lat":33.702676,"lng":130.962286,"version":"13.0b/18.0a"},{"town":"大橋一丁目","koaza":"","lat":33.731179,"lng":130.984681,"version":"13.0b/18.0a"},{"town":"大橋二丁目","koaza":"","lat":33.734772,"lng":130.981115,"version":"13.0b/18.0a"},{"town":"大橋三丁目","koaza":"","lat":33.731268,"lng":130.974933,"version":"13.0b/18.0a"},{"town":"北泉一丁目","koaza":"","lat":33.722369,"lng":130.986366,"version":"13.0b/18.0a"},{"town":"北泉二丁目","koaza":"","lat":33.719525,"lng":130.985183,"version":"13.0b/18.0a"},{"town":"北泉三丁目","koaza":"","lat":33.716092,"lng":130.988361,"version":"13.0b/18.0a"},{"town":"北泉四丁目","koaza":"","lat":33.716044,"lng":130.984128,"version":"13.0b/18.0a"},{"town":"北泉五丁目","koaza":"","lat":33.710362,"lng":130.992335,"version":"13.0b/18.0a"},{"town":"行事一丁目","koaza":"","lat":33.738076,"lng":130.980144,"version":"13.0b/18.0a"},{"town":"行事二丁目","koaza":"","lat":33.740881,"lng":130.978702,"version":"13.0b/18.0a"},{"town":"行事三丁目","koaza":"","lat":33.740242,"lng":130.974293,"version":"13.0b/18.0a"},{"town":"行事四丁目","koaza":"","lat":33.73696,"lng":130.973569,"version":"13.0b/18.0a"},{"town":"行事五丁目","koaza":"","lat":33.733452,"lng":130.973254,"version":"13.0b/18.0a"},{"town":"行事八丁目","koaza":"","lat":33.739286,"lng":130.967094,"version":"13.0b/18.0a"},{"town":"神田町","koaza":"","lat":33.724524,"lng":130.973467,"version":"13.0b/18.0a"},{"town":"千仏","koaza":"","lat":33.748959,"lng":130.902285,"version":"13.0b/18.0a"},{"town":"中央一丁目","koaza":"","lat":33.727142,"lng":130.979939,"version":"13.0b/18.0a"},{"town":"中央二丁目","koaza":"","lat":33.728295,"lng":130.975488,"version":"13.0b/18.0a"},{"town":"中央三丁目","koaza":"","lat":33.727855,"lng":130.972643,"version":"13.0b/18.0a"},{"town":"西泉一丁目","koaza":"","lat":33.71594,"lng":130.974965,"version":"13.0b/18.0a"},{"town":"西泉二丁目","koaza":"","lat":33.712419,"lng":130.974134,"version":"13.0b/18.0a"},{"town":"西泉三丁目","koaza":"","lat":33.710096,"lng":130.973336,"version":"13.0b/18.0a"},{"town":"西泉四丁目","koaza":"","lat":33.707772,"lng":130.972622,"version":"13.0b/18.0a"},{"town":"西泉五丁目","koaza":"","lat":33.705307,"lng":130.97245,"version":"13.0b/18.0a"},{"town":"西泉六丁目","koaza":"","lat":33.71539,"lng":130.970158,"version":"13.0b/18.0a"},{"town":"西泉七丁目","koaza":"","lat":33.710719,"lng":130.968005,"version":"13.0b/18.0a"},{"town":"西宮市三丁目","koaza":"","lat":33.720377,"lng":130.967749,"version":"13.0b/18.0a"},{"town":"西宮市四丁目","koaza":"","lat":33.724592,"lng":130.966103,"version":"13.0b/18.0a"},{"town":"西宮市五丁目","koaza":"","lat":33.725416,"lng":130.960982,"version":"13.0b/18.0a"},{"town":"東泉一丁目","koaza":"","lat":33.707125,"lng":130.993213,"version":"13.0b/18.0a"},{"town":"東泉二丁目","koaza":"","lat":33.704964,"lng":130.989843,"version":"13.0b/18.0a"},{"town":"東泉三丁目","koaza":"","lat":33.701292,"lng":130.987046,"version":"13.0b/18.0a"},{"town":"東泉四丁目","koaza":"","lat":33.701474,"lng":130.992441,"version":"13.0b/18.0a"},{"town":"東泉五丁目","koaza":"","lat":33.696234,"lng":130.991442,"version":"13.0b/18.0a"},{"town":"東大橋一丁目","koaza":"","lat":33.735208,"lng":130.988485,"version":"13.0b/18.0a"},{"town":"東大橋二丁目","koaza":"","lat":33.737588,"lng":130.986395,"version":"13.0b/18.0a"},{"town":"東大橋三丁目","koaza":"","lat":33.737602,"lng":130.993925,"version":"13.0b/18.0a"},{"town":"東大橋四丁目","koaza":"","lat":33.740441,"lng":130.990106,"version":"13.0b/18.0a"},{"town":"東大橋五丁目","koaza":"","lat":33.741832,"lng":130.99582,"version":"13.0b/18.0a"},{"town":"東大橋六丁目","koaza":"","lat":33.744827,"lng":131.001296,"version":"13.0b/18.0a"},{"town":"南泉一丁目","koaza":"","lat":33.703251,"lng":130.975836,"version":"13.0b/18.0a"},{"town":"南泉二丁目","koaza":"","lat":33.698493,"lng":130.976503,"version":"13.0b/18.0a"},{"town":"南泉三丁目","koaza":"","lat":33.694127,"lng":130.97637,"version":"13.0b/18.0a"},{"town":"南泉四丁目","koaza":"","lat":33.698177,"lng":130.981039,"version":"13.0b/18.0a"},{"town":"南泉五丁目","koaza":"","lat":33.697649,"lng":130.984085,"version":"13.0b/18.0a"},{"town":"南泉六丁目","koaza":"","lat":33.692844,"lng":130.981034,"version":"13.0b/18.0a"},{"town":"南泉七丁目","koaza":"","lat":33.694105,"lng":130.988333,"version":"13.0b/18.0a"},{"town":"南大橋一丁目","koaza":"","lat":33.729708,"lng":130.987169,"version":"13.0b/18.0a"},{"town":"南大橋二丁目","koaza":"","lat":33.725886,"lng":130.985562,"version":"13.0b/18.0a"},{"town":"南大橋三丁目","koaza":"","lat":33.723543,"lng":130.981431,"version":"13.0b/18.0a"},{"town":"南大橋四丁目","koaza":"","lat":33.72058,"lng":130.978758,"version":"13.0b/18.0a"},{"town":"南大橋五丁目","koaza":"","lat":33.720554,"lng":130.975199,"version":"13.0b/18.0a"},{"town":"南大橋六丁目","koaza":"","lat":33.720114,"lng":130.97199,"version":"13.0b/18.0a"},{"town":"門樋町","koaza":"","lat":33.724842,"lng":130.976071,"version":"13.0b/18.0a"},{"town":"行事六丁目","koaza":"","lat":33.737712,"lng":130.96963,"version":"13.0b/18.0a"},{"town":"行事七丁目","koaza":"","lat":33.734059,"lng":130.966634,"version":"13.0b/18.0a"},{"town":"宮市町","koaza":"","lat":33.7305,"lng":130.97186,"version":"13.0b/18.0a"},{"town":"西宮市一丁目","koaza":"","lat":33.729549,"lng":130.966845,"version":"13.0b/18.0a"},{"town":"西宮市二丁目","koaza":"","lat":33.725334,"lng":130.970088,"version":"13.0b/18.0a"},{"town":"大字今井","koaza":"平田","lat":33.711788,"lng":130.99501,"version":"13.0b/18.0a"},{"town":"泉中央一丁目","koaza":"","lat":33.715394,"lng":130.978589,"version":"14.0b/19.0a"},{"town":"泉中央二丁目","koaza":"","lat":33.71436,"lng":130.982247,"version":"14.0b/19.0a"},{"town":"泉中央三丁目","koaza":"","lat":33.711213,"lng":130.979812,"version":"14.0b/19.0a"},{"town":"泉中央四丁目","koaza":"","lat":33.70713,"lng":130.978437,"version":"14.0b/19.0a"},{"town":"泉中央五丁目","koaza":"","lat":33.711033,"lng":130.984767,"version":"14.0b/19.0a"},{"town":"泉中央六丁目","koaza":"","lat":33.710266,"lng":130.988351,"version":"14.0b/19.0a"},{"town":"泉中央七丁目","koaza":"","lat":33.705593,"lng":130.985653,"version":"14.0b/19.0a"},{"town":"泉中央八丁目","koaza":"","lat":33.705317,"lng":130.981302,"version":"14.0b/19.0a"},{"town":"内蔵","koaza":"","lat":33.741448,"lng":130.899365,"version":"14.0b/19.0a"},{"town":"大字天生田","koaza":"","lat":33.689182,"lng":130.95631,"version":"14.0b/19.0a"},{"town":"大字稲童","koaza":"","lat":33.696947,"lng":131.025369,"version":"14.0b/19.0a"},{"town":"大字今井","koaza":"","lat":33.726638,"lng":131.001961,"version":"14.0b/19.0a"},{"town":"大字大谷","koaza":"","lat":33.688252,"lng":130.947389,"version":"14.0b/19.0a"},{"town":"大字大野井","koaza":"","lat":33.71746,"lng":130.961978,"version":"14.0b/19.0a"},{"town":"大字大橋","koaza":"","lat":33.73025,"lng":130.988376,"version":"14.0b/19.0a"},{"town":"大字長木","koaza":"","lat":33.719354,"lng":130.936503,"version":"14.0b/19.0a"},{"town":"大字金屋","koaza":"","lat":33.728934,"lng":130.99266,"version":"14.0b/19.0a"},{"town":"大字上検地","koaza":"","lat":33.717955,"lng":130.951629,"version":"14.0b/19.0a"},{"town":"大字上津熊","koaza":"","lat":33.727722,"lng":130.952089,"version":"14.0b/19.0a"},{"town":"大字上稗田","koaza":"","lat":33.697994,"lng":130.934674,"version":"14.0b/19.0a"},{"town":"大字草野","koaza":"","lat":33.734913,"lng":130.957456,"version":"14.0b/19.0a"},{"town":"大字沓尾","koaza":"","lat":33.727888,"lng":131.016298,"version":"14.0b/19.0a"},{"town":"大字下検地","koaza":"","lat":33.721092,"lng":130.950669,"version":"14.0b/19.0a"},{"town":"大字下崎","koaza":"","lat":33.728456,"lng":130.927586,"version":"14.0b/19.0a"},{"town":"大字下津熊","koaza":"","lat":33.731506,"lng":130.962963,"version":"14.0b/19.0a"},{"town":"大字下稗田","koaza":"","lat":33.703536,"lng":130.94471,"version":"14.0b/19.0a"},{"town":"大字須磨園","koaza":"","lat":33.74038,"lng":130.927405,"version":"14.0b/19.0a"},{"town":"大字高来","koaza":"","lat":33.739207,"lng":130.916379,"version":"14.0b/19.0a"},{"town":"大字高瀬","koaza":"","lat":33.703934,"lng":131.00811,"version":"14.0b/19.0a"},{"town":"大字宝山","koaza":"","lat":33.704592,"lng":130.955938,"version":"14.0b/19.0a"},{"town":"大字竹田","koaza":"","lat":33.708695,"lng":130.996026,"version":"14.0b/19.0a"},{"town":"大字長音寺","koaza":"","lat":33.733006,"lng":130.953261,"version":"14.0b/19.0a"},{"town":"大字辻垣","koaza":"","lat":33.704886,"lng":130.999641,"version":"14.0b/19.0a"},{"town":"大字津積","koaza":"","lat":33.680857,"lng":130.933257,"version":"14.0b/19.0a"},{"town":"大字常松","koaza":"","lat":33.737544,"lng":130.92535,"version":"14.0b/19.0a"},{"town":"大字津留","koaza":"","lat":33.715201,"lng":131.001041,"version":"14.0b/19.0a"},{"town":"大字寺畔","koaza":"","lat":33.710328,"lng":130.961085,"version":"14.0b/19.0a"},{"town":"大字道場寺","koaza":"","lat":33.693657,"lng":131.005579,"version":"14.0b/19.0a"},{"town":"大字徳永","koaza":"","lat":33.742866,"lng":130.925717,"version":"14.0b/19.0a"},{"town":"大字長井","koaza":"","lat":33.716242,"lng":131.019738,"version":"14.0b/19.0a"},{"town":"大字長尾","koaza":"","lat":33.734166,"lng":130.927626,"version":"14.0b/19.0a"},{"town":"大字中川","koaza":"","lat":33.710148,"lng":130.9507,"version":"14.0b/19.0a"},{"town":"大字中津熊","koaza":"","lat":33.730691,"lng":130.957899,"version":"14.0b/19.0a"},{"town":"大字西谷","koaza":"","lat":33.68507,"lng":130.939572,"version":"14.0b/19.0a"},{"town":"大字入覚","koaza":"","lat":33.72439,"lng":130.909635,"version":"14.0b/19.0a"},{"town":"大字延永","koaza":"","lat":33.735112,"lng":130.94502,"version":"14.0b/19.0a"},{"town":"大字羽根木","koaza":"","lat":33.717665,"lng":130.988458,"version":"14.0b/19.0a"},{"town":"大字馬場","koaza":"","lat":33.710054,"lng":131.009292,"version":"14.0b/19.0a"},{"town":"大字東徳永","koaza":"","lat":33.686157,"lng":131.010367,"version":"14.0b/19.0a"},{"town":"大字福原","koaza":"","lat":33.703241,"lng":130.96865,"version":"14.0b/19.0a"},{"town":"大字福丸","koaza":"","lat":33.740907,"lng":130.918688,"version":"14.0b/19.0a"},{"town":"大字袋迫","koaza":"","lat":33.680233,"lng":131.012062,"version":"14.0b/19.0a"},{"town":"大字二塚","koaza":"","lat":33.723837,"lng":130.941361,"version":"14.0b/19.0a"},{"town":"大字前田","koaza":"","lat":33.710363,"lng":130.943641,"version":"14.0b/19.0a"},{"town":"大字真菰","koaza":"","lat":33.722141,"lng":131.000606,"version":"14.0b/19.0a"},{"town":"大字松原","koaza":"","lat":33.686105,"lng":131.036471,"version":"14.0b/19.0a"},{"town":"大字蓑島","koaza":"","lat":33.745149,"lng":131.014901,"version":"14.0b/19.0a"},{"town":"大字宮市","koaza":"","lat":33.723242,"lng":130.956426,"version":"14.0b/19.0a"},{"town":"大字元永","koaza":"","lat":33.719215,"lng":131.011416,"version":"14.0b/19.0a"},{"town":"大字矢留","koaza":"","lat":33.693333,"lng":130.96667,"version":"14.0b/19.0a"},{"town":"大字矢山","koaza":"","lat":33.743267,"lng":130.9068,"version":"14.0b/19.0a"},{"town":"大字吉国","koaza":"","lat":33.725819,"lng":130.948337,"version":"14.0b/19.0a"},{"town":"大字流末","koaza":"","lat":33.702676,"lng":130.962286,"version":"14.0b/19.0a"},{"town":"大橋一丁目","koaza":"","lat":33.731179,"lng":130.984681,"version":"14.0b/19.0a"},{"town":"大橋二丁目","koaza":"","lat":33.734772,"lng":130.981115,"version":"14.0b/19.0a"},{"town":"大橋三丁目","koaza":"","lat":33.731268,"lng":130.974933,"version":"14.0b/19.0a"},{"town":"北泉一丁目","koaza":"","lat":33.722369,"lng":130.986366,"version":"14.0b/19.0a"},{"town":"北泉二丁目","koaza":"","lat":33.719525,"lng":130.985183,"version":"14.0b/19.0a"},{"town":"北泉三丁目","koaza":"","lat":33.716092,"lng":130.988361,"version":"14.0b/19.0a"},{"town":"北泉四丁目","koaza":"","lat":33.716044,"lng":130.984128,"version":"14.0b/19.0a"},{"town":"北泉五丁目","koaza":"","lat":33.710362,"lng":130.992335,"version":"14.0b/19.0a"},{"town":"行事一丁目","koaza":"","lat":33.738076,"lng":130.980144,"version":"14.0b/19.0a"},{"town":"行事二丁目","koaza":"","lat":33.740881,"lng":130.978702,"version":"14.0b/19.0a"},{"town":"行事三丁目","koaza":"","lat":33.740242,"lng":130.974293,"version":"14.0b/19.0a"},{"town":"行事四丁目","koaza":"","lat":33.73696,"lng":130.973569,"version":"14.0b/19.0a"},{"town":"行事五丁目","koaza":"","lat":33.733452,"lng":130.973254,"version":"14.0b/19.0a"},{"town":"行事八丁目","koaza":"","lat":33.739286,"lng":130.967094,"version":"14.0b/19.0a"},{"town":"神田町","koaza":"","lat":33.724524,"lng":130.973467,"version":"14.0b/19.0a"},{"town":"千仏","koaza":"","lat":33.748959,"lng":130.902285,"version":"14.0b/19.0a"},{"town":"中央一丁目","koaza":"","lat":33.727142,"lng":130.979939,"version":"14.0b/19.0a"},{"town":"中央二丁目","koaza":"","lat":33.728295,"lng":130.975488,"version":"14.0b/19.0a"},{"town":"中央三丁目","koaza":"","lat":33.727855,"lng":130.972643,"version":"14.0b/19.0a"},{"town":"西泉一丁目","koaza":"","lat":33.71594,"lng":130.974965,"version":"14.0b/19.0a"},{"town":"西泉二丁目","koaza":"","lat":33.712419,"lng":130.974134,"version":"14.0b/19.0a"},{"town":"西泉三丁目","koaza":"","lat":33.710096,"lng":130.973336,"version":"14.0b/19.0a"},{"town":"西泉四丁目","koaza":"","lat":33.707772,"lng":130.972622,"version":"14.0b/19.0a"},{"town":"西泉五丁目","koaza":"","lat":33.705307,"lng":130.97245,"version":"14.0b/19.0a"},{"town":"西泉六丁目","koaza":"","lat":33.71539,"lng":130.970158,"version":"14.0b/19.0a"},{"town":"西泉七丁目","koaza":"","lat":33.710719,"lng":130.968005,"version":"14.0b/19.0a"},{"town":"西宮市三丁目","koaza":"","lat":33.720377,"lng":130.967749,"version":"14.0b/19.0a"},{"town":"西宮市四丁目","koaza":"","lat":33.724592,"lng":130.966103,"version":"14.0b/19.0a"},{"town":"西宮市五丁目","koaza":"","lat":33.725416,"lng":130.960982,"version":"14.0b/19.0a"},{"town":"東泉一丁目","koaza":"","lat":33.707125,"lng":130.993213,"version":"14.0b/19.0a"},{"town":"東泉二丁目","koaza":"","lat":33.704964,"lng":130.989843,"version":"14.0b/19.0a"},{"town":"東泉三丁目","koaza":"","lat":33.701292,"lng":130.987046,"version":"14.0b/19.0a"},{"town":"東泉四丁目","koaza":"","lat":33.701474,"lng":130.992441,"version":"14.0b/19.0a"},{"town":"東泉五丁目","koaza":"","lat":33.696234,"lng":130.991442,"version":"14.0b/19.0a"},{"town":"東大橋一丁目","koaza":"","lat":33.735208,"lng":130.988485,"version":"14.0b/19.0a"},{"town":"東大橋二丁目","koaza":"","lat":33.737588,"lng":130.986395,"version":"14.0b/19.0a"},{"town":"東大橋三丁目","koaza":"","lat":33.737602,"lng":130.993925,"version":"14.0b/19.0a"},{"town":"東大橋四丁目","koaza":"","lat":33.740441,"lng":130.990106,"version":"14.0b/19.0a"},{"town":"東大橋五丁目","koaza":"","lat":33.741832,"lng":130.99582,"version":"14.0b/19.0a"},{"town":"東大橋六丁目","koaza":"","lat":33.744827,"lng":131.001296,"version":"14.0b/19.0a"},{"town":"南泉一丁目","koaza":"","lat":33.703251,"lng":130.975836,"version":"14.0b/19.0a"},{"town":"南泉二丁目","koaza":"","lat":33.698493,"lng":130.976503,"version":"14.0b/19.0a"},{"town":"南泉三丁目","koaza":"","lat":33.694127,"lng":130.97637,"version":"14.0b/19.0a"},{"town":"南泉四丁目","koaza":"","lat":33.698177,"lng":130.981039,"version":"14.0b/19.0a"},{"town":"南泉五丁目","koaza":"","lat":33.697649,"lng":130.984085,"version":"14.0b/19.0a"},{"town":"南泉六丁目","koaza":"","lat":33.692844,"lng":130.981034,"version":"14.0b/19.0a"},{"town":"南泉七丁目","koaza":"","lat":33.694105,"lng":130.988333,"version":"14.0b/19.0a"},{"town":"南大橋一丁目","koaza":"","lat":33.729708,"lng":130.987169,"version":"14.0b/19.0a"},{"town":"南大橋二丁目","koaza":"","lat":33.725886,"lng":130.985562,"version":"14.0b/19.0a"},{"town":"南大橋三丁目","koaza":"","lat":33.723543,"lng":130.981431,"version":"14.0b/19.0a"},{"town":"南大橋四丁目","koaza":"","lat":33.72058,"lng":130.978758,"version":"14.0b/19.0a"},{"town":"南大橋五丁目","koaza":"","lat":33.720554,"lng":130.975199,"version":"14.0b/19.0a"},{"town":"南大橋六丁目","koaza":"","lat":33.720114,"lng":130.97199,"version":"14.0b/19.0a"},{"town":"門樋町","koaza":"","lat":33.724842,"lng":130.976071,"version":"14.0b/19.0a"},{"town":"行事六丁目","koaza":"","lat":33.737712,"lng":130.96963,"version":"14.0b/19.0a"},{"town":"行事七丁目","koaza":"","lat":33.734059,"lng":130.966634,"version":"14.0b/19.0a"},{"town":"宮市町","koaza":"","lat":33.7305,"lng":130.97186,"version":"14.0b/19.0a"},{"town":"西宮市一丁目","koaza":"","lat":33.729549,"lng":130.966845,"version":"14.0b/19.0a"},{"town":"西宮市二丁目","koaza":"","lat":33.725334,"lng":130.970088,"version":"14.0b/19.0a"},{"town":"大字今井","koaza":"平田","lat":33.711788,"lng":130.99501,"version":"14.0b/19.0a"}]