[{"town":"大字猪倉","koaza":"","lat":33.799315,"lng":130.684535,"version":"13.0b/18.0a"},{"town":"大字小牧","koaza":"","lat":33.796378,"lng":130.697049,"version":"13.0b/18.0a"},{"town":"大字上木月","koaza":"","lat":33.806394,"lng":130.68769,"version":"13.0b/18.0a"},{"town":"大字木月","koaza":"","lat":33.808976,"lng":130.675583,"version":"13.0b/18.0a"},{"town":"大字永谷","koaza":"","lat":33.798622,"lng":130.641967,"version":"13.0b/18.0a"},{"town":"大字中山","koaza":"","lat":33.782242,"lng":130.688328,"version":"13.0b/18.0a"},{"town":"大字新北","koaza":"","lat":33.775057,"lng":130.676378,"version":"13.0b/18.0a"},{"town":"大字新延","koaza":"","lat":33.787687,"lng":130.657323,"version":"13.0b/18.0a"},{"town":"大字長谷","koaza":"","lat":33.756504,"lng":130.676357,"version":"13.0b/18.0a"},{"town":"大字古門","koaza":"","lat":33.807992,"lng":130.652692,"version":"13.0b/18.0a"},{"town":"大字室木","koaza":"","lat":33.750544,"lng":130.664086,"version":"13.0b/18.0a"},{"town":"大字八尋","koaza":"","lat":33.766788,"lng":130.660837,"version":"13.0b/18.0a"},{"town":"弥生一丁目","koaza":"","lat":33.802443,"lng":130.678922,"version":"13.0b/18.0a"},{"town":"弥生二丁目","koaza":"","lat":33.801523,"lng":130.68084,"version":"13.0b/18.0a"},{"town":"弥生三丁目","koaza":"","lat":33.80007,"lng":130.67949,"version":"13.0b/18.0a"},{"town":"大字小牧","koaza":"本村","lat":33.794963,"lng":130.696522,"version":"13.0b/18.0a"},{"town":"大字猪倉","koaza":"","lat":33.799315,"lng":130.684535,"version":"14.0b/19.0a"},{"town":"大字小牧","koaza":"","lat":33.796378,"lng":130.697049,"version":"14.0b/19.0a"},{"town":"大字上木月","koaza":"","lat":33.806394,"lng":130.68769,"version":"14.0b/19.0a"},{"town":"大字木月","koaza":"","lat":33.808976,"lng":130.675583,"version":"14.0b/19.0a"},{"town":"大字永谷","koaza":"","lat":33.798622,"lng":130.641967,"version":"14.0b/19.0a"},{"town":"大字中山","koaza":"","lat":33.782242,"lng":130.688328,"version":"14.0b/19.0a"},{"town":"大字新北","koaza":"","lat":33.775057,"lng":130.676378,"version":"14.0b/19.0a"},{"town":"大字新延","koaza":"","lat":33.787687,"lng":130.657323,"version":"14.0b/19.0a"},{"town":"大字長谷","koaza":"","lat":33.756504,"lng":130.676357,"version":"14.0b/19.0a"},{"town":"大字古門","koaza":"","lat":33.807992,"lng":130.652692,"version":"14.0b/19.0a"},{"town":"大字室木","koaza":"","lat":33.750544,"lng":130.664086,"version":"14.0b/19.0a"},{"town":"大字八尋","koaza":"","lat":33.766788,"lng":130.660837,"version":"14.0b/19.0a"},{"town":"弥生一丁目","koaza":"","lat":33.802443,"lng":130.678922,"version":"14.0b/19.0a"},{"town":"弥生二丁目","koaza":"","lat":33.801523,"lng":130.68084,"version":"14.0b/19.0a"},{"town":"弥生三丁目","koaza":"","lat":33.80007,"lng":130.67949,"version":"14.0b/19.0a"},{"town":"大字小牧","koaza":"本村","lat":33.794963,"lng":130.696522,"version":"14.0b/19.0a"}]