[{"town":"阿島","koaza":"","lat":33.958125,"lng":133.3575,"version":"13.0b/18.0a"},{"town":"阿島一丁目","koaza":"","lat":33.979888,"lng":133.35193,"version":"13.0b/18.0a"},{"town":"阿島二丁目","koaza":"","lat":33.975896,"lng":133.354776,"version":"13.0b/18.0a"},{"town":"阿島三丁目","koaza":"","lat":33.96985,"lng":133.35839,"version":"13.0b/18.0a"},{"town":"阿島四丁目","koaza":"","lat":33.964712,"lng":133.368905,"version":"13.0b/18.0a"},{"town":"泉池町","koaza":"","lat":33.966016,"lng":133.275071,"version":"13.0b/18.0a"},{"town":"泉宮町","koaza":"","lat":33.963598,"lng":133.275914,"version":"13.0b/18.0a"},{"town":"磯浦町","koaza":"","lat":33.951649,"lng":133.247762,"version":"13.0b/18.0a"},{"town":"一宮町一丁目","koaza":"","lat":33.959889,"lng":133.282427,"version":"13.0b/18.0a"},{"town":"一宮町二丁目","koaza":"","lat":33.958402,"lng":133.277406,"version":"13.0b/18.0a"},{"town":"宇高町一丁目","koaza":"","lat":33.968682,"lng":133.304991,"version":"13.0b/18.0a"},{"town":"宇高町二丁目","koaza":"","lat":33.973091,"lng":133.304128,"version":"13.0b/18.0a"},{"town":"宇高町三丁目","koaza":"","lat":33.97729,"lng":133.302888,"version":"13.0b/18.0a"},{"town":"宇高町四丁目","koaza":"","lat":33.98057,"lng":133.302787,"version":"13.0b/18.0a"},{"town":"宇高町五丁目","koaza":"","lat":33.974334,"lng":133.308428,"version":"13.0b/18.0a"},{"town":"上原一丁目","koaza":"","lat":33.924406,"lng":133.284569,"version":"13.0b/18.0a"},{"town":"上原二丁目","koaza":"","lat":33.920345,"lng":133.285418,"version":"13.0b/18.0a"},{"town":"上原三丁目","koaza":"","lat":33.922474,"lng":133.281583,"version":"13.0b/18.0a"},{"town":"上原四丁目","koaza":"","lat":33.916344,"lng":133.283495,"version":"13.0b/18.0a"},{"town":"江口町","koaza":"","lat":33.956735,"lng":133.272403,"version":"13.0b/18.0a"},{"town":"王子町","koaza":"","lat":33.953106,"lng":133.263551,"version":"13.0b/18.0a"},{"town":"大江町","koaza":"","lat":33.972084,"lng":133.271685,"version":"13.0b/18.0a"},{"town":"大島","koaza":"","lat":33.999123,"lng":133.360169,"version":"13.0b/18.0a"},{"town":"大生院","koaza":"","lat":33.899194,"lng":133.257014,"version":"13.0b/18.0a"},{"town":"御蔵町","koaza":"","lat":33.918061,"lng":133.287904,"version":"13.0b/18.0a"},{"town":"落神町","koaza":"","lat":33.965442,"lng":133.321333,"version":"13.0b/18.0a"},{"town":"金子","koaza":"","lat":33.946041,"lng":133.260748,"version":"13.0b/18.0a"},{"town":"上泉町","koaza":"","lat":33.936019,"lng":133.307329,"version":"13.0b/18.0a"},{"town":"観音原町","koaza":"","lat":33.95313,"lng":133.315398,"version":"13.0b/18.0a"},{"town":"菊本町一丁目","koaza":"","lat":33.976929,"lng":133.277754,"version":"13.0b/18.0a"},{"town":"菊本町二丁目","koaza":"","lat":33.979412,"lng":133.282576,"version":"13.0b/18.0a"},{"town":"喜光地町一丁目","koaza":"","lat":33.934433,"lng":133.298869,"version":"13.0b/18.0a"},{"town":"喜光地町二丁目","koaza":"","lat":33.932898,"lng":133.300377,"version":"13.0b/18.0a"},{"town":"岸の上町一丁目","koaza":"","lat":33.945724,"lng":133.308214,"version":"13.0b/18.0a"},{"town":"岸の上町二丁目","koaza":"","lat":33.942569,"lng":133.312002,"version":"13.0b/18.0a"},{"town":"北内町一丁目","koaza":"","lat":33.931842,"lng":133.306134,"version":"13.0b/18.0a"},{"town":"北内町二丁目","koaza":"","lat":33.934005,"lng":133.310037,"version":"13.0b/18.0a"},{"town":"北内町三丁目","koaza":"","lat":33.929894,"lng":133.311222,"version":"13.0b/18.0a"},{"town":"北内町四丁目","koaza":"","lat":33.9266,"lng":133.308664,"version":"13.0b/18.0a"},{"town":"北新町","koaza":"","lat":33.959605,"lng":133.271384,"version":"13.0b/18.0a"},{"town":"清住町","koaza":"","lat":33.961495,"lng":133.311543,"version":"13.0b/18.0a"},{"town":"楠崎一丁目","koaza":"","lat":33.973721,"lng":133.337546,"version":"13.0b/18.0a"},{"town":"楠崎二丁目","koaza":"","lat":33.971478,"lng":133.334492,"version":"13.0b/18.0a"},{"town":"久保田町一丁目","koaza":"","lat":33.956818,"lng":133.28341,"version":"13.0b/18.0a"},{"town":"久保田町二丁目","koaza":"","lat":33.955581,"lng":133.278255,"version":"13.0b/18.0a"},{"town":"久保田町三丁目","koaza":"","lat":33.954432,"lng":133.28377,"version":"13.0b/18.0a"},{"town":"黒島","koaza":"","lat":33.987724,"lng":133.346379,"version":"13.0b/18.0a"},{"town":"黒島一丁目","koaza":"","lat":33.986873,"lng":133.339668,"version":"13.0b/18.0a"},{"town":"黒島二丁目","koaza":"","lat":33.987956,"lng":133.342595,"version":"13.0b/18.0a"},{"town":"郷","koaza":"","lat":33.963987,"lng":133.335652,"version":"13.0b/18.0a"},{"town":"郷一丁目","koaza":"","lat":33.962913,"lng":133.305827,"version":"13.0b/18.0a"},{"town":"郷二丁目","koaza":"","lat":33.965452,"lng":133.309763,"version":"13.0b/18.0a"},{"town":"郷三丁目","koaza":"","lat":33.964121,"lng":133.312073,"version":"13.0b/18.0a"},{"town":"郷四丁目","koaza":"","lat":33.958434,"lng":133.305135,"version":"13.0b/18.0a"},{"town":"郷五丁目","koaza":"","lat":33.957849,"lng":133.30156,"version":"13.0b/18.0a"},{"town":"神郷一丁目","koaza":"","lat":33.967343,"lng":133.316939,"version":"13.0b/18.0a"},{"town":"神郷二丁目","koaza":"","lat":33.964583,"lng":133.316352,"version":"13.0b/18.0a"},{"town":"河内町","koaza":"","lat":33.953032,"lng":133.273593,"version":"13.0b/18.0a"},{"town":"光明寺一丁目","koaza":"","lat":33.945768,"lng":133.327638,"version":"13.0b/18.0a"},{"town":"光明寺二丁目","koaza":"","lat":33.951901,"lng":133.333459,"version":"13.0b/18.0a"},{"town":"国領一丁目","koaza":"","lat":33.937631,"lng":133.31832,"version":"13.0b/18.0a"},{"town":"寿町","koaza":"","lat":33.941149,"lng":133.301218,"version":"13.0b/18.0a"},{"town":"西連寺町一丁目","koaza":"","lat":33.926805,"lng":133.298163,"version":"13.0b/18.0a"},{"town":"西連寺町二丁目","koaza":"","lat":33.922841,"lng":133.299872,"version":"13.0b/18.0a"},{"town":"坂井町一丁目","koaza":"","lat":33.947558,"lng":133.290381,"version":"13.0b/18.0a"},{"town":"坂井町二丁目","koaza":"","lat":33.948734,"lng":133.29345,"version":"13.0b/18.0a"},{"town":"坂井町三丁目","koaza":"","lat":33.945847,"lng":133.294025,"version":"13.0b/18.0a"},{"town":"桜木町","koaza":"","lat":33.968147,"lng":133.299844,"version":"13.0b/18.0a"},{"town":"沢津町一丁目","koaza":"","lat":33.974403,"lng":133.294773,"version":"13.0b/18.0a"},{"town":"沢津町二丁目","koaza":"","lat":33.976004,"lng":133.298108,"version":"13.0b/18.0a"},{"town":"沢津町三丁目","koaza":"","lat":33.97739,"lng":133.294923,"version":"13.0b/18.0a"},{"town":"繁本町","koaza":"","lat":33.962307,"lng":133.281577,"version":"13.0b/18.0a"},{"town":"七宝台町","koaza":"","lat":33.942027,"lng":133.328722,"version":"13.0b/18.0a"},{"town":"東雲町一丁目","koaza":"","lat":33.966993,"lng":133.29528,"version":"13.0b/18.0a"},{"town":"東雲町二丁目","koaza":"","lat":33.963595,"lng":133.299433,"version":"13.0b/18.0a"},{"town":"東雲町三丁目","koaza":"","lat":33.9611,"lng":133.300771,"version":"13.0b/18.0a"},{"town":"篠場町","koaza":"","lat":33.923748,"lng":133.295554,"version":"13.0b/18.0a"},{"town":"清水町","koaza":"","lat":33.978401,"lng":133.291243,"version":"13.0b/18.0a"},{"town":"下泉町一丁目","koaza":"","lat":33.948818,"lng":133.300471,"version":"13.0b/18.0a"},{"town":"下泉町二丁目","koaza":"","lat":33.94897,"lng":133.306153,"version":"13.0b/18.0a"},{"town":"庄内町一丁目","koaza":"","lat":33.957124,"lng":133.288746,"version":"13.0b/18.0a"},{"town":"庄内町二丁目","koaza":"","lat":33.958362,"lng":133.295128,"version":"13.0b/18.0a"},{"town":"庄内町三丁目","koaza":"","lat":33.955969,"lng":133.296355,"version":"13.0b/18.0a"},{"town":"庄内町四丁目","koaza":"","lat":33.952338,"lng":133.28902,"version":"13.0b/18.0a"},{"town":"庄内町五丁目","koaza":"","lat":33.952358,"lng":133.292873,"version":"13.0b/18.0a"},{"town":"庄内町六丁目","koaza":"","lat":33.953675,"lng":133.298273,"version":"13.0b/18.0a"},{"town":"城下町","koaza":"","lat":33.952488,"lng":133.30305,"version":"13.0b/18.0a"},{"town":"新須賀町一丁目","koaza":"","lat":33.965438,"lng":133.287243,"version":"13.0b/18.0a"},{"town":"新須賀町二丁目","koaza":"","lat":33.967888,"lng":133.286051,"version":"13.0b/18.0a"},{"town":"新須賀町三丁目","koaza":"","lat":33.970112,"lng":133.284847,"version":"13.0b/18.0a"},{"town":"新須賀町四丁目","koaza":"","lat":33.970479,"lng":133.288712,"version":"13.0b/18.0a"},{"town":"新田町一丁目","koaza":"","lat":33.958969,"lng":133.264584,"version":"13.0b/18.0a"},{"town":"新田町二丁目","koaza":"","lat":33.955227,"lng":133.261282,"version":"13.0b/18.0a"},{"town":"新田町三丁目","koaza":"","lat":33.956629,"lng":133.259399,"version":"13.0b/18.0a"},{"town":"角野","koaza":"","lat":33.928127,"lng":133.320225,"version":"13.0b/18.0a"},{"town":"角野新田町一丁目","koaza":"","lat":33.929348,"lng":133.317164,"version":"13.0b/18.0a"},{"town":"角野新田町二丁目","koaza":"","lat":33.927199,"lng":133.313714,"version":"13.0b/18.0a"},{"town":"角野新田町三丁目","koaza":"","lat":33.923881,"lng":133.311069,"version":"13.0b/18.0a"},{"town":"瀬戸町","koaza":"","lat":33.944717,"lng":133.3005,"version":"13.0b/18.0a"},{"town":"惣開町","koaza":"","lat":33.96896,"lng":133.254786,"version":"13.0b/18.0a"},{"town":"大永山","koaza":"","lat":33.873935,"lng":133.298343,"version":"13.0b/18.0a"},{"town":"高木町","koaza":"","lat":33.951505,"lng":133.285612,"version":"13.0b/18.0a"},{"town":"高田一丁目","koaza":"","lat":33.968135,"lng":133.310211,"version":"13.0b/18.0a"},{"town":"高田二丁目","koaza":"","lat":33.970654,"lng":133.309808,"version":"13.0b/18.0a"},{"town":"高津町","koaza":"","lat":33.972074,"lng":133.299506,"version":"13.0b/18.0a"},{"town":"滝の宮町","koaza":"","lat":33.945056,"lng":133.281811,"version":"13.0b/18.0a"},{"town":"多喜浜一丁目","koaza":"","lat":33.974269,"lng":133.334282,"version":"13.0b/18.0a"},{"town":"多喜浜二丁目","koaza":"","lat":33.977552,"lng":133.330658,"version":"13.0b/18.0a"},{"town":"多喜浜三丁目","koaza":"","lat":33.978679,"lng":133.336154,"version":"13.0b/18.0a"},{"town":"多喜浜四丁目","koaza":"","lat":33.974208,"lng":133.343208,"version":"13.0b/18.0a"},{"town":"多喜浜五丁目","koaza":"","lat":33.974249,"lng":133.349089,"version":"13.0b/18.0a"},{"town":"多喜浜六丁目","koaza":"","lat":33.979602,"lng":133.343692,"version":"13.0b/18.0a"},{"town":"立川町","koaza":"","lat":33.892712,"lng":133.315656,"version":"13.0b/18.0a"},{"town":"田所町","koaza":"","lat":33.96304,"lng":133.288167,"version":"13.0b/18.0a"},{"town":"種子川町","koaza":"","lat":33.923503,"lng":133.315525,"version":"13.0b/18.0a"},{"town":"種子川山","koaza":"","lat":33.89927,"lng":133.338529,"version":"13.0b/18.0a"},{"town":"田の上一丁目","koaza":"","lat":33.970045,"lng":133.315072,"version":"13.0b/18.0a"},{"town":"田の上二丁目","koaza":"","lat":33.971971,"lng":133.318603,"version":"13.0b/18.0a"},{"town":"田の上三丁目","koaza":"","lat":33.975659,"lng":133.3187,"version":"13.0b/18.0a"},{"town":"田の上四丁目","koaza":"","lat":33.97419,"lng":133.313584,"version":"13.0b/18.0a"},{"town":"土橋一丁目","koaza":"","lat":33.935951,"lng":133.290919,"version":"13.0b/18.0a"},{"town":"土橋二丁目","koaza":"","lat":33.931111,"lng":133.293973,"version":"13.0b/18.0a"},{"town":"東田一丁目","koaza":"","lat":33.946951,"lng":133.315367,"version":"13.0b/18.0a"},{"town":"東田二丁目","koaza":"","lat":33.941244,"lng":133.318793,"version":"13.0b/18.0a"},{"town":"東田三丁目","koaza":"","lat":33.945007,"lng":133.321448,"version":"13.0b/18.0a"},{"town":"徳常町","koaza":"","lat":33.964347,"lng":133.280812,"version":"13.0b/18.0a"},{"town":"外山町","koaza":"","lat":33.940416,"lng":133.310427,"version":"13.0b/18.0a"},{"town":"長岩町","koaza":"","lat":33.978997,"lng":133.326385,"version":"13.0b/18.0a"},{"town":"中須賀町一丁目","koaza":"","lat":33.962532,"lng":133.27279,"version":"13.0b/18.0a"},{"town":"中須賀町二丁目","koaza":"","lat":33.966658,"lng":133.27131,"version":"13.0b/18.0a"},{"town":"中筋町一丁目","koaza":"","lat":33.926579,"lng":133.305471,"version":"13.0b/18.0a"},{"town":"中筋町二丁目","koaza":"","lat":33.921912,"lng":133.305886,"version":"13.0b/18.0a"},{"town":"中西町","koaza":"","lat":33.92606,"lng":133.302521,"version":"13.0b/18.0a"},{"town":"中萩町","koaza":"","lat":33.928934,"lng":133.282661,"version":"13.0b/18.0a"},{"town":"中村一丁目","koaza":"","lat":33.931998,"lng":133.287991,"version":"13.0b/18.0a"},{"town":"中村二丁目","koaza":"","lat":33.929506,"lng":133.289547,"version":"13.0b/18.0a"},{"town":"中村三丁目","koaza":"","lat":33.926717,"lng":133.291007,"version":"13.0b/18.0a"},{"town":"中村四丁目","koaza":"","lat":33.923185,"lng":133.289728,"version":"13.0b/18.0a"},{"town":"中村松木一丁目","koaza":"","lat":33.941639,"lng":133.28985,"version":"13.0b/18.0a"},{"town":"中村松木二丁目","koaza":"","lat":33.938647,"lng":133.289517,"version":"13.0b/18.0a"},{"town":"新居浜乙","koaza":"","lat":33.943999,"lng":133.239703,"version":"13.0b/18.0a"},{"town":"西泉町","koaza":"","lat":33.930233,"lng":133.29762,"version":"13.0b/18.0a"},{"town":"西喜光地町","koaza":"","lat":33.937527,"lng":133.295415,"version":"13.0b/18.0a"},{"town":"西の土居町一丁目","koaza":"","lat":33.951014,"lng":133.28231,"version":"13.0b/18.0a"},{"town":"西の土居町二丁目","koaza":"","lat":33.950542,"lng":133.277428,"version":"13.0b/18.0a"},{"town":"西原町一丁目","koaza":"","lat":33.963327,"lng":133.269738,"version":"13.0b/18.0a"},{"town":"西原町二丁目","koaza":"","lat":33.96539,"lng":133.269135,"version":"13.0b/18.0a"},{"town":"西原町三丁目","koaza":"","lat":33.965406,"lng":133.265818,"version":"13.0b/18.0a"},{"town":"西町","koaza":"","lat":33.96793,"lng":133.274985,"version":"13.0b/18.0a"},{"town":"荷内町","koaza":"","lat":33.978062,"lng":133.376726,"version":"13.0b/18.0a"},{"town":"萩生","koaza":"","lat":33.911838,"lng":133.268311,"version":"13.0b/18.0a"},{"town":"八幡一丁目","koaza":"","lat":33.978043,"lng":133.309923,"version":"13.0b/18.0a"},{"town":"八幡二丁目","koaza":"","lat":33.982083,"lng":133.309715,"version":"13.0b/18.0a"},{"town":"八幡三丁目","koaza":"","lat":33.983344,"lng":133.315261,"version":"13.0b/18.0a"},{"town":"垣生","koaza":"","lat":33.9879,"lng":133.326094,"version":"13.0b/18.0a"},{"town":"垣生一丁目","koaza":"","lat":33.980727,"lng":133.316235,"version":"13.0b/18.0a"},{"town":"垣生二丁目","koaza":"","lat":33.978209,"lng":133.317297,"version":"13.0b/18.0a"},{"town":"垣生三丁目","koaza":"","lat":33.984664,"lng":133.330434,"version":"13.0b/18.0a"},{"town":"垣生四丁目","koaza":"","lat":33.98368,"lng":133.319845,"version":"13.0b/18.0a"},{"town":"垣生五丁目","koaza":"","lat":33.989129,"lng":133.320611,"version":"13.0b/18.0a"},{"town":"垣生六丁目","koaza":"","lat":33.987893,"lng":133.318059,"version":"13.0b/18.0a"},{"town":"平形町","koaza":"","lat":33.962381,"lng":133.29387,"version":"13.0b/18.0a"},{"town":"船木","koaza":"","lat":33.925772,"lng":133.343366,"version":"13.0b/18.0a"},{"town":"別子山","koaza":"","lat":33.85378,"lng":133.386529,"version":"13.0b/18.0a"},{"town":"星越町","koaza":"","lat":33.947546,"lng":133.269782,"version":"13.0b/18.0a"},{"town":"星原町","koaza":"","lat":33.939867,"lng":133.30454,"version":"13.0b/18.0a"},{"town":"本郷一丁目","koaza":"","lat":33.935817,"lng":133.28608,"version":"13.0b/18.0a"},{"town":"本郷二丁目","koaza":"","lat":33.935849,"lng":133.28107,"version":"13.0b/18.0a"},{"town":"本郷三丁目","koaza":"","lat":33.932823,"lng":133.281576,"version":"13.0b/18.0a"},{"town":"前田町","koaza":"","lat":33.955668,"lng":133.266842,"version":"13.0b/18.0a"},{"town":"政枝町一丁目","koaza":"","lat":33.947459,"lng":133.286506,"version":"13.0b/18.0a"},{"town":"政枝町二丁目","koaza":"","lat":33.94451,"lng":133.28731,"version":"13.0b/18.0a"},{"town":"政枝町三丁目","koaza":"","lat":33.941494,"lng":133.284852,"version":"13.0b/18.0a"},{"town":"又野一丁目","koaza":"","lat":33.971004,"lng":133.325672,"version":"13.0b/18.0a"},{"town":"又野二丁目","koaza":"","lat":33.967689,"lng":133.325578,"version":"13.0b/18.0a"},{"town":"又野三丁目","koaza":"","lat":33.969068,"lng":133.327011,"version":"13.0b/18.0a"},{"town":"松木町","koaza":"","lat":33.942407,"lng":133.292877,"version":"13.0b/18.0a"},{"town":"松の木町","koaza":"","lat":33.98009,"lng":133.296061,"version":"13.0b/18.0a"},{"town":"松原町","koaza":"","lat":33.9392,"lng":133.298578,"version":"13.0b/18.0a"},{"town":"松神子一丁目","koaza":"","lat":33.97242,"lng":133.321848,"version":"13.0b/18.0a"},{"town":"松神子二丁目","koaza":"","lat":33.974087,"lng":133.324035,"version":"13.0b/18.0a"},{"town":"松神子三丁目","koaza":"","lat":33.975175,"lng":133.326771,"version":"13.0b/18.0a"},{"town":"松神子四丁目","koaza":"","lat":33.97666,"lng":133.322227,"version":"13.0b/18.0a"},{"town":"港町","koaza":"","lat":33.970667,"lng":133.278969,"version":"13.0b/18.0a"},{"town":"南小松原町","koaza":"","lat":33.971653,"lng":133.293776,"version":"13.0b/18.0a"},{"town":"宮西町","koaza":"","lat":33.960891,"lng":133.276819,"version":"13.0b/18.0a"},{"town":"宮原町","koaza":"","lat":33.93067,"lng":133.301597,"version":"13.0b/18.0a"},{"town":"八雲町","koaza":"","lat":33.960762,"lng":133.289666,"version":"13.0b/18.0a"},{"town":"山田町","koaza":"","lat":33.918573,"lng":133.293443,"version":"13.0b/18.0a"},{"town":"山根町","koaza":"","lat":33.919206,"lng":133.300386,"version":"13.0b/18.0a"},{"town":"横水町","koaza":"","lat":33.938991,"lng":133.2819,"version":"13.0b/18.0a"},{"town":"吉岡町","koaza":"","lat":33.933405,"lng":133.313734,"version":"13.0b/18.0a"},{"town":"若水町一丁目","koaza":"","lat":33.966487,"lng":133.280013,"version":"13.0b/18.0a"},{"town":"若水町二丁目","koaza":"","lat":33.96832,"lng":133.280025,"version":"13.0b/18.0a"},{"town":"萩生","koaza":"岸ノ下","lat":33.927408,"lng":133.263281,"version":"13.0b/18.0a"},{"town":"船木","koaza":"池田","lat":33.939464,"lng":133.331824,"version":"13.0b/18.0a"},{"town":"船木","koaza":"長野","lat":33.94444,"lng":133.345723,"version":"13.0b/18.0a"},{"town":"阿島","koaza":"","lat":33.958125,"lng":133.3575,"version":"14.0b/19.0a"},{"town":"阿島一丁目","koaza":"","lat":33.979888,"lng":133.35193,"version":"14.0b/19.0a"},{"town":"阿島二丁目","koaza":"","lat":33.975896,"lng":133.354776,"version":"14.0b/19.0a"},{"town":"阿島三丁目","koaza":"","lat":33.96985,"lng":133.35839,"version":"14.0b/19.0a"},{"town":"阿島四丁目","koaza":"","lat":33.964712,"lng":133.368905,"version":"14.0b/19.0a"},{"town":"泉池町","koaza":"","lat":33.966016,"lng":133.275071,"version":"14.0b/19.0a"},{"town":"泉宮町","koaza":"","lat":33.963598,"lng":133.275914,"version":"14.0b/19.0a"},{"town":"磯浦町","koaza":"","lat":33.951649,"lng":133.247762,"version":"14.0b/19.0a"},{"town":"一宮町一丁目","koaza":"","lat":33.959889,"lng":133.282427,"version":"14.0b/19.0a"},{"town":"一宮町二丁目","koaza":"","lat":33.958402,"lng":133.277406,"version":"14.0b/19.0a"},{"town":"宇高町一丁目","koaza":"","lat":33.968682,"lng":133.304991,"version":"14.0b/19.0a"},{"town":"宇高町二丁目","koaza":"","lat":33.973091,"lng":133.304128,"version":"14.0b/19.0a"},{"town":"宇高町三丁目","koaza":"","lat":33.97729,"lng":133.302888,"version":"14.0b/19.0a"},{"town":"宇高町四丁目","koaza":"","lat":33.98057,"lng":133.302787,"version":"14.0b/19.0a"},{"town":"宇高町五丁目","koaza":"","lat":33.974334,"lng":133.308428,"version":"14.0b/19.0a"},{"town":"上原一丁目","koaza":"","lat":33.924406,"lng":133.284569,"version":"14.0b/19.0a"},{"town":"上原二丁目","koaza":"","lat":33.920345,"lng":133.285418,"version":"14.0b/19.0a"},{"town":"上原三丁目","koaza":"","lat":33.922474,"lng":133.281583,"version":"14.0b/19.0a"},{"town":"上原四丁目","koaza":"","lat":33.916344,"lng":133.283495,"version":"14.0b/19.0a"},{"town":"江口町","koaza":"","lat":33.956735,"lng":133.272403,"version":"14.0b/19.0a"},{"town":"王子町","koaza":"","lat":33.953106,"lng":133.263551,"version":"14.0b/19.0a"},{"town":"大江町","koaza":"","lat":33.972084,"lng":133.271685,"version":"14.0b/19.0a"},{"town":"大島","koaza":"","lat":33.999123,"lng":133.360169,"version":"14.0b/19.0a"},{"town":"大生院","koaza":"","lat":33.899194,"lng":133.257014,"version":"14.0b/19.0a"},{"town":"御蔵町","koaza":"","lat":33.918061,"lng":133.287904,"version":"14.0b/19.0a"},{"town":"落神町","koaza":"","lat":33.965442,"lng":133.321333,"version":"14.0b/19.0a"},{"town":"金子","koaza":"","lat":33.946041,"lng":133.260748,"version":"14.0b/19.0a"},{"town":"上泉町","koaza":"","lat":33.936019,"lng":133.307329,"version":"14.0b/19.0a"},{"town":"観音原町","koaza":"","lat":33.95313,"lng":133.315398,"version":"14.0b/19.0a"},{"town":"菊本町一丁目","koaza":"","lat":33.976929,"lng":133.277754,"version":"14.0b/19.0a"},{"town":"菊本町二丁目","koaza":"","lat":33.979412,"lng":133.282576,"version":"14.0b/19.0a"},{"town":"喜光地町一丁目","koaza":"","lat":33.934433,"lng":133.298869,"version":"14.0b/19.0a"},{"town":"喜光地町二丁目","koaza":"","lat":33.932898,"lng":133.300377,"version":"14.0b/19.0a"},{"town":"岸の上町一丁目","koaza":"","lat":33.945724,"lng":133.308214,"version":"14.0b/19.0a"},{"town":"岸の上町二丁目","koaza":"","lat":33.942569,"lng":133.312002,"version":"14.0b/19.0a"},{"town":"北内町一丁目","koaza":"","lat":33.931842,"lng":133.306134,"version":"14.0b/19.0a"},{"town":"北内町二丁目","koaza":"","lat":33.934005,"lng":133.310037,"version":"14.0b/19.0a"},{"town":"北内町三丁目","koaza":"","lat":33.929894,"lng":133.311222,"version":"14.0b/19.0a"},{"town":"北内町四丁目","koaza":"","lat":33.9266,"lng":133.308664,"version":"14.0b/19.0a"},{"town":"北新町","koaza":"","lat":33.959605,"lng":133.271384,"version":"14.0b/19.0a"},{"town":"清住町","koaza":"","lat":33.961495,"lng":133.311543,"version":"14.0b/19.0a"},{"town":"楠崎一丁目","koaza":"","lat":33.973721,"lng":133.337546,"version":"14.0b/19.0a"},{"town":"楠崎二丁目","koaza":"","lat":33.971478,"lng":133.334492,"version":"14.0b/19.0a"},{"town":"久保田町一丁目","koaza":"","lat":33.956818,"lng":133.28341,"version":"14.0b/19.0a"},{"town":"久保田町二丁目","koaza":"","lat":33.955581,"lng":133.278255,"version":"14.0b/19.0a"},{"town":"久保田町三丁目","koaza":"","lat":33.954432,"lng":133.28377,"version":"14.0b/19.0a"},{"town":"黒島","koaza":"","lat":33.987724,"lng":133.346379,"version":"14.0b/19.0a"},{"town":"黒島一丁目","koaza":"","lat":33.986873,"lng":133.339668,"version":"14.0b/19.0a"},{"town":"黒島二丁目","koaza":"","lat":33.987956,"lng":133.342595,"version":"14.0b/19.0a"},{"town":"郷","koaza":"","lat":33.963987,"lng":133.335652,"version":"14.0b/19.0a"},{"town":"郷一丁目","koaza":"","lat":33.962913,"lng":133.305827,"version":"14.0b/19.0a"},{"town":"郷二丁目","koaza":"","lat":33.965452,"lng":133.309763,"version":"14.0b/19.0a"},{"town":"郷三丁目","koaza":"","lat":33.964121,"lng":133.312073,"version":"14.0b/19.0a"},{"town":"郷四丁目","koaza":"","lat":33.958434,"lng":133.305135,"version":"14.0b/19.0a"},{"town":"郷五丁目","koaza":"","lat":33.957849,"lng":133.30156,"version":"14.0b/19.0a"},{"town":"神郷一丁目","koaza":"","lat":33.967343,"lng":133.316939,"version":"14.0b/19.0a"},{"town":"神郷二丁目","koaza":"","lat":33.964583,"lng":133.316352,"version":"14.0b/19.0a"},{"town":"河内町","koaza":"","lat":33.953032,"lng":133.273593,"version":"14.0b/19.0a"},{"town":"光明寺一丁目","koaza":"","lat":33.945768,"lng":133.327638,"version":"14.0b/19.0a"},{"town":"光明寺二丁目","koaza":"","lat":33.951901,"lng":133.333459,"version":"14.0b/19.0a"},{"town":"国領一丁目","koaza":"","lat":33.937631,"lng":133.31832,"version":"14.0b/19.0a"},{"town":"寿町","koaza":"","lat":33.941149,"lng":133.301218,"version":"14.0b/19.0a"},{"town":"西連寺町一丁目","koaza":"","lat":33.926805,"lng":133.298163,"version":"14.0b/19.0a"},{"town":"西連寺町二丁目","koaza":"","lat":33.922841,"lng":133.299872,"version":"14.0b/19.0a"},{"town":"坂井町一丁目","koaza":"","lat":33.947558,"lng":133.290381,"version":"14.0b/19.0a"},{"town":"坂井町二丁目","koaza":"","lat":33.948734,"lng":133.29345,"version":"14.0b/19.0a"},{"town":"坂井町三丁目","koaza":"","lat":33.945847,"lng":133.294025,"version":"14.0b/19.0a"},{"town":"桜木町","koaza":"","lat":33.968147,"lng":133.299844,"version":"14.0b/19.0a"},{"town":"沢津町一丁目","koaza":"","lat":33.974403,"lng":133.294773,"version":"14.0b/19.0a"},{"town":"沢津町二丁目","koaza":"","lat":33.976004,"lng":133.298108,"version":"14.0b/19.0a"},{"town":"沢津町三丁目","koaza":"","lat":33.97739,"lng":133.294923,"version":"14.0b/19.0a"},{"town":"繁本町","koaza":"","lat":33.962307,"lng":133.281577,"version":"14.0b/19.0a"},{"town":"七宝台町","koaza":"","lat":33.942027,"lng":133.328722,"version":"14.0b/19.0a"},{"town":"東雲町一丁目","koaza":"","lat":33.966993,"lng":133.29528,"version":"14.0b/19.0a"},{"town":"東雲町二丁目","koaza":"","lat":33.963595,"lng":133.299433,"version":"14.0b/19.0a"},{"town":"東雲町三丁目","koaza":"","lat":33.9611,"lng":133.300771,"version":"14.0b/19.0a"},{"town":"篠場町","koaza":"","lat":33.923748,"lng":133.295554,"version":"14.0b/19.0a"},{"town":"清水町","koaza":"","lat":33.978401,"lng":133.291243,"version":"14.0b/19.0a"},{"town":"下泉町一丁目","koaza":"","lat":33.948818,"lng":133.300471,"version":"14.0b/19.0a"},{"town":"下泉町二丁目","koaza":"","lat":33.94897,"lng":133.306153,"version":"14.0b/19.0a"},{"town":"庄内町一丁目","koaza":"","lat":33.957124,"lng":133.288746,"version":"14.0b/19.0a"},{"town":"庄内町二丁目","koaza":"","lat":33.958362,"lng":133.295128,"version":"14.0b/19.0a"},{"town":"庄内町三丁目","koaza":"","lat":33.955969,"lng":133.296355,"version":"14.0b/19.0a"},{"town":"庄内町四丁目","koaza":"","lat":33.952338,"lng":133.28902,"version":"14.0b/19.0a"},{"town":"庄内町五丁目","koaza":"","lat":33.952358,"lng":133.292873,"version":"14.0b/19.0a"},{"town":"庄内町六丁目","koaza":"","lat":33.953675,"lng":133.298273,"version":"14.0b/19.0a"},{"town":"城下町","koaza":"","lat":33.952488,"lng":133.30305,"version":"14.0b/19.0a"},{"town":"新須賀町一丁目","koaza":"","lat":33.965438,"lng":133.287243,"version":"14.0b/19.0a"},{"town":"新須賀町二丁目","koaza":"","lat":33.967888,"lng":133.286051,"version":"14.0b/19.0a"},{"town":"新須賀町三丁目","koaza":"","lat":33.970112,"lng":133.284847,"version":"14.0b/19.0a"},{"town":"新須賀町四丁目","koaza":"","lat":33.970479,"lng":133.288712,"version":"14.0b/19.0a"},{"town":"新田町一丁目","koaza":"","lat":33.958969,"lng":133.264584,"version":"14.0b/19.0a"},{"town":"新田町二丁目","koaza":"","lat":33.955227,"lng":133.261282,"version":"14.0b/19.0a"},{"town":"新田町三丁目","koaza":"","lat":33.956629,"lng":133.259399,"version":"14.0b/19.0a"},{"town":"角野","koaza":"","lat":33.928127,"lng":133.320225,"version":"14.0b/19.0a"},{"town":"角野新田町一丁目","koaza":"","lat":33.929348,"lng":133.317164,"version":"14.0b/19.0a"},{"town":"角野新田町二丁目","koaza":"","lat":33.927199,"lng":133.313714,"version":"14.0b/19.0a"},{"town":"角野新田町三丁目","koaza":"","lat":33.923881,"lng":133.311069,"version":"14.0b/19.0a"},{"town":"瀬戸町","koaza":"","lat":33.944717,"lng":133.3005,"version":"14.0b/19.0a"},{"town":"惣開町","koaza":"","lat":33.96896,"lng":133.254786,"version":"14.0b/19.0a"},{"town":"大永山","koaza":"","lat":33.873935,"lng":133.298343,"version":"14.0b/19.0a"},{"town":"高木町","koaza":"","lat":33.951505,"lng":133.285612,"version":"14.0b/19.0a"},{"town":"高田一丁目","koaza":"","lat":33.968135,"lng":133.310211,"version":"14.0b/19.0a"},{"town":"高田二丁目","koaza":"","lat":33.970654,"lng":133.309808,"version":"14.0b/19.0a"},{"town":"高津町","koaza":"","lat":33.972074,"lng":133.299506,"version":"14.0b/19.0a"},{"town":"滝の宮町","koaza":"","lat":33.945056,"lng":133.281811,"version":"14.0b/19.0a"},{"town":"多喜浜一丁目","koaza":"","lat":33.974269,"lng":133.334282,"version":"14.0b/19.0a"},{"town":"多喜浜二丁目","koaza":"","lat":33.977552,"lng":133.330658,"version":"14.0b/19.0a"},{"town":"多喜浜三丁目","koaza":"","lat":33.978679,"lng":133.336154,"version":"14.0b/19.0a"},{"town":"多喜浜四丁目","koaza":"","lat":33.974208,"lng":133.343208,"version":"14.0b/19.0a"},{"town":"多喜浜五丁目","koaza":"","lat":33.974249,"lng":133.349089,"version":"14.0b/19.0a"},{"town":"多喜浜六丁目","koaza":"","lat":33.979602,"lng":133.343692,"version":"14.0b/19.0a"},{"town":"立川町","koaza":"","lat":33.892712,"lng":133.315656,"version":"14.0b/19.0a"},{"town":"田所町","koaza":"","lat":33.96304,"lng":133.288167,"version":"14.0b/19.0a"},{"town":"種子川町","koaza":"","lat":33.923503,"lng":133.315525,"version":"14.0b/19.0a"},{"town":"種子川山","koaza":"","lat":33.89927,"lng":133.338529,"version":"14.0b/19.0a"},{"town":"田の上一丁目","koaza":"","lat":33.970045,"lng":133.315072,"version":"14.0b/19.0a"},{"town":"田の上二丁目","koaza":"","lat":33.971971,"lng":133.318603,"version":"14.0b/19.0a"},{"town":"田の上三丁目","koaza":"","lat":33.975659,"lng":133.3187,"version":"14.0b/19.0a"},{"town":"田の上四丁目","koaza":"","lat":33.97419,"lng":133.313584,"version":"14.0b/19.0a"},{"town":"土橋一丁目","koaza":"","lat":33.935951,"lng":133.290919,"version":"14.0b/19.0a"},{"town":"土橋二丁目","koaza":"","lat":33.931111,"lng":133.293973,"version":"14.0b/19.0a"},{"town":"東田一丁目","koaza":"","lat":33.946951,"lng":133.315367,"version":"14.0b/19.0a"},{"town":"東田二丁目","koaza":"","lat":33.941244,"lng":133.318793,"version":"14.0b/19.0a"},{"town":"東田三丁目","koaza":"","lat":33.945007,"lng":133.321448,"version":"14.0b/19.0a"},{"town":"徳常町","koaza":"","lat":33.964347,"lng":133.280812,"version":"14.0b/19.0a"},{"town":"外山町","koaza":"","lat":33.940416,"lng":133.310427,"version":"14.0b/19.0a"},{"town":"長岩町","koaza":"","lat":33.978997,"lng":133.326385,"version":"14.0b/19.0a"},{"town":"中須賀町一丁目","koaza":"","lat":33.962532,"lng":133.27279,"version":"14.0b/19.0a"},{"town":"中須賀町二丁目","koaza":"","lat":33.966658,"lng":133.27131,"version":"14.0b/19.0a"},{"town":"中筋町一丁目","koaza":"","lat":33.926579,"lng":133.305471,"version":"14.0b/19.0a"},{"town":"中筋町二丁目","koaza":"","lat":33.921912,"lng":133.305886,"version":"14.0b/19.0a"},{"town":"中西町","koaza":"","lat":33.92606,"lng":133.302521,"version":"14.0b/19.0a"},{"town":"中萩町","koaza":"","lat":33.928934,"lng":133.282661,"version":"14.0b/19.0a"},{"town":"中村一丁目","koaza":"","lat":33.931998,"lng":133.287991,"version":"14.0b/19.0a"},{"town":"中村二丁目","koaza":"","lat":33.929506,"lng":133.289547,"version":"14.0b/19.0a"},{"town":"中村三丁目","koaza":"","lat":33.926717,"lng":133.291007,"version":"14.0b/19.0a"},{"town":"中村四丁目","koaza":"","lat":33.923185,"lng":133.289728,"version":"14.0b/19.0a"},{"town":"中村松木一丁目","koaza":"","lat":33.941639,"lng":133.28985,"version":"14.0b/19.0a"},{"town":"中村松木二丁目","koaza":"","lat":33.938647,"lng":133.289517,"version":"14.0b/19.0a"},{"town":"新居浜乙","koaza":"","lat":33.943999,"lng":133.239703,"version":"14.0b/19.0a"},{"town":"西泉町","koaza":"","lat":33.930233,"lng":133.29762,"version":"14.0b/19.0a"},{"town":"西喜光地町","koaza":"","lat":33.937527,"lng":133.295415,"version":"14.0b/19.0a"},{"town":"西の土居町一丁目","koaza":"","lat":33.951014,"lng":133.28231,"version":"14.0b/19.0a"},{"town":"西の土居町二丁目","koaza":"","lat":33.950542,"lng":133.277428,"version":"14.0b/19.0a"},{"town":"西原町一丁目","koaza":"","lat":33.963327,"lng":133.269738,"version":"14.0b/19.0a"},{"town":"西原町二丁目","koaza":"","lat":33.96539,"lng":133.269135,"version":"14.0b/19.0a"},{"town":"西原町三丁目","koaza":"","lat":33.965406,"lng":133.265818,"version":"14.0b/19.0a"},{"town":"西町","koaza":"","lat":33.96793,"lng":133.274985,"version":"14.0b/19.0a"},{"town":"荷内町","koaza":"","lat":33.978062,"lng":133.376726,"version":"14.0b/19.0a"},{"town":"萩生","koaza":"","lat":33.911838,"lng":133.268311,"version":"14.0b/19.0a"},{"town":"八幡一丁目","koaza":"","lat":33.978043,"lng":133.309923,"version":"14.0b/19.0a"},{"town":"八幡二丁目","koaza":"","lat":33.982083,"lng":133.309715,"version":"14.0b/19.0a"},{"town":"八幡三丁目","koaza":"","lat":33.983344,"lng":133.315261,"version":"14.0b/19.0a"},{"town":"垣生","koaza":"","lat":33.9879,"lng":133.326094,"version":"14.0b/19.0a"},{"town":"垣生一丁目","koaza":"","lat":33.980727,"lng":133.316235,"version":"14.0b/19.0a"},{"town":"垣生二丁目","koaza":"","lat":33.978209,"lng":133.317297,"version":"14.0b/19.0a"},{"town":"垣生三丁目","koaza":"","lat":33.984664,"lng":133.330434,"version":"14.0b/19.0a"},{"town":"垣生四丁目","koaza":"","lat":33.98368,"lng":133.319845,"version":"14.0b/19.0a"},{"town":"垣生五丁目","koaza":"","lat":33.989129,"lng":133.320611,"version":"14.0b/19.0a"},{"town":"垣生六丁目","koaza":"","lat":33.987893,"lng":133.318059,"version":"14.0b/19.0a"},{"town":"平形町","koaza":"","lat":33.962381,"lng":133.29387,"version":"14.0b/19.0a"},{"town":"船木","koaza":"","lat":33.925772,"lng":133.343366,"version":"14.0b/19.0a"},{"town":"別子山","koaza":"","lat":33.85378,"lng":133.386529,"version":"14.0b/19.0a"},{"town":"星越町","koaza":"","lat":33.947546,"lng":133.269782,"version":"14.0b/19.0a"},{"town":"星原町","koaza":"","lat":33.939867,"lng":133.30454,"version":"14.0b/19.0a"},{"town":"本郷一丁目","koaza":"","lat":33.935817,"lng":133.28608,"version":"14.0b/19.0a"},{"town":"本郷二丁目","koaza":"","lat":33.935849,"lng":133.28107,"version":"14.0b/19.0a"},{"town":"本郷三丁目","koaza":"","lat":33.932823,"lng":133.281576,"version":"14.0b/19.0a"},{"town":"前田町","koaza":"","lat":33.955668,"lng":133.266842,"version":"14.0b/19.0a"},{"town":"政枝町一丁目","koaza":"","lat":33.947459,"lng":133.286506,"version":"14.0b/19.0a"},{"town":"政枝町二丁目","koaza":"","lat":33.94451,"lng":133.28731,"version":"14.0b/19.0a"},{"town":"政枝町三丁目","koaza":"","lat":33.941494,"lng":133.284852,"version":"14.0b/19.0a"},{"town":"又野一丁目","koaza":"","lat":33.971004,"lng":133.325672,"version":"14.0b/19.0a"},{"town":"又野二丁目","koaza":"","lat":33.967689,"lng":133.325578,"version":"14.0b/19.0a"},{"town":"又野三丁目","koaza":"","lat":33.969068,"lng":133.327011,"version":"14.0b/19.0a"},{"town":"松木町","koaza":"","lat":33.942407,"lng":133.292877,"version":"14.0b/19.0a"},{"town":"松の木町","koaza":"","lat":33.98009,"lng":133.296061,"version":"14.0b/19.0a"},{"town":"松原町","koaza":"","lat":33.9392,"lng":133.298578,"version":"14.0b/19.0a"},{"town":"松神子一丁目","koaza":"","lat":33.97242,"lng":133.321848,"version":"14.0b/19.0a"},{"town":"松神子二丁目","koaza":"","lat":33.974087,"lng":133.324035,"version":"14.0b/19.0a"},{"town":"松神子三丁目","koaza":"","lat":33.975175,"lng":133.326771,"version":"14.0b/19.0a"},{"town":"松神子四丁目","koaza":"","lat":33.97666,"lng":133.322227,"version":"14.0b/19.0a"},{"town":"港町","koaza":"","lat":33.970667,"lng":133.278969,"version":"14.0b/19.0a"},{"town":"南小松原町","koaza":"","lat":33.971653,"lng":133.293776,"version":"14.0b/19.0a"},{"town":"宮西町","koaza":"","lat":33.960891,"lng":133.276819,"version":"14.0b/19.0a"},{"town":"宮原町","koaza":"","lat":33.93067,"lng":133.301597,"version":"14.0b/19.0a"},{"town":"八雲町","koaza":"","lat":33.960762,"lng":133.289666,"version":"14.0b/19.0a"},{"town":"山田町","koaza":"","lat":33.918573,"lng":133.293443,"version":"14.0b/19.0a"},{"town":"山根町","koaza":"","lat":33.919206,"lng":133.300386,"version":"14.0b/19.0a"},{"town":"横水町","koaza":"","lat":33.938991,"lng":133.2819,"version":"14.0b/19.0a"},{"town":"吉岡町","koaza":"","lat":33.933405,"lng":133.313734,"version":"14.0b/19.0a"},{"town":"若水町一丁目","koaza":"","lat":33.966487,"lng":133.280013,"version":"14.0b/19.0a"},{"town":"若水町二丁目","koaza":"","lat":33.96832,"lng":133.280025,"version":"14.0b/19.0a"},{"town":"萩生","koaza":"岸ノ下","lat":33.927408,"lng":133.263281,"version":"14.0b/19.0a"},{"town":"船木","koaza":"池田","lat":33.939464,"lng":133.331824,"version":"14.0b/19.0a"},{"town":"船木","koaza":"長野","lat":33.94444,"lng":133.345723,"version":"14.0b/19.0a"}]