[{"town":"明浜町狩浜","koaza":"","lat":33.322711,"lng":132.461707,"version":"13.0b/18.0a"},{"town":"明浜町高山","koaza":"","lat":33.322221,"lng":132.434691,"version":"13.0b/18.0a"},{"town":"明浜町田之浜","koaza":"","lat":33.321714,"lng":132.386987,"version":"13.0b/18.0a"},{"town":"明浜町渡江","koaza":"","lat":33.322509,"lng":132.478631,"version":"13.0b/18.0a"},{"town":"明浜町宮野浦","koaza":"","lat":33.313825,"lng":132.412749,"version":"13.0b/18.0a"},{"town":"宇和町明間","koaza":"","lat":33.347607,"lng":132.590278,"version":"13.0b/18.0a"},{"town":"宇和町明石","koaza":"","lat":33.3705,"lng":132.53186,"version":"13.0b/18.0a"},{"town":"宇和町伊賀上","koaza":"","lat":33.346851,"lng":132.503238,"version":"13.0b/18.0a"},{"town":"宇和町伊崎","koaza":"","lat":33.395266,"lng":132.527558,"version":"13.0b/18.0a"},{"town":"宇和町稲生","koaza":"","lat":33.360924,"lng":132.53763,"version":"13.0b/18.0a"},{"town":"宇和町伊延","koaza":"","lat":33.420978,"lng":132.48685,"version":"13.0b/18.0a"},{"town":"宇和町岩木","koaza":"","lat":33.397572,"lng":132.468793,"version":"13.0b/18.0a"},{"town":"宇和町卯之町一丁目","koaza":"","lat":33.370793,"lng":132.513018,"version":"13.0b/18.0a"},{"town":"宇和町卯之町二丁目","koaza":"","lat":33.364355,"lng":132.509161,"version":"13.0b/18.0a"},{"town":"宇和町卯之町三丁目","koaza":"","lat":33.361999,"lng":132.511882,"version":"13.0b/18.0a"},{"town":"宇和町卯之町四丁目","koaza":"","lat":33.361921,"lng":132.517636,"version":"13.0b/18.0a"},{"town":"宇和町卯之町五丁目","koaza":"","lat":33.359487,"lng":132.523095,"version":"13.0b/18.0a"},{"town":"宇和町大江","koaza":"","lat":33.40844,"lng":132.514204,"version":"13.0b/18.0a"},{"town":"宇和町岡山","koaza":"","lat":33.419637,"lng":132.502186,"version":"13.0b/18.0a"},{"town":"宇和町小野田","koaza":"","lat":33.367071,"lng":132.487071,"version":"13.0b/18.0a"},{"town":"宇和町小原","koaza":"","lat":33.392714,"lng":132.483657,"version":"13.0b/18.0a"},{"town":"宇和町皆田","koaza":"","lat":33.343535,"lng":132.534611,"version":"13.0b/18.0a"},{"town":"宇和町上松葉","koaza":"","lat":33.380667,"lng":132.508201,"version":"13.0b/18.0a"},{"town":"宇和町加茂","koaza":"","lat":33.398829,"lng":132.515325,"version":"13.0b/18.0a"},{"town":"宇和町河内","koaza":"","lat":33.436646,"lng":132.49829,"version":"13.0b/18.0a"},{"town":"宇和町清沢","koaza":"","lat":33.392976,"lng":132.495205,"version":"13.0b/18.0a"},{"town":"宇和町窪","koaza":"","lat":33.392019,"lng":132.549563,"version":"13.0b/18.0a"},{"town":"宇和町久保","koaza":"","lat":33.445798,"lng":132.516975,"version":"13.0b/18.0a"},{"town":"宇和町郷内","koaza":"","lat":33.389475,"lng":132.457574,"version":"13.0b/18.0a"},{"town":"宇和町坂戸","koaza":"","lat":33.390781,"lng":132.509925,"version":"13.0b/18.0a"},{"town":"宇和町さくら","koaza":"","lat":33.375242,"lng":132.526596,"version":"13.0b/18.0a"},{"town":"宇和町下松葉","koaza":"","lat":33.374804,"lng":132.506239,"version":"13.0b/18.0a"},{"town":"宇和町常定寺","koaza":"","lat":33.389612,"lng":132.528232,"version":"13.0b/18.0a"},{"town":"宇和町新城","koaza":"","lat":33.377685,"lng":132.53888,"version":"13.0b/18.0a"},{"town":"宇和町神領","koaza":"","lat":33.363985,"lng":132.503861,"version":"13.0b/18.0a"},{"town":"宇和町瀬戸","koaza":"","lat":33.417035,"lng":132.514488,"version":"13.0b/18.0a"},{"town":"宇和町田苗真土","koaza":"","lat":33.404378,"lng":132.495287,"version":"13.0b/18.0a"},{"town":"宇和町田野中","koaza":"","lat":33.413315,"lng":132.54016,"version":"13.0b/18.0a"},{"town":"宇和町永長","koaza":"","lat":33.37889,"lng":132.494107,"version":"13.0b/18.0a"},{"town":"宇和町西山田","koaza":"","lat":33.380384,"lng":132.467583,"version":"13.0b/18.0a"},{"town":"宇和町野田","koaza":"","lat":33.354354,"lng":132.48488,"version":"13.0b/18.0a"},{"town":"宇和町信里","koaza":"","lat":33.433025,"lng":132.532431,"version":"13.0b/18.0a"},{"town":"宇和町東多田","koaza":"","lat":33.426516,"lng":132.514805,"version":"13.0b/18.0a"},{"town":"宇和町久枝","koaza":"","lat":33.36488,"lng":132.49686,"version":"13.0b/18.0a"},{"town":"宇和町下川","koaza":"","lat":33.348664,"lng":132.552837,"version":"13.0b/18.0a"},{"town":"宇和町ひまわり","koaza":"","lat":33.370565,"lng":132.504707,"version":"13.0b/18.0a"},{"town":"宇和町平野","koaza":"","lat":33.401262,"lng":132.548317,"version":"13.0b/18.0a"},{"town":"宇和町杢所","koaza":"","lat":33.39894,"lng":132.497284,"version":"13.0b/18.0a"},{"town":"宇和町山田","koaza":"","lat":33.355581,"lng":132.460575,"version":"13.0b/18.0a"},{"town":"宇和町れんげ","koaza":"","lat":33.38552,"lng":132.498041,"version":"13.0b/18.0a"},{"town":"城川町魚成","koaza":"","lat":33.370177,"lng":132.714281,"version":"13.0b/18.0a"},{"town":"城川町下相","koaza":"","lat":33.365586,"lng":132.740657,"version":"13.0b/18.0a"},{"town":"城川町男河内","koaza":"","lat":33.396295,"lng":132.723629,"version":"13.0b/18.0a"},{"town":"城川町嘉喜尾","koaza":"","lat":33.398457,"lng":132.745119,"version":"13.0b/18.0a"},{"town":"城川町川津南","koaza":"","lat":33.386338,"lng":132.828224,"version":"13.0b/18.0a"},{"town":"城川町窪野","koaza":"","lat":33.411466,"lng":132.802651,"version":"13.0b/18.0a"},{"town":"城川町田穂","koaza":"","lat":33.367892,"lng":132.682867,"version":"13.0b/18.0a"},{"town":"城川町高野子","koaza":"","lat":33.365675,"lng":132.802047,"version":"13.0b/18.0a"},{"town":"城川町土居","koaza":"","lat":33.390776,"lng":132.767973,"version":"13.0b/18.0a"},{"town":"城川町野井川","koaza":"","lat":33.444086,"lng":132.79865,"version":"13.0b/18.0a"},{"town":"城川町古市","koaza":"","lat":33.368472,"lng":132.767388,"version":"13.0b/18.0a"},{"town":"城川町遊子谷","koaza":"","lat":33.42551,"lng":132.761754,"version":"13.0b/18.0a"},{"town":"野村町阿下","koaza":"","lat":33.382599,"lng":132.670389,"version":"13.0b/18.0a"},{"town":"野村町旭","koaza":"","lat":33.392007,"lng":132.586331,"version":"13.0b/18.0a"},{"town":"野村町大西","koaza":"","lat":33.40401,"lng":132.669629,"version":"13.0b/18.0a"},{"town":"野村町大野ケ原","koaza":"","lat":33.477995,"lng":132.872923,"version":"13.0b/18.0a"},{"town":"野村町片川","koaza":"","lat":33.391168,"lng":132.627349,"version":"13.0b/18.0a"},{"town":"野村町釜川","koaza":"","lat":33.393832,"lng":132.692056,"version":"13.0b/18.0a"},{"town":"野村町鎌田","koaza":"","lat":33.405617,"lng":132.685342,"version":"13.0b/18.0a"},{"town":"野村町河西","koaza":"","lat":33.364839,"lng":132.60631,"version":"13.0b/18.0a"},{"town":"野村町蔵良","koaza":"","lat":33.405271,"lng":132.653389,"version":"13.0b/18.0a"},{"town":"野村町栗木","koaza":"","lat":33.413117,"lng":132.699032,"version":"13.0b/18.0a"},{"town":"野村町小松","koaza":"","lat":33.489616,"lng":132.822294,"version":"13.0b/18.0a"},{"town":"野村町坂石","koaza":"","lat":33.410953,"lng":132.717843,"version":"13.0b/18.0a"},{"town":"野村町白髭","koaza":"","lat":33.436814,"lng":132.570849,"version":"13.0b/18.0a"},{"town":"野村町四郎谷","koaza":"","lat":33.383939,"lng":132.607002,"version":"13.0b/18.0a"},{"town":"野村町惣川","koaza":"","lat":33.473556,"lng":132.795384,"version":"13.0b/18.0a"},{"town":"野村町高瀬","koaza":"","lat":33.423177,"lng":132.633657,"version":"13.0b/18.0a"},{"town":"野村町鳥鹿野","koaza":"","lat":33.410122,"lng":132.570017,"version":"13.0b/18.0a"},{"town":"野村町富野川","koaza":"","lat":33.418495,"lng":132.610278,"version":"13.0b/18.0a"},{"town":"野村町長谷","koaza":"","lat":33.380356,"lng":132.571802,"version":"13.0b/18.0a"},{"town":"野村町中通川","koaza":"","lat":33.414631,"lng":132.667632,"version":"13.0b/18.0a"},{"town":"野村町西","koaza":"","lat":33.419188,"lng":132.683598,"version":"13.0b/18.0a"},{"town":"野村町野村","koaza":"","lat":33.361119,"lng":132.643658,"version":"13.0b/18.0a"},{"town":"野村町平野","koaza":"","lat":33.399693,"lng":132.639734,"version":"13.0b/18.0a"},{"town":"野村町舟戸","koaza":"","lat":33.460491,"lng":132.765725,"version":"13.0b/18.0a"},{"town":"野村町松溪","koaza":"","lat":33.414851,"lng":132.589759,"version":"13.0b/18.0a"},{"town":"野村町予子林","koaza":"","lat":33.430722,"lng":132.725793,"version":"13.0b/18.0a"},{"town":"三瓶町朝立","koaza":"","lat":33.39077,"lng":132.432933,"version":"13.0b/18.0a"},{"town":"三瓶町安土","koaza":"","lat":33.374246,"lng":132.41773,"version":"13.0b/18.0a"},{"town":"三瓶町有網代","koaza":"","lat":33.36897,"lng":132.414275,"version":"13.0b/18.0a"},{"town":"三瓶町有太刀","koaza":"","lat":33.365581,"lng":132.419377,"version":"13.0b/18.0a"},{"town":"三瓶町和泉","koaza":"","lat":33.4,"lng":132.438693,"version":"13.0b/18.0a"},{"town":"三瓶町蔵貫","koaza":"","lat":33.347788,"lng":132.43771,"version":"13.0b/18.0a"},{"town":"三瓶町蔵貫浦","koaza":"","lat":33.35512,"lng":132.423333,"version":"13.0b/18.0a"},{"town":"三瓶町鴫山","koaza":"","lat":33.408622,"lng":132.420657,"version":"13.0b/18.0a"},{"town":"三瓶町下泊","koaza":"","lat":33.335541,"lng":132.388593,"version":"13.0b/18.0a"},{"town":"三瓶町周木","koaza":"","lat":33.375253,"lng":132.39198,"version":"13.0b/18.0a"},{"town":"三瓶町津布理","koaza":"","lat":33.371711,"lng":132.432594,"version":"13.0b/18.0a"},{"town":"三瓶町長早","koaza":"","lat":33.368954,"lng":132.392926,"version":"13.0b/18.0a"},{"town":"三瓶町二及","koaza":"","lat":33.379323,"lng":132.402854,"version":"13.0b/18.0a"},{"town":"三瓶町垣生","koaza":"","lat":33.389642,"lng":132.407718,"version":"13.0b/18.0a"},{"town":"三瓶町皆江","koaza":"","lat":33.336715,"lng":132.41385,"version":"13.0b/18.0a"},{"town":"明浜町俵津","koaza":"","lat":33.335128,"lng":132.482618,"version":"13.0b/18.0a"},{"town":"三瓶町朝立","koaza":"小又","lat":33.387925,"lng":132.428628,"version":"13.0b/18.0a"},{"town":"明浜町狩浜","koaza":"","lat":33.322711,"lng":132.461707,"version":"14.0b/19.0a"},{"town":"明浜町高山","koaza":"","lat":33.322221,"lng":132.434691,"version":"14.0b/19.0a"},{"town":"明浜町田之浜","koaza":"","lat":33.321714,"lng":132.386987,"version":"14.0b/19.0a"},{"town":"明浜町渡江","koaza":"","lat":33.322509,"lng":132.478631,"version":"14.0b/19.0a"},{"town":"明浜町宮野浦","koaza":"","lat":33.313825,"lng":132.412749,"version":"14.0b/19.0a"},{"town":"宇和町明間","koaza":"","lat":33.347607,"lng":132.590278,"version":"14.0b/19.0a"},{"town":"宇和町明石","koaza":"","lat":33.3705,"lng":132.53186,"version":"14.0b/19.0a"},{"town":"宇和町伊賀上","koaza":"","lat":33.346851,"lng":132.503238,"version":"14.0b/19.0a"},{"town":"宇和町伊崎","koaza":"","lat":33.395266,"lng":132.527558,"version":"14.0b/19.0a"},{"town":"宇和町稲生","koaza":"","lat":33.360924,"lng":132.53763,"version":"14.0b/19.0a"},{"town":"宇和町伊延","koaza":"","lat":33.420978,"lng":132.48685,"version":"14.0b/19.0a"},{"town":"宇和町岩木","koaza":"","lat":33.397572,"lng":132.468793,"version":"14.0b/19.0a"},{"town":"宇和町卯之町一丁目","koaza":"","lat":33.370793,"lng":132.513018,"version":"14.0b/19.0a"},{"town":"宇和町卯之町二丁目","koaza":"","lat":33.364355,"lng":132.509161,"version":"14.0b/19.0a"},{"town":"宇和町卯之町三丁目","koaza":"","lat":33.361999,"lng":132.511882,"version":"14.0b/19.0a"},{"town":"宇和町卯之町四丁目","koaza":"","lat":33.361921,"lng":132.517636,"version":"14.0b/19.0a"},{"town":"宇和町卯之町五丁目","koaza":"","lat":33.359487,"lng":132.523095,"version":"14.0b/19.0a"},{"town":"宇和町大江","koaza":"","lat":33.40844,"lng":132.514204,"version":"14.0b/19.0a"},{"town":"宇和町岡山","koaza":"","lat":33.419637,"lng":132.502186,"version":"14.0b/19.0a"},{"town":"宇和町小野田","koaza":"","lat":33.367071,"lng":132.487071,"version":"14.0b/19.0a"},{"town":"宇和町小原","koaza":"","lat":33.392714,"lng":132.483657,"version":"14.0b/19.0a"},{"town":"宇和町皆田","koaza":"","lat":33.343535,"lng":132.534611,"version":"14.0b/19.0a"},{"town":"宇和町上松葉","koaza":"","lat":33.380667,"lng":132.508201,"version":"14.0b/19.0a"},{"town":"宇和町加茂","koaza":"","lat":33.398829,"lng":132.515325,"version":"14.0b/19.0a"},{"town":"宇和町河内","koaza":"","lat":33.436646,"lng":132.49829,"version":"14.0b/19.0a"},{"town":"宇和町清沢","koaza":"","lat":33.392976,"lng":132.495205,"version":"14.0b/19.0a"},{"town":"宇和町窪","koaza":"","lat":33.392019,"lng":132.549563,"version":"14.0b/19.0a"},{"town":"宇和町久保","koaza":"","lat":33.445798,"lng":132.516975,"version":"14.0b/19.0a"},{"town":"宇和町郷内","koaza":"","lat":33.389475,"lng":132.457574,"version":"14.0b/19.0a"},{"town":"宇和町坂戸","koaza":"","lat":33.390781,"lng":132.509925,"version":"14.0b/19.0a"},{"town":"宇和町さくら","koaza":"","lat":33.375242,"lng":132.526596,"version":"14.0b/19.0a"},{"town":"宇和町下松葉","koaza":"","lat":33.374804,"lng":132.506239,"version":"14.0b/19.0a"},{"town":"宇和町常定寺","koaza":"","lat":33.389612,"lng":132.528232,"version":"14.0b/19.0a"},{"town":"宇和町新城","koaza":"","lat":33.377685,"lng":132.53888,"version":"14.0b/19.0a"},{"town":"宇和町神領","koaza":"","lat":33.363985,"lng":132.503861,"version":"14.0b/19.0a"},{"town":"宇和町瀬戸","koaza":"","lat":33.417035,"lng":132.514488,"version":"14.0b/19.0a"},{"town":"宇和町田苗真土","koaza":"","lat":33.404378,"lng":132.495287,"version":"14.0b/19.0a"},{"town":"宇和町田野中","koaza":"","lat":33.413315,"lng":132.54016,"version":"14.0b/19.0a"},{"town":"宇和町永長","koaza":"","lat":33.37889,"lng":132.494107,"version":"14.0b/19.0a"},{"town":"宇和町西山田","koaza":"","lat":33.380384,"lng":132.467583,"version":"14.0b/19.0a"},{"town":"宇和町野田","koaza":"","lat":33.354354,"lng":132.48488,"version":"14.0b/19.0a"},{"town":"宇和町信里","koaza":"","lat":33.433025,"lng":132.532431,"version":"14.0b/19.0a"},{"town":"宇和町東多田","koaza":"","lat":33.426516,"lng":132.514805,"version":"14.0b/19.0a"},{"town":"宇和町久枝","koaza":"","lat":33.36488,"lng":132.49686,"version":"14.0b/19.0a"},{"town":"宇和町下川","koaza":"","lat":33.348664,"lng":132.552837,"version":"14.0b/19.0a"},{"town":"宇和町ひまわり","koaza":"","lat":33.370565,"lng":132.504707,"version":"14.0b/19.0a"},{"town":"宇和町平野","koaza":"","lat":33.401262,"lng":132.548317,"version":"14.0b/19.0a"},{"town":"宇和町杢所","koaza":"","lat":33.39894,"lng":132.497284,"version":"14.0b/19.0a"},{"town":"宇和町山田","koaza":"","lat":33.355581,"lng":132.460575,"version":"14.0b/19.0a"},{"town":"宇和町れんげ","koaza":"","lat":33.38552,"lng":132.498041,"version":"14.0b/19.0a"},{"town":"城川町魚成","koaza":"","lat":33.370177,"lng":132.714281,"version":"14.0b/19.0a"},{"town":"城川町下相","koaza":"","lat":33.365586,"lng":132.740657,"version":"14.0b/19.0a"},{"town":"城川町男河内","koaza":"","lat":33.396295,"lng":132.723629,"version":"14.0b/19.0a"},{"town":"城川町嘉喜尾","koaza":"","lat":33.398457,"lng":132.745119,"version":"14.0b/19.0a"},{"town":"城川町川津南","koaza":"","lat":33.386338,"lng":132.828224,"version":"14.0b/19.0a"},{"town":"城川町窪野","koaza":"","lat":33.411466,"lng":132.802651,"version":"14.0b/19.0a"},{"town":"城川町田穂","koaza":"","lat":33.367892,"lng":132.682867,"version":"14.0b/19.0a"},{"town":"城川町高野子","koaza":"","lat":33.365675,"lng":132.802047,"version":"14.0b/19.0a"},{"town":"城川町土居","koaza":"","lat":33.390776,"lng":132.767973,"version":"14.0b/19.0a"},{"town":"城川町野井川","koaza":"","lat":33.444086,"lng":132.79865,"version":"14.0b/19.0a"},{"town":"城川町古市","koaza":"","lat":33.368472,"lng":132.767388,"version":"14.0b/19.0a"},{"town":"城川町遊子谷","koaza":"","lat":33.42551,"lng":132.761754,"version":"14.0b/19.0a"},{"town":"野村町阿下","koaza":"","lat":33.382599,"lng":132.670389,"version":"14.0b/19.0a"},{"town":"野村町旭","koaza":"","lat":33.392007,"lng":132.586331,"version":"14.0b/19.0a"},{"town":"野村町大西","koaza":"","lat":33.40401,"lng":132.669629,"version":"14.0b/19.0a"},{"town":"野村町大野ケ原","koaza":"","lat":33.477995,"lng":132.872923,"version":"14.0b/19.0a"},{"town":"野村町片川","koaza":"","lat":33.391168,"lng":132.627349,"version":"14.0b/19.0a"},{"town":"野村町釜川","koaza":"","lat":33.393832,"lng":132.692056,"version":"14.0b/19.0a"},{"town":"野村町鎌田","koaza":"","lat":33.405617,"lng":132.685342,"version":"14.0b/19.0a"},{"town":"野村町河西","koaza":"","lat":33.364839,"lng":132.60631,"version":"14.0b/19.0a"},{"town":"野村町蔵良","koaza":"","lat":33.405271,"lng":132.653389,"version":"14.0b/19.0a"},{"town":"野村町栗木","koaza":"","lat":33.413117,"lng":132.699032,"version":"14.0b/19.0a"},{"town":"野村町小松","koaza":"","lat":33.489616,"lng":132.822294,"version":"14.0b/19.0a"},{"town":"野村町坂石","koaza":"","lat":33.410953,"lng":132.717843,"version":"14.0b/19.0a"},{"town":"野村町白髭","koaza":"","lat":33.436814,"lng":132.570849,"version":"14.0b/19.0a"},{"town":"野村町四郎谷","koaza":"","lat":33.383939,"lng":132.607002,"version":"14.0b/19.0a"},{"town":"野村町惣川","koaza":"","lat":33.473556,"lng":132.795384,"version":"14.0b/19.0a"},{"town":"野村町高瀬","koaza":"","lat":33.423177,"lng":132.633657,"version":"14.0b/19.0a"},{"town":"野村町鳥鹿野","koaza":"","lat":33.410122,"lng":132.570017,"version":"14.0b/19.0a"},{"town":"野村町富野川","koaza":"","lat":33.418495,"lng":132.610278,"version":"14.0b/19.0a"},{"town":"野村町長谷","koaza":"","lat":33.380356,"lng":132.571802,"version":"14.0b/19.0a"},{"town":"野村町中通川","koaza":"","lat":33.414631,"lng":132.667632,"version":"14.0b/19.0a"},{"town":"野村町西","koaza":"","lat":33.419188,"lng":132.683598,"version":"14.0b/19.0a"},{"town":"野村町野村","koaza":"","lat":33.361119,"lng":132.643658,"version":"14.0b/19.0a"},{"town":"野村町平野","koaza":"","lat":33.399693,"lng":132.639734,"version":"14.0b/19.0a"},{"town":"野村町舟戸","koaza":"","lat":33.460491,"lng":132.765725,"version":"14.0b/19.0a"},{"town":"野村町松溪","koaza":"","lat":33.414851,"lng":132.589759,"version":"14.0b/19.0a"},{"town":"野村町予子林","koaza":"","lat":33.430722,"lng":132.725793,"version":"14.0b/19.0a"},{"town":"三瓶町朝立","koaza":"","lat":33.39077,"lng":132.432933,"version":"14.0b/19.0a"},{"town":"三瓶町安土","koaza":"","lat":33.374246,"lng":132.41773,"version":"14.0b/19.0a"},{"town":"三瓶町有網代","koaza":"","lat":33.36897,"lng":132.414275,"version":"14.0b/19.0a"},{"town":"三瓶町有太刀","koaza":"","lat":33.365581,"lng":132.419377,"version":"14.0b/19.0a"},{"town":"三瓶町和泉","koaza":"","lat":33.4,"lng":132.438693,"version":"14.0b/19.0a"},{"town":"三瓶町蔵貫","koaza":"","lat":33.347788,"lng":132.43771,"version":"14.0b/19.0a"},{"town":"三瓶町蔵貫浦","koaza":"","lat":33.35512,"lng":132.423333,"version":"14.0b/19.0a"},{"town":"三瓶町鴫山","koaza":"","lat":33.408622,"lng":132.420657,"version":"14.0b/19.0a"},{"town":"三瓶町下泊","koaza":"","lat":33.335541,"lng":132.388593,"version":"14.0b/19.0a"},{"town":"三瓶町周木","koaza":"","lat":33.375253,"lng":132.39198,"version":"14.0b/19.0a"},{"town":"三瓶町津布理","koaza":"","lat":33.371711,"lng":132.432594,"version":"14.0b/19.0a"},{"town":"三瓶町長早","koaza":"","lat":33.368954,"lng":132.392926,"version":"14.0b/19.0a"},{"town":"三瓶町二及","koaza":"","lat":33.379323,"lng":132.402854,"version":"14.0b/19.0a"},{"town":"三瓶町垣生","koaza":"","lat":33.389642,"lng":132.407718,"version":"14.0b/19.0a"},{"town":"三瓶町皆江","koaza":"","lat":33.336715,"lng":132.41385,"version":"14.0b/19.0a"},{"town":"明浜町俵津","koaza":"","lat":33.335128,"lng":132.482618,"version":"14.0b/19.0a"},{"town":"三瓶町朝立","koaza":"小又","lat":33.387925,"lng":132.428628,"version":"14.0b/19.0a"}]