[{"town":"相木町","koaza":"","lat":35.932367,"lng":136.311394,"version":"13.0b/18.0a"},{"town":"あおば町","koaza":"","lat":35.896762,"lng":136.167349,"version":"13.0b/18.0a"},{"town":"赤坂町","koaza":"","lat":35.942714,"lng":136.24532,"version":"13.0b/18.0a"},{"town":"赤谷町","koaza":"","lat":35.921059,"lng":136.291954,"version":"13.0b/18.0a"},{"town":"味真野町","koaza":"","lat":35.887155,"lng":136.227897,"version":"13.0b/18.0a"},{"town":"吾妻町","koaza":"","lat":35.900542,"lng":136.169925,"version":"13.0b/18.0a"},{"town":"荒谷町","koaza":"","lat":35.87265,"lng":136.202433,"version":"13.0b/18.0a"},{"town":"粟田部町","koaza":"","lat":35.91459,"lng":136.237887,"version":"13.0b/18.0a"},{"town":"粟田部町中央一丁目","koaza":"","lat":35.918976,"lng":136.243241,"version":"13.0b/18.0a"},{"town":"粟田部町中央二丁目","koaza":"","lat":35.919973,"lng":136.245279,"version":"13.0b/18.0a"},{"town":"粟野町","koaza":"","lat":35.910083,"lng":136.04929,"version":"13.0b/18.0a"},{"town":"安養寺町","koaza":"","lat":35.908246,"lng":136.075025,"version":"13.0b/18.0a"},{"town":"家久町","koaza":"","lat":35.929543,"lng":136.168318,"version":"13.0b/18.0a"},{"town":"池泉町","koaza":"","lat":35.888882,"lng":136.232682,"version":"13.0b/18.0a"},{"town":"池ノ上町","koaza":"","lat":35.871768,"lng":136.134193,"version":"13.0b/18.0a"},{"town":"市野々町","koaza":"","lat":35.905641,"lng":136.300137,"version":"13.0b/18.0a"},{"town":"稲寄町","koaza":"","lat":35.920796,"lng":136.184969,"version":"13.0b/18.0a"},{"town":"今宿町","koaza":"","lat":35.862574,"lng":136.16691,"version":"13.0b/18.0a"},{"town":"入谷町","koaza":"","lat":35.874364,"lng":136.28809,"version":"13.0b/18.0a"},{"town":"岩内町","koaza":"","lat":35.893757,"lng":136.203376,"version":"13.0b/18.0a"},{"town":"岩本町","koaza":"","lat":35.907722,"lng":136.246942,"version":"13.0b/18.0a"},{"town":"瓜生町","koaza":"","lat":35.924121,"lng":136.182703,"version":"13.0b/18.0a"},{"town":"瓜生野町","koaza":"","lat":35.81976,"lng":136.142912,"version":"13.0b/18.0a"},{"town":"不老町","koaza":"","lat":35.902415,"lng":136.242991,"version":"13.0b/18.0a"},{"town":"大塩町","koaza":"","lat":35.847331,"lng":136.153162,"version":"13.0b/18.0a"},{"town":"大滝町","koaza":"","lat":35.900101,"lng":136.256845,"version":"13.0b/18.0a"},{"town":"大谷町","koaza":"","lat":35.917113,"lng":136.274585,"version":"13.0b/18.0a"},{"town":"大手町","koaza":"","lat":35.887069,"lng":136.210961,"version":"13.0b/18.0a"},{"town":"大平町","koaza":"","lat":35.905667,"lng":136.270703,"version":"13.0b/18.0a"},{"town":"大虫町","koaza":"","lat":35.901502,"lng":136.110146,"version":"13.0b/18.0a"},{"town":"大虫本町","koaza":"","lat":35.897189,"lng":136.139967,"version":"13.0b/18.0a"},{"town":"大屋町","koaza":"","lat":35.895438,"lng":136.191855,"version":"13.0b/18.0a"},{"town":"岡本町","koaza":"","lat":35.896729,"lng":136.14641,"version":"13.0b/18.0a"},{"town":"押田一丁目","koaza":"","lat":35.9058,"lng":136.185198,"version":"13.0b/18.0a"},{"town":"押田二丁目","koaza":"","lat":35.905331,"lng":136.188005,"version":"13.0b/18.0a"},{"town":"小野谷町","koaza":"","lat":35.882144,"lng":136.183976,"version":"13.0b/18.0a"},{"town":"春日野町","koaza":"","lat":35.855538,"lng":136.139356,"version":"13.0b/18.0a"},{"town":"片屋町","koaza":"","lat":35.920532,"lng":136.147334,"version":"13.0b/18.0a"},{"town":"桂町","koaza":"","lat":35.905604,"lng":136.16499,"version":"13.0b/18.0a"},{"town":"金屋町","koaza":"","lat":35.904069,"lng":136.227699,"version":"13.0b/18.0a"},{"town":"上太田町","koaza":"","lat":35.907029,"lng":136.148757,"version":"13.0b/18.0a"},{"town":"上大坪町","koaza":"","lat":35.881402,"lng":136.22705,"version":"13.0b/18.0a"},{"town":"上小松町","koaza":"","lat":35.841342,"lng":136.162624,"version":"13.0b/18.0a"},{"town":"上四目町","koaza":"","lat":35.894331,"lng":136.132731,"version":"13.0b/18.0a"},{"town":"上杉本町","koaza":"","lat":35.886522,"lng":136.059278,"version":"13.0b/18.0a"},{"town":"上真柄町","koaza":"","lat":35.900727,"lng":136.220627,"version":"13.0b/18.0a"},{"town":"萱谷町","koaza":"","lat":35.8678,"lng":136.222926,"version":"13.0b/18.0a"},{"town":"北小山町","koaza":"","lat":35.899664,"lng":136.230652,"version":"13.0b/18.0a"},{"town":"北府一丁目","koaza":"","lat":35.9146,"lng":136.172579,"version":"13.0b/18.0a"},{"town":"北府二丁目","koaza":"","lat":35.914305,"lng":136.168451,"version":"13.0b/18.0a"},{"town":"北府三丁目","koaza":"","lat":35.912314,"lng":136.164477,"version":"13.0b/18.0a"},{"town":"北府四丁目","koaza":"","lat":35.917513,"lng":136.165603,"version":"13.0b/18.0a"},{"town":"北府本町","koaza":"","lat":35.919213,"lng":136.16883,"version":"13.0b/18.0a"},{"town":"北坂下町","koaza":"","lat":35.92128,"lng":136.267097,"version":"13.0b/18.0a"},{"town":"北千福町","koaza":"","lat":35.898896,"lng":136.151886,"version":"13.0b/18.0a"},{"town":"北町","koaza":"","lat":35.909222,"lng":136.214078,"version":"13.0b/18.0a"},{"town":"北山町","koaza":"","lat":35.918551,"lng":136.134223,"version":"13.0b/18.0a"},{"town":"京町一丁目","koaza":"","lat":35.903178,"lng":136.164951,"version":"13.0b/18.0a"},{"town":"京町二丁目","koaza":"","lat":35.902464,"lng":136.162747,"version":"13.0b/18.0a"},{"town":"京町三丁目","koaza":"","lat":35.90385,"lng":136.16277,"version":"13.0b/18.0a"},{"town":"清根町","koaza":"","lat":35.939672,"lng":136.307373,"version":"13.0b/18.0a"},{"town":"葛岡町","koaza":"","lat":35.902006,"lng":136.191848,"version":"13.0b/18.0a"},{"town":"朽飯町","koaza":"","lat":35.935268,"lng":136.258497,"version":"13.0b/18.0a"},{"town":"国兼町","koaza":"","lat":35.850253,"lng":136.170261,"version":"13.0b/18.0a"},{"town":"国高一丁目","koaza":"","lat":35.910502,"lng":136.185408,"version":"13.0b/18.0a"},{"town":"国高二丁目","koaza":"","lat":35.910363,"lng":136.188473,"version":"13.0b/18.0a"},{"town":"国高三丁目","koaza":"","lat":35.914474,"lng":136.187174,"version":"13.0b/18.0a"},{"town":"国中町","koaza":"","lat":35.934978,"lng":136.2356,"version":"13.0b/18.0a"},{"town":"黒川町","koaza":"","lat":35.891655,"lng":136.069585,"version":"13.0b/18.0a"},{"town":"勾当原町","koaza":"","lat":35.86722,"lng":136.081769,"version":"13.0b/18.0a"},{"town":"向陽町","koaza":"","lat":35.873945,"lng":136.151959,"version":"13.0b/18.0a"},{"town":"国府一丁目","koaza":"","lat":35.905439,"lng":136.167059,"version":"13.0b/18.0a"},{"town":"国府二丁目","koaza":"","lat":35.907835,"lng":136.167515,"version":"13.0b/18.0a"},{"town":"小杉町","koaza":"","lat":35.903877,"lng":136.054018,"version":"13.0b/18.0a"},{"town":"小谷町","koaza":"","lat":35.870632,"lng":136.048512,"version":"13.0b/18.0a"},{"town":"小野町","koaza":"","lat":35.881863,"lng":136.100868,"version":"13.0b/18.0a"},{"town":"五分市町","koaza":"","lat":35.894224,"lng":136.230214,"version":"13.0b/18.0a"},{"town":"小松一丁目","koaza":"","lat":35.904635,"lng":136.156713,"version":"13.0b/18.0a"},{"town":"小松二丁目","koaza":"","lat":35.907217,"lng":136.155613,"version":"13.0b/18.0a"},{"town":"米口町","koaza":"","lat":35.875888,"lng":136.054748,"version":"13.0b/18.0a"},{"town":"幸町","koaza":"","lat":35.903909,"lng":136.16698,"version":"13.0b/18.0a"},{"town":"定友町","koaza":"","lat":35.916874,"lng":136.248997,"version":"13.0b/18.0a"},{"town":"沢町","koaza":"","lat":35.894196,"lng":136.150533,"version":"13.0b/18.0a"},{"town":"芝原一丁目","koaza":"","lat":35.918013,"lng":136.162154,"version":"13.0b/18.0a"},{"town":"芝原二丁目","koaza":"","lat":35.921036,"lng":136.163658,"version":"13.0b/18.0a"},{"town":"芝原三丁目","koaza":"","lat":35.917023,"lng":136.157893,"version":"13.0b/18.0a"},{"town":"芝原四丁目","koaza":"","lat":35.919488,"lng":136.159438,"version":"13.0b/18.0a"},{"town":"芝原五丁目","koaza":"","lat":35.923176,"lng":136.162108,"version":"13.0b/18.0a"},{"town":"島町","koaza":"","lat":35.910117,"lng":136.270685,"version":"13.0b/18.0a"},{"town":"清水頭町","koaza":"","lat":35.892415,"lng":136.226597,"version":"13.0b/18.0a"},{"town":"下太田町","koaza":"","lat":35.912343,"lng":136.150487,"version":"13.0b/18.0a"},{"town":"下四目町","koaza":"","lat":35.903819,"lng":136.141922,"version":"13.0b/18.0a"},{"town":"下中津原町","koaza":"","lat":35.861965,"lng":136.100618,"version":"13.0b/18.0a"},{"town":"下平吹町","koaza":"","lat":35.869635,"lng":136.178739,"version":"13.0b/18.0a"},{"town":"下別所町","koaza":"","lat":35.85008,"lng":136.088779,"version":"13.0b/18.0a"},{"town":"庄町","koaza":"","lat":35.905965,"lng":136.199019,"version":"13.0b/18.0a"},{"town":"庄田町","koaza":"","lat":35.885601,"lng":136.20585,"version":"13.0b/18.0a"},{"town":"菖蒲谷町","koaza":"","lat":35.881432,"lng":136.045014,"version":"13.0b/18.0a"},{"town":"勝蓮花町","koaza":"","lat":35.880872,"lng":136.085757,"version":"13.0b/18.0a"},{"town":"四郎丸町","koaza":"","lat":35.869575,"lng":136.163687,"version":"13.0b/18.0a"},{"town":"白崎町","koaza":"","lat":35.867744,"lng":136.148474,"version":"13.0b/18.0a"},{"town":"新在家町","koaza":"","lat":35.911618,"lng":136.245873,"version":"13.0b/18.0a"},{"town":"新町","koaza":"","lat":35.903742,"lng":136.152908,"version":"13.0b/18.0a"},{"town":"新堂町","koaza":"","lat":35.942077,"lng":136.236593,"version":"13.0b/18.0a"},{"town":"新保一丁目","koaza":"","lat":35.910661,"lng":136.156382,"version":"13.0b/18.0a"},{"town":"新保二丁目","koaza":"","lat":35.913688,"lng":136.15614,"version":"13.0b/18.0a"},{"town":"新保町","koaza":"","lat":35.911447,"lng":136.153671,"version":"13.0b/18.0a"},{"town":"神明町","koaza":"","lat":35.898787,"lng":136.167347,"version":"13.0b/18.0a"},{"town":"杉尾町","koaza":"","lat":35.915228,"lng":136.257945,"version":"13.0b/18.0a"},{"town":"杉崎町","koaza":"","lat":35.900428,"lng":136.204889,"version":"13.0b/18.0a"},{"town":"菅町","koaza":"","lat":35.863119,"lng":136.049108,"version":"13.0b/18.0a"},{"town":"住吉町","koaza":"","lat":35.898633,"lng":136.169708,"version":"13.0b/18.0a"},{"town":"千合谷町","koaza":"","lat":35.890143,"lng":136.032914,"version":"13.0b/18.0a"},{"town":"千福町","koaza":"","lat":35.889281,"lng":136.154787,"version":"13.0b/18.0a"},{"town":"曽原町","koaza":"","lat":35.912951,"lng":136.056876,"version":"13.0b/18.0a"},{"town":"高岡町","koaza":"","lat":35.932731,"lng":136.26234,"version":"13.0b/18.0a"},{"town":"高木町","koaza":"","lat":35.924319,"lng":136.195595,"version":"13.0b/18.0a"},{"town":"高瀬一丁目","koaza":"","lat":35.895461,"lng":136.157765,"version":"13.0b/18.0a"},{"town":"高瀬二丁目","koaza":"","lat":35.899157,"lng":136.158226,"version":"13.0b/18.0a"},{"town":"高森町","koaza":"","lat":35.906123,"lng":136.139629,"version":"13.0b/18.0a"},{"town":"武生柳町","koaza":"","lat":35.895785,"lng":136.165048,"version":"13.0b/18.0a"},{"town":"千原町","koaza":"","lat":35.908509,"lng":136.238175,"version":"13.0b/18.0a"},{"town":"中央一丁目","koaza":"","lat":35.901183,"lng":136.158074,"version":"13.0b/18.0a"},{"town":"中央二丁目","koaza":"","lat":35.902627,"lng":136.156725,"version":"13.0b/18.0a"},{"town":"長五町","koaza":"","lat":35.90815,"lng":136.2788,"version":"13.0b/18.0a"},{"town":"塚町","koaza":"","lat":35.913628,"lng":136.196429,"version":"13.0b/18.0a"},{"town":"塚原町","koaza":"","lat":35.8697,"lng":136.155164,"version":"13.0b/18.0a"},{"town":"月見町","koaza":"","lat":35.878092,"lng":136.16197,"version":"13.0b/18.0a"},{"town":"土山町","koaza":"","lat":35.87541,"lng":136.043752,"version":"13.0b/18.0a"},{"town":"常久町","koaza":"","lat":35.886239,"lng":136.163916,"version":"13.0b/18.0a"},{"town":"寺地町","koaza":"","lat":35.935398,"lng":136.28967,"version":"13.0b/18.0a"},{"town":"天王町","koaza":"","lat":35.900667,"lng":136.167424,"version":"13.0b/18.0a"},{"town":"戸谷町","koaza":"","lat":35.919332,"lng":136.222942,"version":"13.0b/18.0a"},{"town":"轟井町","koaza":"","lat":35.911771,"lng":136.264295,"version":"13.0b/18.0a"},{"town":"殿町","koaza":"","lat":35.919333,"lng":136.270395,"version":"13.0b/18.0a"},{"town":"都辺町","koaza":"","lat":35.888387,"lng":136.054142,"version":"13.0b/18.0a"},{"town":"中居町","koaza":"","lat":35.883676,"lng":136.295916,"version":"13.0b/18.0a"},{"town":"中印町","koaza":"","lat":35.894721,"lng":136.272986,"version":"13.0b/18.0a"},{"town":"長尾町","koaza":"","lat":35.921671,"lng":136.218048,"version":"13.0b/18.0a"},{"town":"中新庄町","koaza":"","lat":35.92701,"lng":136.213812,"version":"13.0b/18.0a"},{"town":"長谷町","koaza":"","lat":35.926304,"lng":136.281449,"version":"13.0b/18.0a"},{"town":"中津原町","koaza":"","lat":35.852317,"lng":136.107457,"version":"13.0b/18.0a"},{"town":"中津山町","koaza":"","lat":35.92853,"lng":136.234042,"version":"13.0b/18.0a"},{"town":"長土呂町","koaza":"","lat":35.918612,"lng":136.189955,"version":"13.0b/18.0a"},{"town":"中野町","koaza":"","lat":35.893059,"lng":136.05006,"version":"13.0b/18.0a"},{"town":"中平吹町","koaza":"","lat":35.861109,"lng":136.18913,"version":"13.0b/18.0a"},{"town":"中山町","koaza":"","lat":35.858026,"lng":136.063805,"version":"13.0b/18.0a"},{"town":"波垣町","koaza":"","lat":35.933649,"lng":136.284176,"version":"13.0b/18.0a"},{"town":"畷町","koaza":"","lat":35.887365,"lng":136.166039,"version":"13.0b/18.0a"},{"town":"二階堂町","koaza":"","lat":35.887283,"lng":136.045469,"version":"13.0b/18.0a"},{"town":"西尾町","koaza":"","lat":35.890008,"lng":136.216165,"version":"13.0b/18.0a"},{"town":"西樫尾町","koaza":"","lat":35.915361,"lng":136.229222,"version":"13.0b/18.0a"},{"town":"錦町","koaza":"","lat":35.902557,"lng":136.172645,"version":"13.0b/18.0a"},{"town":"西河内町","koaza":"","lat":35.927119,"lng":136.322549,"version":"13.0b/18.0a"},{"town":"西庄境町","koaza":"","lat":35.932987,"lng":136.247436,"version":"13.0b/18.0a"},{"town":"西谷町","koaza":"","lat":35.877321,"lng":136.192476,"version":"13.0b/18.0a"},{"town":"丹生郷町","koaza":"","lat":35.909184,"lng":136.141476,"version":"13.0b/18.0a"},{"town":"野岡町","koaza":"","lat":35.92655,"lng":136.251006,"version":"13.0b/18.0a"},{"town":"野上町一丁目","koaza":"","lat":35.899992,"lng":136.149666,"version":"13.0b/18.0a"},{"town":"野上町二丁目","koaza":"","lat":35.898321,"lng":136.149499,"version":"13.0b/18.0a"},{"town":"野上町三丁目","koaza":"","lat":35.900154,"lng":136.147864,"version":"13.0b/18.0a"},{"town":"萩原町","koaza":"","lat":35.895518,"lng":136.054855,"version":"13.0b/18.0a"},{"town":"余田町","koaza":"","lat":35.933036,"lng":136.146406,"version":"13.0b/18.0a"},{"town":"馬上免町","koaza":"","lat":35.917136,"lng":136.18569,"version":"13.0b/18.0a"},{"town":"畑町","koaza":"","lat":35.879578,"lng":136.178263,"version":"13.0b/18.0a"},{"town":"八石町","koaza":"","lat":35.902485,"lng":136.280443,"version":"13.0b/18.0a"},{"town":"八幡一丁目","koaza":"","lat":35.911706,"lng":136.175407,"version":"13.0b/18.0a"},{"town":"八幡二丁目","koaza":"","lat":35.915851,"lng":136.177026,"version":"13.0b/18.0a"},{"town":"春山町","koaza":"","lat":35.932824,"lng":136.278742,"version":"13.0b/18.0a"},{"town":"万代町","koaza":"","lat":35.906814,"lng":136.171722,"version":"13.0b/18.0a"},{"town":"桧尾谷町","koaza":"","lat":35.881941,"lng":136.251304,"version":"13.0b/18.0a"},{"town":"東樫尾町","koaza":"","lat":35.940082,"lng":136.280831,"version":"13.0b/18.0a"},{"town":"東庄境町","koaza":"","lat":35.937509,"lng":136.253127,"version":"13.0b/18.0a"},{"town":"東千福町","koaza":"","lat":35.890928,"lng":136.15805,"version":"13.0b/18.0a"},{"town":"氷坂町","koaza":"","lat":35.928087,"lng":136.13889,"version":"13.0b/18.0a"},{"town":"日野美一丁目","koaza":"","lat":35.899584,"lng":136.154969,"version":"13.0b/18.0a"},{"town":"日野美二丁目","koaza":"","lat":35.899485,"lng":136.153948,"version":"13.0b/18.0a"},{"town":"姫川一丁目","koaza":"","lat":35.890681,"lng":136.169095,"version":"13.0b/18.0a"},{"town":"姫川二丁目","koaza":"","lat":35.894624,"lng":136.171111,"version":"13.0b/18.0a"},{"town":"平出一丁目","koaza":"","lat":35.907986,"lng":136.160086,"version":"13.0b/18.0a"},{"town":"平出二丁目","koaza":"","lat":35.911496,"lng":136.160766,"version":"13.0b/18.0a"},{"town":"平出三丁目","koaza":"","lat":35.915824,"lng":136.161007,"version":"13.0b/18.0a"},{"town":"平林町","koaza":"","lat":35.884063,"lng":136.199566,"version":"13.0b/18.0a"},{"town":"広瀬町","koaza":"","lat":35.877729,"lng":136.119876,"version":"13.0b/18.0a"},{"town":"深草一丁目","koaza":"","lat":35.903532,"lng":136.160134,"version":"13.0b/18.0a"},{"town":"深草二丁目","koaza":"","lat":35.906073,"lng":136.160942,"version":"13.0b/18.0a"},{"town":"藤木町","koaza":"","lat":35.933567,"lng":136.266471,"version":"13.0b/18.0a"},{"town":"富士見が丘一丁目","koaza":"","lat":35.872686,"lng":136.168567,"version":"13.0b/18.0a"},{"town":"富士見が丘二丁目","koaza":"","lat":35.872483,"lng":136.170658,"version":"13.0b/18.0a"},{"town":"府中一丁目","koaza":"","lat":35.902913,"lng":136.169778,"version":"13.0b/18.0a"},{"town":"府中二丁目","koaza":"","lat":35.905284,"lng":136.169583,"version":"13.0b/18.0a"},{"town":"府中三丁目","koaza":"","lat":35.907878,"lng":136.16958,"version":"13.0b/18.0a"},{"town":"文室町","koaza":"","lat":35.86297,"lng":136.253159,"version":"13.0b/18.0a"},{"town":"文京一丁目","koaza":"","lat":35.890566,"lng":136.161944,"version":"13.0b/18.0a"},{"town":"文京二丁目","koaza":"","lat":35.893815,"lng":136.161394,"version":"13.0b/18.0a"},{"town":"平和町","koaza":"","lat":35.899076,"lng":136.162592,"version":"13.0b/18.0a"},{"town":"別印町","koaza":"","lat":35.890525,"lng":136.306783,"version":"13.0b/18.0a"},{"town":"蓬莱町","koaza":"","lat":35.902363,"lng":136.166999,"version":"13.0b/18.0a"},{"town":"仏谷町","koaza":"","lat":35.872235,"lng":136.058434,"version":"13.0b/18.0a"},{"town":"帆山町","koaza":"","lat":35.895021,"lng":136.178104,"version":"13.0b/18.0a"},{"town":"堀川町","koaza":"","lat":35.899318,"lng":136.172869,"version":"13.0b/18.0a"},{"town":"堀町","koaza":"","lat":35.881697,"lng":136.051797,"version":"13.0b/18.0a"},{"town":"本多一丁目","koaza":"","lat":35.905764,"lng":136.163169,"version":"13.0b/18.0a"},{"town":"本多二丁目","koaza":"","lat":35.907873,"lng":136.165249,"version":"13.0b/18.0a"},{"town":"本多三丁目","koaza":"","lat":35.907937,"lng":136.163557,"version":"13.0b/18.0a"},{"town":"本保町","koaza":"","lat":35.928917,"lng":136.158738,"version":"13.0b/18.0a"},{"town":"本町","koaza":"","lat":35.899091,"lng":136.165075,"version":"13.0b/18.0a"},{"town":"真柄町","koaza":"","lat":35.902704,"lng":136.211169,"version":"13.0b/18.0a"},{"town":"牧町","koaza":"","lat":35.901604,"lng":136.047503,"version":"13.0b/18.0a"},{"town":"松森町","koaza":"","lat":35.882824,"lng":136.165634,"version":"13.0b/18.0a"},{"town":"丸岡町","koaza":"","lat":35.876096,"lng":136.069586,"version":"13.0b/18.0a"},{"town":"水間町","koaza":"","lat":35.91309,"lng":136.283434,"version":"13.0b/18.0a"},{"town":"三ツ口町","koaza":"","lat":35.887003,"lng":136.158026,"version":"13.0b/18.0a"},{"town":"三ツ俣町","koaza":"","lat":35.90808,"lng":136.126752,"version":"13.0b/18.0a"},{"town":"三ツ屋町","koaza":"","lat":35.918523,"lng":136.205249,"version":"13.0b/18.0a"},{"town":"南一丁目","koaza":"","lat":35.889744,"lng":136.165434,"version":"13.0b/18.0a"},{"town":"南二丁目","koaza":"","lat":35.89162,"lng":136.165834,"version":"13.0b/18.0a"},{"town":"南三丁目","koaza":"","lat":35.893178,"lng":136.16506,"version":"13.0b/18.0a"},{"town":"南小山町","koaza":"","lat":35.89463,"lng":136.241825,"version":"13.0b/18.0a"},{"town":"南坂下町","koaza":"","lat":35.894016,"lng":136.294874,"version":"13.0b/18.0a"},{"town":"南中町","koaza":"","lat":35.921279,"lng":136.279919,"version":"13.0b/18.0a"},{"town":"蓑脇町","koaza":"","lat":35.881303,"lng":136.261759,"version":"13.0b/18.0a"},{"town":"宮谷町","koaza":"","lat":35.881806,"lng":136.217527,"version":"13.0b/18.0a"},{"town":"御幸町","koaza":"","lat":35.895697,"lng":136.162815,"version":"13.0b/18.0a"},{"town":"妙法寺町","koaza":"","lat":35.878871,"lng":136.156997,"version":"13.0b/18.0a"},{"town":"向新保町","koaza":"","lat":35.878141,"lng":136.171558,"version":"13.0b/18.0a"},{"town":"向が丘町","koaza":"","lat":35.893399,"lng":136.136926,"version":"13.0b/18.0a"},{"town":"村国一丁目","koaza":"","lat":35.90335,"lng":136.177259,"version":"13.0b/18.0a"},{"town":"村国二丁目","koaza":"","lat":35.906078,"lng":136.176407,"version":"13.0b/18.0a"},{"town":"村国三丁目","koaza":"","lat":35.910907,"lng":136.180825,"version":"13.0b/18.0a"},{"town":"村国四丁目","koaza":"","lat":35.915404,"lng":136.181725,"version":"13.0b/18.0a"},{"town":"村国町","koaza":"","lat":35.902287,"lng":136.181738,"version":"13.0b/18.0a"},{"town":"室谷町","koaza":"","lat":35.927881,"lng":136.266693,"version":"13.0b/18.0a"},{"town":"元町","koaza":"","lat":35.901003,"lng":136.164882,"version":"13.0b/18.0a"},{"town":"森久町","koaza":"","lat":35.834539,"lng":136.15215,"version":"13.0b/18.0a"},{"town":"安戸町","koaza":"","lat":35.872001,"lng":136.036846,"version":"13.0b/18.0a"},{"town":"柳元町","koaza":"","lat":35.913903,"lng":136.297527,"version":"13.0b/18.0a"},{"town":"矢放町","koaza":"","lat":35.889433,"lng":136.184356,"version":"13.0b/18.0a"},{"town":"矢船町","koaza":"","lat":35.888157,"lng":136.174488,"version":"13.0b/18.0a"},{"town":"山室町","koaza":"","lat":35.924233,"lng":136.257223,"version":"13.0b/18.0a"},{"town":"行松町","koaza":"","lat":35.877889,"lng":136.165499,"version":"13.0b/18.0a"},{"town":"豊町","koaza":"","lat":35.896215,"lng":136.169148,"version":"13.0b/18.0a"},{"town":"湯谷町","koaza":"","lat":35.854595,"lng":136.077595,"version":"13.0b/18.0a"},{"town":"余川町","koaza":"","lat":35.886304,"lng":136.241554,"version":"13.0b/18.0a"},{"town":"横市町","koaza":"","lat":35.908894,"lng":136.195275,"version":"13.0b/18.0a"},{"town":"横住町","koaza":"","lat":35.931322,"lng":136.300721,"version":"13.0b/18.0a"},{"town":"横根町","koaza":"","lat":35.911951,"lng":136.128902,"version":"13.0b/18.0a"},{"town":"領家町","koaza":"","lat":35.935754,"lng":136.272344,"version":"13.0b/18.0a"},{"town":"若須町","koaza":"","lat":35.897777,"lng":136.039485,"version":"13.0b/18.0a"},{"town":"若竹町","koaza":"","lat":35.893754,"lng":136.167605,"version":"13.0b/18.0a"},{"town":"若松町","koaza":"","lat":35.901086,"lng":136.162107,"version":"13.0b/18.0a"},{"town":"行松町","koaza":"一丁目","lat":35.87913,"lng":136.166895,"version":"13.0b/18.0a"},{"town":"家久町","koaza":"一丁目","lat":35.930842,"lng":136.168165,"version":"13.0b/18.0a"},{"town":"家久町","koaza":"二丁目","lat":35.931845,"lng":136.169835,"version":"13.0b/18.0a"},{"town":"行松町","koaza":"二丁目","lat":35.878129,"lng":136.167247,"version":"13.0b/18.0a"},{"town":"上真柄町","koaza":"宮谷入会地","lat":35.886163,"lng":136.220111,"version":"13.0b/18.0a"},{"town":"相木町","koaza":"","lat":35.932367,"lng":136.311394,"version":"14.0b/19.0a"},{"town":"あおば町","koaza":"","lat":35.896762,"lng":136.167349,"version":"14.0b/19.0a"},{"town":"赤坂町","koaza":"","lat":35.942714,"lng":136.24532,"version":"14.0b/19.0a"},{"town":"赤谷町","koaza":"","lat":35.921059,"lng":136.291954,"version":"14.0b/19.0a"},{"town":"味真野町","koaza":"","lat":35.887155,"lng":136.227897,"version":"14.0b/19.0a"},{"town":"吾妻町","koaza":"","lat":35.900542,"lng":136.169925,"version":"14.0b/19.0a"},{"town":"荒谷町","koaza":"","lat":35.87265,"lng":136.202433,"version":"14.0b/19.0a"},{"town":"粟田部町","koaza":"","lat":35.91459,"lng":136.237887,"version":"14.0b/19.0a"},{"town":"粟田部町中央一丁目","koaza":"","lat":35.918976,"lng":136.243241,"version":"14.0b/19.0a"},{"town":"粟田部町中央二丁目","koaza":"","lat":35.919973,"lng":136.245279,"version":"14.0b/19.0a"},{"town":"粟野町","koaza":"","lat":35.910083,"lng":136.04929,"version":"14.0b/19.0a"},{"town":"安養寺町","koaza":"","lat":35.908246,"lng":136.075025,"version":"14.0b/19.0a"},{"town":"家久町","koaza":"","lat":35.929543,"lng":136.168318,"version":"14.0b/19.0a"},{"town":"池泉町","koaza":"","lat":35.888882,"lng":136.232682,"version":"14.0b/19.0a"},{"town":"池ノ上町","koaza":"","lat":35.871768,"lng":136.134193,"version":"14.0b/19.0a"},{"town":"市野々町","koaza":"","lat":35.905641,"lng":136.300137,"version":"14.0b/19.0a"},{"town":"稲寄町","koaza":"","lat":35.920796,"lng":136.184969,"version":"14.0b/19.0a"},{"town":"今宿町","koaza":"","lat":35.862574,"lng":136.16691,"version":"14.0b/19.0a"},{"town":"入谷町","koaza":"","lat":35.874364,"lng":136.28809,"version":"14.0b/19.0a"},{"town":"岩内町","koaza":"","lat":35.893757,"lng":136.203376,"version":"14.0b/19.0a"},{"town":"岩本町","koaza":"","lat":35.907722,"lng":136.246942,"version":"14.0b/19.0a"},{"town":"瓜生町","koaza":"","lat":35.924121,"lng":136.182703,"version":"14.0b/19.0a"},{"town":"瓜生野町","koaza":"","lat":35.81976,"lng":136.142912,"version":"14.0b/19.0a"},{"town":"不老町","koaza":"","lat":35.902415,"lng":136.242991,"version":"14.0b/19.0a"},{"town":"大塩町","koaza":"","lat":35.847331,"lng":136.153162,"version":"14.0b/19.0a"},{"town":"大滝町","koaza":"","lat":35.900101,"lng":136.256845,"version":"14.0b/19.0a"},{"town":"大谷町","koaza":"","lat":35.917113,"lng":136.274585,"version":"14.0b/19.0a"},{"town":"大手町","koaza":"","lat":35.887069,"lng":136.210961,"version":"14.0b/19.0a"},{"town":"大平町","koaza":"","lat":35.905667,"lng":136.270703,"version":"14.0b/19.0a"},{"town":"大虫町","koaza":"","lat":35.901502,"lng":136.110146,"version":"14.0b/19.0a"},{"town":"大虫本町","koaza":"","lat":35.897189,"lng":136.139967,"version":"14.0b/19.0a"},{"town":"大屋町","koaza":"","lat":35.895438,"lng":136.191855,"version":"14.0b/19.0a"},{"town":"岡本町","koaza":"","lat":35.896729,"lng":136.14641,"version":"14.0b/19.0a"},{"town":"押田一丁目","koaza":"","lat":35.9058,"lng":136.185198,"version":"14.0b/19.0a"},{"town":"押田二丁目","koaza":"","lat":35.905331,"lng":136.188005,"version":"14.0b/19.0a"},{"town":"小野谷町","koaza":"","lat":35.882144,"lng":136.183976,"version":"14.0b/19.0a"},{"town":"春日野町","koaza":"","lat":35.855538,"lng":136.139356,"version":"14.0b/19.0a"},{"town":"片屋町","koaza":"","lat":35.920532,"lng":136.147334,"version":"14.0b/19.0a"},{"town":"桂町","koaza":"","lat":35.905604,"lng":136.16499,"version":"14.0b/19.0a"},{"town":"金屋町","koaza":"","lat":35.904069,"lng":136.227699,"version":"14.0b/19.0a"},{"town":"上太田町","koaza":"","lat":35.907029,"lng":136.148757,"version":"14.0b/19.0a"},{"town":"上大坪町","koaza":"","lat":35.881402,"lng":136.22705,"version":"14.0b/19.0a"},{"town":"上小松町","koaza":"","lat":35.841342,"lng":136.162624,"version":"14.0b/19.0a"},{"town":"上四目町","koaza":"","lat":35.894331,"lng":136.132731,"version":"14.0b/19.0a"},{"town":"上杉本町","koaza":"","lat":35.886522,"lng":136.059278,"version":"14.0b/19.0a"},{"town":"上真柄町","koaza":"","lat":35.900727,"lng":136.220627,"version":"14.0b/19.0a"},{"town":"萱谷町","koaza":"","lat":35.8678,"lng":136.222926,"version":"14.0b/19.0a"},{"town":"北小山町","koaza":"","lat":35.899664,"lng":136.230652,"version":"14.0b/19.0a"},{"town":"北府一丁目","koaza":"","lat":35.9146,"lng":136.172579,"version":"14.0b/19.0a"},{"town":"北府二丁目","koaza":"","lat":35.914305,"lng":136.168451,"version":"14.0b/19.0a"},{"town":"北府三丁目","koaza":"","lat":35.912314,"lng":136.164477,"version":"14.0b/19.0a"},{"town":"北府四丁目","koaza":"","lat":35.917513,"lng":136.165603,"version":"14.0b/19.0a"},{"town":"北府本町","koaza":"","lat":35.919213,"lng":136.16883,"version":"14.0b/19.0a"},{"town":"北坂下町","koaza":"","lat":35.92128,"lng":136.267097,"version":"14.0b/19.0a"},{"town":"北千福町","koaza":"","lat":35.898896,"lng":136.151886,"version":"14.0b/19.0a"},{"town":"北町","koaza":"","lat":35.909222,"lng":136.214078,"version":"14.0b/19.0a"},{"town":"北山町","koaza":"","lat":35.918551,"lng":136.134223,"version":"14.0b/19.0a"},{"town":"京町一丁目","koaza":"","lat":35.903178,"lng":136.164951,"version":"14.0b/19.0a"},{"town":"京町二丁目","koaza":"","lat":35.902464,"lng":136.162747,"version":"14.0b/19.0a"},{"town":"京町三丁目","koaza":"","lat":35.90385,"lng":136.16277,"version":"14.0b/19.0a"},{"town":"清根町","koaza":"","lat":35.939672,"lng":136.307373,"version":"14.0b/19.0a"},{"town":"葛岡町","koaza":"","lat":35.902006,"lng":136.191848,"version":"14.0b/19.0a"},{"town":"朽飯町","koaza":"","lat":35.935268,"lng":136.258497,"version":"14.0b/19.0a"},{"town":"国兼町","koaza":"","lat":35.850253,"lng":136.170261,"version":"14.0b/19.0a"},{"town":"国高一丁目","koaza":"","lat":35.910502,"lng":136.185408,"version":"14.0b/19.0a"},{"town":"国高二丁目","koaza":"","lat":35.910363,"lng":136.188473,"version":"14.0b/19.0a"},{"town":"国高三丁目","koaza":"","lat":35.914474,"lng":136.187174,"version":"14.0b/19.0a"},{"town":"国中町","koaza":"","lat":35.934978,"lng":136.2356,"version":"14.0b/19.0a"},{"town":"黒川町","koaza":"","lat":35.891655,"lng":136.069585,"version":"14.0b/19.0a"},{"town":"勾当原町","koaza":"","lat":35.86722,"lng":136.081769,"version":"14.0b/19.0a"},{"town":"向陽町","koaza":"","lat":35.873945,"lng":136.151959,"version":"14.0b/19.0a"},{"town":"国府一丁目","koaza":"","lat":35.905439,"lng":136.167059,"version":"14.0b/19.0a"},{"town":"国府二丁目","koaza":"","lat":35.907835,"lng":136.167515,"version":"14.0b/19.0a"},{"town":"小杉町","koaza":"","lat":35.903877,"lng":136.054018,"version":"14.0b/19.0a"},{"town":"小谷町","koaza":"","lat":35.870632,"lng":136.048512,"version":"14.0b/19.0a"},{"town":"小野町","koaza":"","lat":35.881863,"lng":136.100868,"version":"14.0b/19.0a"},{"town":"五分市町","koaza":"","lat":35.894224,"lng":136.230214,"version":"14.0b/19.0a"},{"town":"小松一丁目","koaza":"","lat":35.904635,"lng":136.156713,"version":"14.0b/19.0a"},{"town":"小松二丁目","koaza":"","lat":35.907217,"lng":136.155613,"version":"14.0b/19.0a"},{"town":"米口町","koaza":"","lat":35.875888,"lng":136.054748,"version":"14.0b/19.0a"},{"town":"幸町","koaza":"","lat":35.903909,"lng":136.16698,"version":"14.0b/19.0a"},{"town":"定友町","koaza":"","lat":35.916874,"lng":136.248997,"version":"14.0b/19.0a"},{"town":"沢町","koaza":"","lat":35.894196,"lng":136.150533,"version":"14.0b/19.0a"},{"town":"芝原一丁目","koaza":"","lat":35.918013,"lng":136.162154,"version":"14.0b/19.0a"},{"town":"芝原二丁目","koaza":"","lat":35.921036,"lng":136.163658,"version":"14.0b/19.0a"},{"town":"芝原三丁目","koaza":"","lat":35.917023,"lng":136.157893,"version":"14.0b/19.0a"},{"town":"芝原四丁目","koaza":"","lat":35.919488,"lng":136.159438,"version":"14.0b/19.0a"},{"town":"芝原五丁目","koaza":"","lat":35.923176,"lng":136.162108,"version":"14.0b/19.0a"},{"town":"島町","koaza":"","lat":35.910117,"lng":136.270685,"version":"14.0b/19.0a"},{"town":"清水頭町","koaza":"","lat":35.892415,"lng":136.226597,"version":"14.0b/19.0a"},{"town":"下太田町","koaza":"","lat":35.912343,"lng":136.150487,"version":"14.0b/19.0a"},{"town":"下四目町","koaza":"","lat":35.903819,"lng":136.141922,"version":"14.0b/19.0a"},{"town":"下中津原町","koaza":"","lat":35.861965,"lng":136.100618,"version":"14.0b/19.0a"},{"town":"下平吹町","koaza":"","lat":35.869635,"lng":136.178739,"version":"14.0b/19.0a"},{"town":"下別所町","koaza":"","lat":35.85008,"lng":136.088779,"version":"14.0b/19.0a"},{"town":"庄町","koaza":"","lat":35.905965,"lng":136.199019,"version":"14.0b/19.0a"},{"town":"庄田町","koaza":"","lat":35.885601,"lng":136.20585,"version":"14.0b/19.0a"},{"town":"菖蒲谷町","koaza":"","lat":35.881432,"lng":136.045014,"version":"14.0b/19.0a"},{"town":"勝蓮花町","koaza":"","lat":35.880872,"lng":136.085757,"version":"14.0b/19.0a"},{"town":"四郎丸町","koaza":"","lat":35.869575,"lng":136.163687,"version":"14.0b/19.0a"},{"town":"白崎町","koaza":"","lat":35.867744,"lng":136.148474,"version":"14.0b/19.0a"},{"town":"新在家町","koaza":"","lat":35.911618,"lng":136.245873,"version":"14.0b/19.0a"},{"town":"新町","koaza":"","lat":35.903742,"lng":136.152908,"version":"14.0b/19.0a"},{"town":"新堂町","koaza":"","lat":35.942077,"lng":136.236593,"version":"14.0b/19.0a"},{"town":"新保一丁目","koaza":"","lat":35.910661,"lng":136.156382,"version":"14.0b/19.0a"},{"town":"新保二丁目","koaza":"","lat":35.913688,"lng":136.15614,"version":"14.0b/19.0a"},{"town":"新保町","koaza":"","lat":35.911447,"lng":136.153671,"version":"14.0b/19.0a"},{"town":"神明町","koaza":"","lat":35.898787,"lng":136.167347,"version":"14.0b/19.0a"},{"town":"杉尾町","koaza":"","lat":35.915228,"lng":136.257945,"version":"14.0b/19.0a"},{"town":"杉崎町","koaza":"","lat":35.900428,"lng":136.204889,"version":"14.0b/19.0a"},{"town":"菅町","koaza":"","lat":35.863119,"lng":136.049108,"version":"14.0b/19.0a"},{"town":"住吉町","koaza":"","lat":35.898633,"lng":136.169708,"version":"14.0b/19.0a"},{"town":"千合谷町","koaza":"","lat":35.890143,"lng":136.032914,"version":"14.0b/19.0a"},{"town":"千福町","koaza":"","lat":35.889281,"lng":136.154787,"version":"14.0b/19.0a"},{"town":"曽原町","koaza":"","lat":35.912951,"lng":136.056876,"version":"14.0b/19.0a"},{"town":"高岡町","koaza":"","lat":35.932731,"lng":136.26234,"version":"14.0b/19.0a"},{"town":"高木町","koaza":"","lat":35.924319,"lng":136.195595,"version":"14.0b/19.0a"},{"town":"高瀬一丁目","koaza":"","lat":35.895461,"lng":136.157765,"version":"14.0b/19.0a"},{"town":"高瀬二丁目","koaza":"","lat":35.899157,"lng":136.158226,"version":"14.0b/19.0a"},{"town":"高森町","koaza":"","lat":35.906123,"lng":136.139629,"version":"14.0b/19.0a"},{"town":"武生柳町","koaza":"","lat":35.895785,"lng":136.165048,"version":"14.0b/19.0a"},{"town":"千原町","koaza":"","lat":35.908509,"lng":136.238175,"version":"14.0b/19.0a"},{"town":"中央一丁目","koaza":"","lat":35.901183,"lng":136.158074,"version":"14.0b/19.0a"},{"town":"中央二丁目","koaza":"","lat":35.902627,"lng":136.156725,"version":"14.0b/19.0a"},{"town":"長五町","koaza":"","lat":35.90815,"lng":136.2788,"version":"14.0b/19.0a"},{"town":"塚町","koaza":"","lat":35.913628,"lng":136.196429,"version":"14.0b/19.0a"},{"town":"塚原町","koaza":"","lat":35.8697,"lng":136.155164,"version":"14.0b/19.0a"},{"town":"月見町","koaza":"","lat":35.878092,"lng":136.16197,"version":"14.0b/19.0a"},{"town":"土山町","koaza":"","lat":35.87541,"lng":136.043752,"version":"14.0b/19.0a"},{"town":"常久町","koaza":"","lat":35.886239,"lng":136.163916,"version":"14.0b/19.0a"},{"town":"寺地町","koaza":"","lat":35.935398,"lng":136.28967,"version":"14.0b/19.0a"},{"town":"天王町","koaza":"","lat":35.900667,"lng":136.167424,"version":"14.0b/19.0a"},{"town":"戸谷町","koaza":"","lat":35.919332,"lng":136.222942,"version":"14.0b/19.0a"},{"town":"轟井町","koaza":"","lat":35.911771,"lng":136.264295,"version":"14.0b/19.0a"},{"town":"殿町","koaza":"","lat":35.919333,"lng":136.270395,"version":"14.0b/19.0a"},{"town":"都辺町","koaza":"","lat":35.888387,"lng":136.054142,"version":"14.0b/19.0a"},{"town":"中居町","koaza":"","lat":35.883676,"lng":136.295916,"version":"14.0b/19.0a"},{"town":"中印町","koaza":"","lat":35.894721,"lng":136.272986,"version":"14.0b/19.0a"},{"town":"長尾町","koaza":"","lat":35.921671,"lng":136.218048,"version":"14.0b/19.0a"},{"town":"中新庄町","koaza":"","lat":35.92701,"lng":136.213812,"version":"14.0b/19.0a"},{"town":"長谷町","koaza":"","lat":35.926304,"lng":136.281449,"version":"14.0b/19.0a"},{"town":"中津原町","koaza":"","lat":35.852317,"lng":136.107457,"version":"14.0b/19.0a"},{"town":"中津山町","koaza":"","lat":35.92853,"lng":136.234042,"version":"14.0b/19.0a"},{"town":"長土呂町","koaza":"","lat":35.918612,"lng":136.189955,"version":"14.0b/19.0a"},{"town":"中野町","koaza":"","lat":35.893059,"lng":136.05006,"version":"14.0b/19.0a"},{"town":"中平吹町","koaza":"","lat":35.861109,"lng":136.18913,"version":"14.0b/19.0a"},{"town":"中山町","koaza":"","lat":35.858026,"lng":136.063805,"version":"14.0b/19.0a"},{"town":"波垣町","koaza":"","lat":35.933649,"lng":136.284176,"version":"14.0b/19.0a"},{"town":"畷町","koaza":"","lat":35.887365,"lng":136.166039,"version":"14.0b/19.0a"},{"town":"二階堂町","koaza":"","lat":35.887283,"lng":136.045469,"version":"14.0b/19.0a"},{"town":"西尾町","koaza":"","lat":35.890008,"lng":136.216165,"version":"14.0b/19.0a"},{"town":"西樫尾町","koaza":"","lat":35.915361,"lng":136.229222,"version":"14.0b/19.0a"},{"town":"錦町","koaza":"","lat":35.902557,"lng":136.172645,"version":"14.0b/19.0a"},{"town":"西河内町","koaza":"","lat":35.927119,"lng":136.322549,"version":"14.0b/19.0a"},{"town":"西庄境町","koaza":"","lat":35.932987,"lng":136.247436,"version":"14.0b/19.0a"},{"town":"西谷町","koaza":"","lat":35.877321,"lng":136.192476,"version":"14.0b/19.0a"},{"town":"丹生郷町","koaza":"","lat":35.909184,"lng":136.141476,"version":"14.0b/19.0a"},{"town":"野岡町","koaza":"","lat":35.92655,"lng":136.251006,"version":"14.0b/19.0a"},{"town":"野上町一丁目","koaza":"","lat":35.899992,"lng":136.149666,"version":"14.0b/19.0a"},{"town":"野上町二丁目","koaza":"","lat":35.898321,"lng":136.149499,"version":"14.0b/19.0a"},{"town":"野上町三丁目","koaza":"","lat":35.900154,"lng":136.147864,"version":"14.0b/19.0a"},{"town":"萩原町","koaza":"","lat":35.895518,"lng":136.054855,"version":"14.0b/19.0a"},{"town":"余田町","koaza":"","lat":35.933036,"lng":136.146406,"version":"14.0b/19.0a"},{"town":"馬上免町","koaza":"","lat":35.917136,"lng":136.18569,"version":"14.0b/19.0a"},{"town":"畑町","koaza":"","lat":35.879578,"lng":136.178263,"version":"14.0b/19.0a"},{"town":"八石町","koaza":"","lat":35.902485,"lng":136.280443,"version":"14.0b/19.0a"},{"town":"八幡一丁目","koaza":"","lat":35.911706,"lng":136.175407,"version":"14.0b/19.0a"},{"town":"八幡二丁目","koaza":"","lat":35.915851,"lng":136.177026,"version":"14.0b/19.0a"},{"town":"春山町","koaza":"","lat":35.932824,"lng":136.278742,"version":"14.0b/19.0a"},{"town":"万代町","koaza":"","lat":35.906814,"lng":136.171722,"version":"14.0b/19.0a"},{"town":"桧尾谷町","koaza":"","lat":35.881941,"lng":136.251304,"version":"14.0b/19.0a"},{"town":"東樫尾町","koaza":"","lat":35.940082,"lng":136.280831,"version":"14.0b/19.0a"},{"town":"東庄境町","koaza":"","lat":35.937509,"lng":136.253127,"version":"14.0b/19.0a"},{"town":"東千福町","koaza":"","lat":35.890928,"lng":136.15805,"version":"14.0b/19.0a"},{"town":"氷坂町","koaza":"","lat":35.928087,"lng":136.13889,"version":"14.0b/19.0a"},{"town":"日野美一丁目","koaza":"","lat":35.899584,"lng":136.154969,"version":"14.0b/19.0a"},{"town":"日野美二丁目","koaza":"","lat":35.899485,"lng":136.153948,"version":"14.0b/19.0a"},{"town":"姫川一丁目","koaza":"","lat":35.890681,"lng":136.169095,"version":"14.0b/19.0a"},{"town":"姫川二丁目","koaza":"","lat":35.894624,"lng":136.171111,"version":"14.0b/19.0a"},{"town":"平出一丁目","koaza":"","lat":35.907986,"lng":136.160086,"version":"14.0b/19.0a"},{"town":"平出二丁目","koaza":"","lat":35.911496,"lng":136.160766,"version":"14.0b/19.0a"},{"town":"平出三丁目","koaza":"","lat":35.915824,"lng":136.161007,"version":"14.0b/19.0a"},{"town":"平林町","koaza":"","lat":35.884063,"lng":136.199566,"version":"14.0b/19.0a"},{"town":"広瀬町","koaza":"","lat":35.877729,"lng":136.119876,"version":"14.0b/19.0a"},{"town":"深草一丁目","koaza":"","lat":35.903532,"lng":136.160134,"version":"14.0b/19.0a"},{"town":"深草二丁目","koaza":"","lat":35.906073,"lng":136.160942,"version":"14.0b/19.0a"},{"town":"藤木町","koaza":"","lat":35.933567,"lng":136.266471,"version":"14.0b/19.0a"},{"town":"富士見が丘一丁目","koaza":"","lat":35.872686,"lng":136.168567,"version":"14.0b/19.0a"},{"town":"富士見が丘二丁目","koaza":"","lat":35.872483,"lng":136.170658,"version":"14.0b/19.0a"},{"town":"府中一丁目","koaza":"","lat":35.902913,"lng":136.169778,"version":"14.0b/19.0a"},{"town":"府中二丁目","koaza":"","lat":35.905284,"lng":136.169583,"version":"14.0b/19.0a"},{"town":"府中三丁目","koaza":"","lat":35.907878,"lng":136.16958,"version":"14.0b/19.0a"},{"town":"文室町","koaza":"","lat":35.86297,"lng":136.253159,"version":"14.0b/19.0a"},{"town":"文京一丁目","koaza":"","lat":35.890566,"lng":136.161944,"version":"14.0b/19.0a"},{"town":"文京二丁目","koaza":"","lat":35.893815,"lng":136.161394,"version":"14.0b/19.0a"},{"town":"平和町","koaza":"","lat":35.899076,"lng":136.162592,"version":"14.0b/19.0a"},{"town":"別印町","koaza":"","lat":35.890525,"lng":136.306783,"version":"14.0b/19.0a"},{"town":"蓬莱町","koaza":"","lat":35.902363,"lng":136.166999,"version":"14.0b/19.0a"},{"town":"仏谷町","koaza":"","lat":35.872235,"lng":136.058434,"version":"14.0b/19.0a"},{"town":"帆山町","koaza":"","lat":35.895021,"lng":136.178104,"version":"14.0b/19.0a"},{"town":"堀川町","koaza":"","lat":35.899318,"lng":136.172869,"version":"14.0b/19.0a"},{"town":"堀町","koaza":"","lat":35.881697,"lng":136.051797,"version":"14.0b/19.0a"},{"town":"本多一丁目","koaza":"","lat":35.905764,"lng":136.163169,"version":"14.0b/19.0a"},{"town":"本多二丁目","koaza":"","lat":35.907873,"lng":136.165249,"version":"14.0b/19.0a"},{"town":"本多三丁目","koaza":"","lat":35.907937,"lng":136.163557,"version":"14.0b/19.0a"},{"town":"本保町","koaza":"","lat":35.928917,"lng":136.158738,"version":"14.0b/19.0a"},{"town":"本町","koaza":"","lat":35.899091,"lng":136.165075,"version":"14.0b/19.0a"},{"town":"真柄町","koaza":"","lat":35.902704,"lng":136.211169,"version":"14.0b/19.0a"},{"town":"牧町","koaza":"","lat":35.901604,"lng":136.047503,"version":"14.0b/19.0a"},{"town":"松森町","koaza":"","lat":35.882824,"lng":136.165634,"version":"14.0b/19.0a"},{"town":"丸岡町","koaza":"","lat":35.876096,"lng":136.069586,"version":"14.0b/19.0a"},{"town":"水間町","koaza":"","lat":35.91309,"lng":136.283434,"version":"14.0b/19.0a"},{"town":"三ツ口町","koaza":"","lat":35.887003,"lng":136.158026,"version":"14.0b/19.0a"},{"town":"三ツ俣町","koaza":"","lat":35.90808,"lng":136.126752,"version":"14.0b/19.0a"},{"town":"三ツ屋町","koaza":"","lat":35.918523,"lng":136.205249,"version":"14.0b/19.0a"},{"town":"南一丁目","koaza":"","lat":35.889744,"lng":136.165434,"version":"14.0b/19.0a"},{"town":"南二丁目","koaza":"","lat":35.89162,"lng":136.165834,"version":"14.0b/19.0a"},{"town":"南三丁目","koaza":"","lat":35.893178,"lng":136.16506,"version":"14.0b/19.0a"},{"town":"南小山町","koaza":"","lat":35.89463,"lng":136.241825,"version":"14.0b/19.0a"},{"town":"南坂下町","koaza":"","lat":35.894016,"lng":136.294874,"version":"14.0b/19.0a"},{"town":"南中町","koaza":"","lat":35.921279,"lng":136.279919,"version":"14.0b/19.0a"},{"town":"蓑脇町","koaza":"","lat":35.881303,"lng":136.261759,"version":"14.0b/19.0a"},{"town":"宮谷町","koaza":"","lat":35.881806,"lng":136.217527,"version":"14.0b/19.0a"},{"town":"御幸町","koaza":"","lat":35.895697,"lng":136.162815,"version":"14.0b/19.0a"},{"town":"妙法寺町","koaza":"","lat":35.878871,"lng":136.156997,"version":"14.0b/19.0a"},{"town":"向新保町","koaza":"","lat":35.878141,"lng":136.171558,"version":"14.0b/19.0a"},{"town":"向が丘町","koaza":"","lat":35.893399,"lng":136.136926,"version":"14.0b/19.0a"},{"town":"村国一丁目","koaza":"","lat":35.90335,"lng":136.177259,"version":"14.0b/19.0a"},{"town":"村国二丁目","koaza":"","lat":35.906078,"lng":136.176407,"version":"14.0b/19.0a"},{"town":"村国三丁目","koaza":"","lat":35.910907,"lng":136.180825,"version":"14.0b/19.0a"},{"town":"村国四丁目","koaza":"","lat":35.915404,"lng":136.181725,"version":"14.0b/19.0a"},{"town":"村国町","koaza":"","lat":35.902287,"lng":136.181738,"version":"14.0b/19.0a"},{"town":"室谷町","koaza":"","lat":35.927881,"lng":136.266693,"version":"14.0b/19.0a"},{"town":"元町","koaza":"","lat":35.901003,"lng":136.164882,"version":"14.0b/19.0a"},{"town":"森久町","koaza":"","lat":35.834539,"lng":136.15215,"version":"14.0b/19.0a"},{"town":"安戸町","koaza":"","lat":35.872001,"lng":136.036846,"version":"14.0b/19.0a"},{"town":"柳元町","koaza":"","lat":35.913903,"lng":136.297527,"version":"14.0b/19.0a"},{"town":"矢放町","koaza":"","lat":35.889433,"lng":136.184356,"version":"14.0b/19.0a"},{"town":"矢船町","koaza":"","lat":35.888157,"lng":136.174488,"version":"14.0b/19.0a"},{"town":"山室町","koaza":"","lat":35.924233,"lng":136.257223,"version":"14.0b/19.0a"},{"town":"行松町","koaza":"","lat":35.877889,"lng":136.165499,"version":"14.0b/19.0a"},{"town":"豊町","koaza":"","lat":35.896215,"lng":136.169148,"version":"14.0b/19.0a"},{"town":"湯谷町","koaza":"","lat":35.854595,"lng":136.077595,"version":"14.0b/19.0a"},{"town":"余川町","koaza":"","lat":35.886304,"lng":136.241554,"version":"14.0b/19.0a"},{"town":"横市町","koaza":"","lat":35.908894,"lng":136.195275,"version":"14.0b/19.0a"},{"town":"横住町","koaza":"","lat":35.931322,"lng":136.300721,"version":"14.0b/19.0a"},{"town":"横根町","koaza":"","lat":35.911951,"lng":136.128902,"version":"14.0b/19.0a"},{"town":"領家町","koaza":"","lat":35.935754,"lng":136.272344,"version":"14.0b/19.0a"},{"town":"若須町","koaza":"","lat":35.897777,"lng":136.039485,"version":"14.0b/19.0a"},{"town":"若竹町","koaza":"","lat":35.893754,"lng":136.167605,"version":"14.0b/19.0a"},{"town":"若松町","koaza":"","lat":35.901086,"lng":136.162107,"version":"14.0b/19.0a"},{"town":"行松町","koaza":"一丁目","lat":35.87913,"lng":136.166895,"version":"14.0b/19.0a"},{"town":"家久町","koaza":"一丁目","lat":35.930842,"lng":136.168165,"version":"14.0b/19.0a"},{"town":"家久町","koaza":"二丁目","lat":35.931845,"lng":136.169835,"version":"14.0b/19.0a"},{"town":"行松町","koaza":"二丁目","lat":35.878129,"lng":136.167247,"version":"14.0b/19.0a"},{"town":"上真柄町","koaza":"宮谷入会地","lat":35.886163,"lng":136.220111,"version":"14.0b/19.0a"}]