[{"town":"旭町一丁目","koaza":"","lat":35.944274,"lng":136.187465,"version":"13.0b/18.0a"},{"town":"旭町二丁目","koaza":"","lat":35.945699,"lng":136.187509,"version":"13.0b/18.0a"},{"town":"旭町三丁目","koaza":"","lat":35.947122,"lng":136.187507,"version":"13.0b/18.0a"},{"town":"旭町四丁目","koaza":"","lat":35.948836,"lng":136.187583,"version":"13.0b/18.0a"},{"town":"莇生田町","koaza":"","lat":35.945339,"lng":136.278342,"version":"13.0b/18.0a"},{"town":"有定町一丁目","koaza":"","lat":35.944858,"lng":136.177645,"version":"13.0b/18.0a"},{"town":"有定町二丁目","koaza":"","lat":35.944662,"lng":136.174507,"version":"13.0b/18.0a"},{"town":"有定町三丁目","koaza":"","lat":35.949132,"lng":136.174542,"version":"13.0b/18.0a"},{"town":"石田上町","koaza":"","lat":35.976123,"lng":136.162383,"version":"13.0b/18.0a"},{"town":"石田下町","koaza":"","lat":35.982965,"lng":136.156505,"version":"13.0b/18.0a"},{"town":"石田中町","koaza":"","lat":35.975215,"lng":136.153961,"version":"13.0b/18.0a"},{"town":"石生谷町","koaza":"","lat":35.940027,"lng":136.133093,"version":"13.0b/18.0a"},{"town":"磯部町","koaza":"","lat":35.958641,"lng":136.239968,"version":"13.0b/18.0a"},{"town":"入町","koaza":"","lat":35.994702,"lng":136.170549,"version":"13.0b/18.0a"},{"town":"漆原町","koaza":"","lat":35.941368,"lng":136.143989,"version":"13.0b/18.0a"},{"town":"大倉町","koaza":"","lat":35.963516,"lng":136.157035,"version":"13.0b/18.0a"},{"town":"大野町","koaza":"","lat":35.973513,"lng":136.233011,"version":"13.0b/18.0a"},{"town":"落井町","koaza":"","lat":35.95353,"lng":136.234414,"version":"13.0b/18.0a"},{"town":"乙坂今北町","koaza":"","lat":35.960864,"lng":136.230329,"version":"13.0b/18.0a"},{"town":"尾花町","koaza":"","lat":35.952787,"lng":136.296954,"version":"13.0b/18.0a"},{"town":"片山町","koaza":"","lat":35.949864,"lng":136.276703,"version":"13.0b/18.0a"},{"town":"金谷町","koaza":"","lat":35.965262,"lng":136.284648,"version":"13.0b/18.0a"},{"town":"上氏家町","koaza":"","lat":35.939552,"lng":136.157293,"version":"13.0b/18.0a"},{"town":"上河内町","koaza":"","lat":35.946675,"lng":136.308042,"version":"13.0b/18.0a"},{"town":"上河端町","koaza":"","lat":35.95712,"lng":136.198888,"version":"13.0b/18.0a"},{"town":"上鯖江一丁目","koaza":"","lat":35.937181,"lng":136.17818,"version":"13.0b/18.0a"},{"town":"上鯖江二丁目","koaza":"","lat":35.934819,"lng":136.17757,"version":"13.0b/18.0a"},{"town":"上鯖江町","koaza":"","lat":35.928165,"lng":136.17752,"version":"13.0b/18.0a"},{"town":"上戸口町","koaza":"","lat":35.970093,"lng":136.253865,"version":"13.0b/18.0a"},{"town":"神中町一丁目","koaza":"","lat":35.970858,"lng":136.196982,"version":"13.0b/18.0a"},{"town":"神中町二丁目","koaza":"","lat":35.97216,"lng":136.19221,"version":"13.0b/18.0a"},{"town":"神中町三丁目","koaza":"","lat":35.973472,"lng":136.187464,"version":"13.0b/18.0a"},{"town":"上野田町","koaza":"","lat":35.939734,"lng":136.151921,"version":"13.0b/18.0a"},{"town":"川去町","koaza":"","lat":35.970339,"lng":136.144298,"version":"13.0b/18.0a"},{"town":"川島町","koaza":"","lat":35.947112,"lng":136.231692,"version":"13.0b/18.0a"},{"town":"河和田町","koaza":"","lat":35.947717,"lng":136.267981,"version":"13.0b/18.0a"},{"town":"北中町","koaza":"","lat":35.953945,"lng":136.281798,"version":"13.0b/18.0a"},{"town":"北野町","koaza":"","lat":35.966909,"lng":136.172499,"version":"13.0b/18.0a"},{"town":"北野町一丁目","koaza":"","lat":35.963643,"lng":136.178319,"version":"13.0b/18.0a"},{"town":"北野町二丁目","koaza":"","lat":35.966791,"lng":136.178118,"version":"13.0b/18.0a"},{"town":"熊田町","koaza":"","lat":35.950833,"lng":136.168579,"version":"13.0b/18.0a"},{"town":"下司町","koaza":"","lat":35.939068,"lng":136.170835,"version":"13.0b/18.0a"},{"town":"小泉町","koaza":"","lat":35.969996,"lng":136.159447,"version":"13.0b/18.0a"},{"town":"小黒町","koaza":"","lat":35.953891,"lng":136.180701,"version":"13.0b/18.0a"},{"town":"小黒町一丁目","koaza":"","lat":35.953976,"lng":136.176967,"version":"13.0b/18.0a"},{"town":"小黒町二丁目","koaza":"","lat":35.951618,"lng":136.17434,"version":"13.0b/18.0a"},{"town":"小黒町三丁目","koaza":"","lat":35.955961,"lng":136.173239,"version":"13.0b/18.0a"},{"town":"五郎丸町","koaza":"","lat":35.93595,"lng":136.192424,"version":"13.0b/18.0a"},{"town":"幸町一丁目","koaza":"","lat":35.974181,"lng":136.181133,"version":"13.0b/18.0a"},{"town":"幸町二丁目","koaza":"","lat":35.977018,"lng":136.180471,"version":"13.0b/18.0a"},{"town":"桜町一丁目","koaza":"","lat":35.94594,"lng":136.182661,"version":"13.0b/18.0a"},{"town":"桜町二丁目","koaza":"","lat":35.94778,"lng":136.180062,"version":"13.0b/18.0a"},{"town":"桜町三丁目","koaza":"","lat":35.948714,"lng":136.182612,"version":"13.0b/18.0a"},{"town":"定次町","koaza":"","lat":35.935173,"lng":136.197162,"version":"13.0b/18.0a"},{"town":"沢町","koaza":"","lat":35.949087,"lng":136.301318,"version":"13.0b/18.0a"},{"town":"三六町一丁目","koaza":"","lat":35.970399,"lng":136.178142,"version":"13.0b/18.0a"},{"town":"三六町二丁目","koaza":"","lat":35.973258,"lng":136.178462,"version":"13.0b/18.0a"},{"town":"寺中町","koaza":"","lat":35.957652,"lng":136.289667,"version":"13.0b/18.0a"},{"town":"四方谷町","koaza":"","lat":35.978295,"lng":136.220627,"version":"13.0b/18.0a"},{"town":"持明寺町","koaza":"","lat":35.960739,"lng":136.145986,"version":"13.0b/18.0a"},{"town":"下氏家町","koaza":"","lat":35.947086,"lng":136.157219,"version":"13.0b/18.0a"},{"town":"下河端町","koaza":"","lat":35.967658,"lng":136.197246,"version":"13.0b/18.0a"},{"town":"下新庄町","koaza":"","lat":35.934806,"lng":136.213353,"version":"13.0b/18.0a"},{"town":"下野田町","koaza":"","lat":35.947452,"lng":136.149131,"version":"13.0b/18.0a"},{"town":"新町","koaza":"","lat":35.940463,"lng":136.203903,"version":"13.0b/18.0a"},{"town":"神明町一丁目","koaza":"","lat":35.97034,"lng":136.181127,"version":"13.0b/18.0a"},{"town":"神明町二丁目","koaza":"","lat":35.9733,"lng":136.184202,"version":"13.0b/18.0a"},{"town":"神明町三丁目","koaza":"","lat":35.976374,"lng":136.184467,"version":"13.0b/18.0a"},{"town":"神明町四丁目","koaza":"","lat":35.979234,"lng":136.185769,"version":"13.0b/18.0a"},{"town":"神明町五丁目","koaza":"","lat":35.981911,"lng":136.187597,"version":"13.0b/18.0a"},{"town":"新横江一丁目","koaza":"","lat":35.941021,"lng":136.194365,"version":"13.0b/18.0a"},{"town":"新横江二丁目","koaza":"","lat":35.940921,"lng":136.19818,"version":"13.0b/18.0a"},{"town":"杉本町","koaza":"","lat":35.982425,"lng":136.16925,"version":"13.0b/18.0a"},{"town":"住吉町一丁目","koaza":"","lat":35.94207,"lng":136.181802,"version":"13.0b/18.0a"},{"town":"住吉町二丁目","koaza":"","lat":35.939313,"lng":136.17862,"version":"13.0b/18.0a"},{"town":"住吉町三丁目","koaza":"","lat":35.942003,"lng":136.178053,"version":"13.0b/18.0a"},{"town":"大正寺町","koaza":"","lat":35.985337,"lng":136.232227,"version":"13.0b/18.0a"},{"town":"糺町","koaza":"","lat":35.974722,"lng":136.172718,"version":"13.0b/18.0a"},{"town":"田所町","koaza":"","lat":35.976804,"lng":136.178131,"version":"13.0b/18.0a"},{"town":"田村町","koaza":"","lat":35.964117,"lng":136.149526,"version":"13.0b/18.0a"},{"town":"長泉寺町","koaza":"","lat":35.952696,"lng":136.190776,"version":"13.0b/18.0a"},{"town":"長泉寺町一丁目","koaza":"","lat":35.952118,"lng":136.186255,"version":"13.0b/18.0a"},{"town":"長泉寺町二丁目","koaza":"","lat":35.954795,"lng":136.186509,"version":"13.0b/18.0a"},{"town":"つつじケ丘町","koaza":"","lat":35.989545,"lng":136.184503,"version":"13.0b/18.0a"},{"town":"当田町","koaza":"","lat":35.946605,"lng":136.162879,"version":"13.0b/18.0a"},{"town":"戸口町","koaza":"","lat":35.950085,"lng":136.248358,"version":"13.0b/18.0a"},{"town":"鳥羽一丁目","koaza":"","lat":35.985487,"lng":136.189144,"version":"13.0b/18.0a"},{"town":"鳥羽二丁目","koaza":"","lat":35.988894,"lng":136.19077,"version":"13.0b/18.0a"},{"town":"鳥羽三丁目","koaza":"","lat":35.987394,"lng":136.185505,"version":"13.0b/18.0a"},{"town":"鳥羽町","koaza":"","lat":35.981939,"lng":136.199047,"version":"13.0b/18.0a"},{"town":"鳥井町","koaza":"","lat":35.944267,"lng":136.169143,"version":"13.0b/18.0a"},{"town":"南井町","koaza":"","lat":35.982757,"lng":136.225265,"version":"13.0b/18.0a"},{"town":"中戸口町","koaza":"","lat":35.961306,"lng":136.251408,"version":"13.0b/18.0a"},{"town":"中野町","koaza":"","lat":35.950263,"lng":136.214377,"version":"13.0b/18.0a"},{"town":"西大井町","koaza":"","lat":35.958773,"lng":136.139064,"version":"13.0b/18.0a"},{"town":"西番町","koaza":"","lat":35.992008,"lng":136.158043,"version":"13.0b/18.0a"},{"town":"西袋町","koaza":"","lat":35.957233,"lng":136.275089,"version":"13.0b/18.0a"},{"town":"西山町","koaza":"","lat":35.955786,"lng":136.183151,"version":"13.0b/18.0a"},{"town":"二丁掛町","koaza":"","lat":35.954801,"lng":136.157306,"version":"13.0b/18.0a"},{"town":"橋立町","koaza":"","lat":35.96993,"lng":136.209996,"version":"13.0b/18.0a"},{"town":"東鯖江一丁目","koaza":"","lat":35.944813,"lng":136.195409,"version":"13.0b/18.0a"},{"town":"東鯖江二丁目","koaza":"","lat":35.94895,"lng":136.195116,"version":"13.0b/18.0a"},{"town":"東鯖江三丁目","koaza":"","lat":35.944848,"lng":136.198158,"version":"13.0b/18.0a"},{"town":"東鯖江四丁目","koaza":"","lat":35.949125,"lng":136.197994,"version":"13.0b/18.0a"},{"town":"東清水町","koaza":"","lat":35.95239,"lng":136.285054,"version":"13.0b/18.0a"},{"town":"東米岡一丁目","koaza":"","lat":35.985566,"lng":136.183532,"version":"13.0b/18.0a"},{"town":"東米岡二丁目","koaza":"","lat":35.986465,"lng":136.182284,"version":"13.0b/18.0a"},{"town":"日の出町","koaza":"","lat":35.941043,"lng":136.187036,"version":"13.0b/18.0a"},{"town":"平井町","koaza":"","lat":35.960755,"lng":136.16555,"version":"13.0b/18.0a"},{"town":"深江町","koaza":"","lat":35.941811,"lng":136.184703,"version":"13.0b/18.0a"},{"town":"冬島町","koaza":"","lat":35.956199,"lng":136.149322,"version":"13.0b/18.0a"},{"town":"舟枝町","koaza":"","lat":35.962584,"lng":136.212032,"version":"13.0b/18.0a"},{"town":"舟津町一丁目","koaza":"","lat":35.937009,"lng":136.186221,"version":"13.0b/18.0a"},{"town":"舟津町二丁目","koaza":"","lat":35.938404,"lng":136.182785,"version":"13.0b/18.0a"},{"town":"舟津町三丁目","koaza":"","lat":35.936747,"lng":136.181689,"version":"13.0b/18.0a"},{"town":"舟津町四丁目","koaza":"","lat":35.93327,"lng":136.182122,"version":"13.0b/18.0a"},{"town":"舟津町五丁目","koaza":"","lat":35.931756,"lng":136.177183,"version":"13.0b/18.0a"},{"town":"別司町","koaza":"","lat":35.948679,"lng":136.258113,"version":"13.0b/18.0a"},{"town":"別所町","koaza":"","lat":35.973333,"lng":136.242531,"version":"13.0b/18.0a"},{"town":"本町一丁目","koaza":"","lat":35.944401,"lng":136.185068,"version":"13.0b/18.0a"},{"town":"本町二丁目","koaza":"","lat":35.946018,"lng":136.184813,"version":"13.0b/18.0a"},{"town":"本町三丁目","koaza":"","lat":35.947407,"lng":136.184738,"version":"13.0b/18.0a"},{"town":"本町四丁目","koaza":"","lat":35.949021,"lng":136.184808,"version":"13.0b/18.0a"},{"town":"松成町","koaza":"","lat":35.958466,"lng":136.223938,"version":"13.0b/18.0a"},{"town":"丸山町一丁目","koaza":"","lat":35.979629,"lng":136.181068,"version":"13.0b/18.0a"},{"town":"丸山町二丁目","koaza":"","lat":35.982534,"lng":136.182712,"version":"13.0b/18.0a"},{"town":"丸山町三丁目","koaza":"","lat":35.981024,"lng":136.178015,"version":"13.0b/18.0a"},{"town":"丸山町四丁目","koaza":"","lat":35.984065,"lng":136.179207,"version":"13.0b/18.0a"},{"town":"三尾野出作町","koaza":"","lat":35.993822,"lng":136.163163,"version":"13.0b/18.0a"},{"town":"水落町","koaza":"","lat":35.960387,"lng":136.191011,"version":"13.0b/18.0a"},{"town":"水落町一丁目","koaza":"","lat":35.960073,"lng":136.179865,"version":"13.0b/18.0a"},{"town":"水落町二丁目","koaza":"","lat":35.960928,"lng":136.185944,"version":"13.0b/18.0a"},{"town":"水落町三丁目","koaza":"","lat":35.966726,"lng":136.183962,"version":"13.0b/18.0a"},{"town":"水落町四丁目","koaza":"","lat":35.969738,"lng":136.184309,"version":"13.0b/18.0a"},{"town":"宮前一丁目","koaza":"","lat":35.93745,"lng":136.189457,"version":"13.0b/18.0a"},{"town":"宮前二丁目","koaza":"","lat":35.932948,"lng":136.187313,"version":"13.0b/18.0a"},{"town":"御幸町一丁目","koaza":"","lat":35.977298,"lng":136.19753,"version":"13.0b/18.0a"},{"town":"御幸町二丁目","koaza":"","lat":35.976816,"lng":136.191984,"version":"13.0b/18.0a"},{"town":"御幸町三丁目","koaza":"","lat":35.980138,"lng":136.193421,"version":"13.0b/18.0a"},{"town":"御幸町四丁目","koaza":"","lat":35.979501,"lng":136.189849,"version":"13.0b/18.0a"},{"town":"屋形町","koaza":"","lat":35.943254,"lng":136.183678,"version":"13.0b/18.0a"},{"town":"柳町一丁目","koaza":"","lat":35.944666,"lng":136.189881,"version":"13.0b/18.0a"},{"town":"柳町二丁目","koaza":"","lat":35.948039,"lng":136.189759,"version":"13.0b/18.0a"},{"town":"柳町三丁目","koaza":"","lat":35.944734,"lng":136.192637,"version":"13.0b/18.0a"},{"town":"柳町四丁目","koaza":"","lat":35.948888,"lng":136.192284,"version":"13.0b/18.0a"},{"town":"横江町一丁目","koaza":"","lat":35.941077,"lng":136.189981,"version":"13.0b/18.0a"},{"town":"横江町二丁目","koaza":"","lat":35.941195,"lng":136.191889,"version":"13.0b/18.0a"},{"town":"横越町","koaza":"","lat":35.946995,"lng":136.202686,"version":"13.0b/18.0a"},{"town":"吉江町","koaza":"","lat":35.989088,"lng":136.173454,"version":"13.0b/18.0a"},{"town":"吉田町","koaza":"","lat":35.959784,"lng":136.15649,"version":"13.0b/18.0a"},{"town":"吉谷町","koaza":"","lat":35.969531,"lng":136.216628,"version":"13.0b/18.0a"},{"town":"米岡町","koaza":"","lat":35.988044,"lng":136.179393,"version":"13.0b/18.0a"},{"town":"和田町","koaza":"","lat":35.949025,"lng":136.136595,"version":"13.0b/18.0a"},{"town":"旭町一丁目","koaza":"","lat":35.944274,"lng":136.187465,"version":"14.0b/19.0a"},{"town":"旭町二丁目","koaza":"","lat":35.945699,"lng":136.187509,"version":"14.0b/19.0a"},{"town":"旭町三丁目","koaza":"","lat":35.947122,"lng":136.187507,"version":"14.0b/19.0a"},{"town":"旭町四丁目","koaza":"","lat":35.948836,"lng":136.187583,"version":"14.0b/19.0a"},{"town":"莇生田町","koaza":"","lat":35.945339,"lng":136.278342,"version":"14.0b/19.0a"},{"town":"有定町一丁目","koaza":"","lat":35.944858,"lng":136.177645,"version":"14.0b/19.0a"},{"town":"有定町二丁目","koaza":"","lat":35.944662,"lng":136.174507,"version":"14.0b/19.0a"},{"town":"有定町三丁目","koaza":"","lat":35.949132,"lng":136.174542,"version":"14.0b/19.0a"},{"town":"石田上町","koaza":"","lat":35.976123,"lng":136.162383,"version":"14.0b/19.0a"},{"town":"石田下町","koaza":"","lat":35.982965,"lng":136.156505,"version":"14.0b/19.0a"},{"town":"石田中町","koaza":"","lat":35.975215,"lng":136.153961,"version":"14.0b/19.0a"},{"town":"石生谷町","koaza":"","lat":35.940027,"lng":136.133093,"version":"14.0b/19.0a"},{"town":"磯部町","koaza":"","lat":35.958641,"lng":136.239968,"version":"14.0b/19.0a"},{"town":"入町","koaza":"","lat":35.994702,"lng":136.170549,"version":"14.0b/19.0a"},{"town":"漆原町","koaza":"","lat":35.941368,"lng":136.143989,"version":"14.0b/19.0a"},{"town":"大倉町","koaza":"","lat":35.963516,"lng":136.157035,"version":"14.0b/19.0a"},{"town":"大野町","koaza":"","lat":35.973513,"lng":136.233011,"version":"14.0b/19.0a"},{"town":"落井町","koaza":"","lat":35.95353,"lng":136.234414,"version":"14.0b/19.0a"},{"town":"乙坂今北町","koaza":"","lat":35.960864,"lng":136.230329,"version":"14.0b/19.0a"},{"town":"尾花町","koaza":"","lat":35.952787,"lng":136.296954,"version":"14.0b/19.0a"},{"town":"片山町","koaza":"","lat":35.949864,"lng":136.276703,"version":"14.0b/19.0a"},{"town":"金谷町","koaza":"","lat":35.965262,"lng":136.284648,"version":"14.0b/19.0a"},{"town":"上氏家町","koaza":"","lat":35.939552,"lng":136.157293,"version":"14.0b/19.0a"},{"town":"上河内町","koaza":"","lat":35.946675,"lng":136.308042,"version":"14.0b/19.0a"},{"town":"上河端町","koaza":"","lat":35.95712,"lng":136.198888,"version":"14.0b/19.0a"},{"town":"上鯖江一丁目","koaza":"","lat":35.937181,"lng":136.17818,"version":"14.0b/19.0a"},{"town":"上鯖江二丁目","koaza":"","lat":35.934819,"lng":136.17757,"version":"14.0b/19.0a"},{"town":"上鯖江町","koaza":"","lat":35.928165,"lng":136.17752,"version":"14.0b/19.0a"},{"town":"上戸口町","koaza":"","lat":35.970093,"lng":136.253865,"version":"14.0b/19.0a"},{"town":"神中町一丁目","koaza":"","lat":35.970858,"lng":136.196982,"version":"14.0b/19.0a"},{"town":"神中町二丁目","koaza":"","lat":35.97216,"lng":136.19221,"version":"14.0b/19.0a"},{"town":"神中町三丁目","koaza":"","lat":35.973472,"lng":136.187464,"version":"14.0b/19.0a"},{"town":"上野田町","koaza":"","lat":35.939734,"lng":136.151921,"version":"14.0b/19.0a"},{"town":"川去町","koaza":"","lat":35.970339,"lng":136.144298,"version":"14.0b/19.0a"},{"town":"川島町","koaza":"","lat":35.947112,"lng":136.231692,"version":"14.0b/19.0a"},{"town":"河和田町","koaza":"","lat":35.947717,"lng":136.267981,"version":"14.0b/19.0a"},{"town":"北中町","koaza":"","lat":35.953945,"lng":136.281798,"version":"14.0b/19.0a"},{"town":"北野町","koaza":"","lat":35.966909,"lng":136.172499,"version":"14.0b/19.0a"},{"town":"北野町一丁目","koaza":"","lat":35.963643,"lng":136.178319,"version":"14.0b/19.0a"},{"town":"北野町二丁目","koaza":"","lat":35.966791,"lng":136.178118,"version":"14.0b/19.0a"},{"town":"熊田町","koaza":"","lat":35.950833,"lng":136.168579,"version":"14.0b/19.0a"},{"town":"下司町","koaza":"","lat":35.939068,"lng":136.170835,"version":"14.0b/19.0a"},{"town":"小泉町","koaza":"","lat":35.969996,"lng":136.159447,"version":"14.0b/19.0a"},{"town":"小黒町","koaza":"","lat":35.953891,"lng":136.180701,"version":"14.0b/19.0a"},{"town":"小黒町一丁目","koaza":"","lat":35.953976,"lng":136.176967,"version":"14.0b/19.0a"},{"town":"小黒町二丁目","koaza":"","lat":35.951618,"lng":136.17434,"version":"14.0b/19.0a"},{"town":"小黒町三丁目","koaza":"","lat":35.955961,"lng":136.173239,"version":"14.0b/19.0a"},{"town":"五郎丸町","koaza":"","lat":35.93595,"lng":136.192424,"version":"14.0b/19.0a"},{"town":"幸町一丁目","koaza":"","lat":35.974181,"lng":136.181133,"version":"14.0b/19.0a"},{"town":"幸町二丁目","koaza":"","lat":35.977018,"lng":136.180471,"version":"14.0b/19.0a"},{"town":"桜町一丁目","koaza":"","lat":35.94594,"lng":136.182661,"version":"14.0b/19.0a"},{"town":"桜町二丁目","koaza":"","lat":35.94778,"lng":136.180062,"version":"14.0b/19.0a"},{"town":"桜町三丁目","koaza":"","lat":35.948714,"lng":136.182612,"version":"14.0b/19.0a"},{"town":"定次町","koaza":"","lat":35.935173,"lng":136.197162,"version":"14.0b/19.0a"},{"town":"沢町","koaza":"","lat":35.949087,"lng":136.301318,"version":"14.0b/19.0a"},{"town":"三六町一丁目","koaza":"","lat":35.970399,"lng":136.178142,"version":"14.0b/19.0a"},{"town":"三六町二丁目","koaza":"","lat":35.973258,"lng":136.178462,"version":"14.0b/19.0a"},{"town":"寺中町","koaza":"","lat":35.957652,"lng":136.289667,"version":"14.0b/19.0a"},{"town":"四方谷町","koaza":"","lat":35.978295,"lng":136.220627,"version":"14.0b/19.0a"},{"town":"持明寺町","koaza":"","lat":35.960739,"lng":136.145986,"version":"14.0b/19.0a"},{"town":"下氏家町","koaza":"","lat":35.947086,"lng":136.157219,"version":"14.0b/19.0a"},{"town":"下河端町","koaza":"","lat":35.967658,"lng":136.197246,"version":"14.0b/19.0a"},{"town":"下新庄町","koaza":"","lat":35.934806,"lng":136.213353,"version":"14.0b/19.0a"},{"town":"下野田町","koaza":"","lat":35.947452,"lng":136.149131,"version":"14.0b/19.0a"},{"town":"新町","koaza":"","lat":35.940463,"lng":136.203903,"version":"14.0b/19.0a"},{"town":"神明町一丁目","koaza":"","lat":35.97034,"lng":136.181127,"version":"14.0b/19.0a"},{"town":"神明町二丁目","koaza":"","lat":35.9733,"lng":136.184202,"version":"14.0b/19.0a"},{"town":"神明町三丁目","koaza":"","lat":35.976374,"lng":136.184467,"version":"14.0b/19.0a"},{"town":"神明町四丁目","koaza":"","lat":35.979234,"lng":136.185769,"version":"14.0b/19.0a"},{"town":"神明町五丁目","koaza":"","lat":35.981911,"lng":136.187597,"version":"14.0b/19.0a"},{"town":"新横江一丁目","koaza":"","lat":35.941021,"lng":136.194365,"version":"14.0b/19.0a"},{"town":"新横江二丁目","koaza":"","lat":35.940921,"lng":136.19818,"version":"14.0b/19.0a"},{"town":"杉本町","koaza":"","lat":35.982425,"lng":136.16925,"version":"14.0b/19.0a"},{"town":"住吉町一丁目","koaza":"","lat":35.94207,"lng":136.181802,"version":"14.0b/19.0a"},{"town":"住吉町二丁目","koaza":"","lat":35.939313,"lng":136.17862,"version":"14.0b/19.0a"},{"town":"住吉町三丁目","koaza":"","lat":35.942003,"lng":136.178053,"version":"14.0b/19.0a"},{"town":"大正寺町","koaza":"","lat":35.985337,"lng":136.232227,"version":"14.0b/19.0a"},{"town":"糺町","koaza":"","lat":35.974722,"lng":136.172718,"version":"14.0b/19.0a"},{"town":"田所町","koaza":"","lat":35.976804,"lng":136.178131,"version":"14.0b/19.0a"},{"town":"田村町","koaza":"","lat":35.964117,"lng":136.149526,"version":"14.0b/19.0a"},{"town":"長泉寺町","koaza":"","lat":35.952696,"lng":136.190776,"version":"14.0b/19.0a"},{"town":"長泉寺町一丁目","koaza":"","lat":35.952118,"lng":136.186255,"version":"14.0b/19.0a"},{"town":"長泉寺町二丁目","koaza":"","lat":35.954795,"lng":136.186509,"version":"14.0b/19.0a"},{"town":"つつじケ丘町","koaza":"","lat":35.989545,"lng":136.184503,"version":"14.0b/19.0a"},{"town":"当田町","koaza":"","lat":35.946605,"lng":136.162879,"version":"14.0b/19.0a"},{"town":"戸口町","koaza":"","lat":35.950085,"lng":136.248358,"version":"14.0b/19.0a"},{"town":"鳥羽一丁目","koaza":"","lat":35.985487,"lng":136.189144,"version":"14.0b/19.0a"},{"town":"鳥羽二丁目","koaza":"","lat":35.988894,"lng":136.19077,"version":"14.0b/19.0a"},{"town":"鳥羽三丁目","koaza":"","lat":35.987394,"lng":136.185505,"version":"14.0b/19.0a"},{"town":"鳥羽町","koaza":"","lat":35.981939,"lng":136.199047,"version":"14.0b/19.0a"},{"town":"鳥井町","koaza":"","lat":35.944267,"lng":136.169143,"version":"14.0b/19.0a"},{"town":"南井町","koaza":"","lat":35.982757,"lng":136.225265,"version":"14.0b/19.0a"},{"town":"中戸口町","koaza":"","lat":35.961306,"lng":136.251408,"version":"14.0b/19.0a"},{"town":"中野町","koaza":"","lat":35.950263,"lng":136.214377,"version":"14.0b/19.0a"},{"town":"西大井町","koaza":"","lat":35.958773,"lng":136.139064,"version":"14.0b/19.0a"},{"town":"西番町","koaza":"","lat":35.992008,"lng":136.158043,"version":"14.0b/19.0a"},{"town":"西袋町","koaza":"","lat":35.957233,"lng":136.275089,"version":"14.0b/19.0a"},{"town":"西山町","koaza":"","lat":35.955786,"lng":136.183151,"version":"14.0b/19.0a"},{"town":"二丁掛町","koaza":"","lat":35.954801,"lng":136.157306,"version":"14.0b/19.0a"},{"town":"橋立町","koaza":"","lat":35.96993,"lng":136.209996,"version":"14.0b/19.0a"},{"town":"東鯖江一丁目","koaza":"","lat":35.944813,"lng":136.195409,"version":"14.0b/19.0a"},{"town":"東鯖江二丁目","koaza":"","lat":35.94895,"lng":136.195116,"version":"14.0b/19.0a"},{"town":"東鯖江三丁目","koaza":"","lat":35.944848,"lng":136.198158,"version":"14.0b/19.0a"},{"town":"東鯖江四丁目","koaza":"","lat":35.949125,"lng":136.197994,"version":"14.0b/19.0a"},{"town":"東清水町","koaza":"","lat":35.95239,"lng":136.285054,"version":"14.0b/19.0a"},{"town":"東米岡一丁目","koaza":"","lat":35.985566,"lng":136.183532,"version":"14.0b/19.0a"},{"town":"東米岡二丁目","koaza":"","lat":35.986465,"lng":136.182284,"version":"14.0b/19.0a"},{"town":"日の出町","koaza":"","lat":35.941043,"lng":136.187036,"version":"14.0b/19.0a"},{"town":"平井町","koaza":"","lat":35.960755,"lng":136.16555,"version":"14.0b/19.0a"},{"town":"深江町","koaza":"","lat":35.941811,"lng":136.184703,"version":"14.0b/19.0a"},{"town":"冬島町","koaza":"","lat":35.956199,"lng":136.149322,"version":"14.0b/19.0a"},{"town":"舟枝町","koaza":"","lat":35.962584,"lng":136.212032,"version":"14.0b/19.0a"},{"town":"舟津町一丁目","koaza":"","lat":35.937009,"lng":136.186221,"version":"14.0b/19.0a"},{"town":"舟津町二丁目","koaza":"","lat":35.938404,"lng":136.182785,"version":"14.0b/19.0a"},{"town":"舟津町三丁目","koaza":"","lat":35.936747,"lng":136.181689,"version":"14.0b/19.0a"},{"town":"舟津町四丁目","koaza":"","lat":35.93327,"lng":136.182122,"version":"14.0b/19.0a"},{"town":"舟津町五丁目","koaza":"","lat":35.931756,"lng":136.177183,"version":"14.0b/19.0a"},{"town":"別司町","koaza":"","lat":35.948679,"lng":136.258113,"version":"14.0b/19.0a"},{"town":"別所町","koaza":"","lat":35.973333,"lng":136.242531,"version":"14.0b/19.0a"},{"town":"本町一丁目","koaza":"","lat":35.944401,"lng":136.185068,"version":"14.0b/19.0a"},{"town":"本町二丁目","koaza":"","lat":35.946018,"lng":136.184813,"version":"14.0b/19.0a"},{"town":"本町三丁目","koaza":"","lat":35.947407,"lng":136.184738,"version":"14.0b/19.0a"},{"town":"本町四丁目","koaza":"","lat":35.949021,"lng":136.184808,"version":"14.0b/19.0a"},{"town":"松成町","koaza":"","lat":35.958466,"lng":136.223938,"version":"14.0b/19.0a"},{"town":"丸山町一丁目","koaza":"","lat":35.979629,"lng":136.181068,"version":"14.0b/19.0a"},{"town":"丸山町二丁目","koaza":"","lat":35.982534,"lng":136.182712,"version":"14.0b/19.0a"},{"town":"丸山町三丁目","koaza":"","lat":35.981024,"lng":136.178015,"version":"14.0b/19.0a"},{"town":"丸山町四丁目","koaza":"","lat":35.984065,"lng":136.179207,"version":"14.0b/19.0a"},{"town":"三尾野出作町","koaza":"","lat":35.993822,"lng":136.163163,"version":"14.0b/19.0a"},{"town":"水落町","koaza":"","lat":35.960387,"lng":136.191011,"version":"14.0b/19.0a"},{"town":"水落町一丁目","koaza":"","lat":35.960073,"lng":136.179865,"version":"14.0b/19.0a"},{"town":"水落町二丁目","koaza":"","lat":35.960928,"lng":136.185944,"version":"14.0b/19.0a"},{"town":"水落町三丁目","koaza":"","lat":35.966726,"lng":136.183962,"version":"14.0b/19.0a"},{"town":"水落町四丁目","koaza":"","lat":35.969738,"lng":136.184309,"version":"14.0b/19.0a"},{"town":"宮前一丁目","koaza":"","lat":35.93745,"lng":136.189457,"version":"14.0b/19.0a"},{"town":"宮前二丁目","koaza":"","lat":35.932948,"lng":136.187313,"version":"14.0b/19.0a"},{"town":"御幸町一丁目","koaza":"","lat":35.977298,"lng":136.19753,"version":"14.0b/19.0a"},{"town":"御幸町二丁目","koaza":"","lat":35.976816,"lng":136.191984,"version":"14.0b/19.0a"},{"town":"御幸町三丁目","koaza":"","lat":35.980138,"lng":136.193421,"version":"14.0b/19.0a"},{"town":"御幸町四丁目","koaza":"","lat":35.979501,"lng":136.189849,"version":"14.0b/19.0a"},{"town":"屋形町","koaza":"","lat":35.943254,"lng":136.183678,"version":"14.0b/19.0a"},{"town":"柳町一丁目","koaza":"","lat":35.944666,"lng":136.189881,"version":"14.0b/19.0a"},{"town":"柳町二丁目","koaza":"","lat":35.948039,"lng":136.189759,"version":"14.0b/19.0a"},{"town":"柳町三丁目","koaza":"","lat":35.944734,"lng":136.192637,"version":"14.0b/19.0a"},{"town":"柳町四丁目","koaza":"","lat":35.948888,"lng":136.192284,"version":"14.0b/19.0a"},{"town":"横江町一丁目","koaza":"","lat":35.941077,"lng":136.189981,"version":"14.0b/19.0a"},{"town":"横江町二丁目","koaza":"","lat":35.941195,"lng":136.191889,"version":"14.0b/19.0a"},{"town":"横越町","koaza":"","lat":35.946995,"lng":136.202686,"version":"14.0b/19.0a"},{"town":"吉江町","koaza":"","lat":35.989088,"lng":136.173454,"version":"14.0b/19.0a"},{"town":"吉田町","koaza":"","lat":35.959784,"lng":136.15649,"version":"14.0b/19.0a"},{"town":"吉谷町","koaza":"","lat":35.969531,"lng":136.216628,"version":"14.0b/19.0a"},{"town":"米岡町","koaza":"","lat":35.988044,"lng":136.179393,"version":"14.0b/19.0a"},{"town":"和田町","koaza":"","lat":35.949025,"lng":136.136595,"version":"14.0b/19.0a"}]