[{"town":"大字狄塚","koaza":"","lat":40.281907,"lng":141.406712,"version":"13.0b/18.0a"},{"town":"大字上舘","koaza":"","lat":40.328742,"lng":141.522893,"version":"13.0b/18.0a"},{"town":"大字軽米","koaza":"","lat":40.320314,"lng":141.448952,"version":"13.0b/18.0a"},{"town":"大字高家","koaza":"","lat":40.348971,"lng":141.422649,"version":"13.0b/18.0a"},{"town":"大字小軽米","koaza":"","lat":40.273405,"lng":141.548447,"version":"13.0b/18.0a"},{"town":"大字山内","koaza":"","lat":40.298811,"lng":141.39817,"version":"13.0b/18.0a"},{"town":"大字長倉","koaza":"","lat":40.357343,"lng":141.482523,"version":"13.0b/18.0a"},{"town":"大字晴山","koaza":"","lat":40.339081,"lng":141.399936,"version":"13.0b/18.0a"},{"town":"大字蛇口","koaza":"","lat":40.24979,"lng":141.501383,"version":"13.0b/18.0a"},{"town":"大字円子","koaza":"","lat":40.26124,"lng":141.469754,"version":"13.0b/18.0a"},{"town":"大字狄塚","koaza":"","lat":40.281907,"lng":141.406712,"version":"14.0b/19.0a"},{"town":"大字上舘","koaza":"","lat":40.328742,"lng":141.522893,"version":"14.0b/19.0a"},{"town":"大字軽米","koaza":"","lat":40.320314,"lng":141.448952,"version":"14.0b/19.0a"},{"town":"大字高家","koaza":"","lat":40.348971,"lng":141.422649,"version":"14.0b/19.0a"},{"town":"大字小軽米","koaza":"","lat":40.273405,"lng":141.548447,"version":"14.0b/19.0a"},{"town":"大字山内","koaza":"","lat":40.298811,"lng":141.39817,"version":"14.0b/19.0a"},{"town":"大字長倉","koaza":"","lat":40.357343,"lng":141.482523,"version":"14.0b/19.0a"},{"town":"大字晴山","koaza":"","lat":40.339081,"lng":141.399936,"version":"14.0b/19.0a"},{"town":"大字蛇口","koaza":"","lat":40.24979,"lng":141.501383,"version":"14.0b/19.0a"},{"town":"大字円子","koaza":"","lat":40.26124,"lng":141.469754,"version":"14.0b/19.0a"}]