[{"town":"粟田一丁目","koaza":"","lat":36.510221,"lng":136.612654,"version":"13.0b/18.0a"},{"town":"粟田二丁目","koaza":"","lat":36.512755,"lng":136.612783,"version":"13.0b/18.0a"},{"town":"粟田三丁目","koaza":"","lat":36.515681,"lng":136.613734,"version":"13.0b/18.0a"},{"town":"粟田四丁目","koaza":"","lat":36.516479,"lng":136.611592,"version":"13.0b/18.0a"},{"town":"粟田五丁目","koaza":"","lat":36.514064,"lng":136.608439,"version":"13.0b/18.0a"},{"town":"粟田六丁目","koaza":"","lat":36.510383,"lng":136.608398,"version":"13.0b/18.0a"},{"town":"稲荷一丁目","koaza":"","lat":36.534511,"lng":136.604571,"version":"13.0b/18.0a"},{"town":"稲荷二丁目","koaza":"","lat":36.534308,"lng":136.602129,"version":"13.0b/18.0a"},{"town":"稲荷三丁目","koaza":"","lat":36.534483,"lng":136.600027,"version":"13.0b/18.0a"},{"town":"扇が丘","koaza":"","lat":36.527559,"lng":136.625559,"version":"13.0b/18.0a"},{"town":"御経塚二丁目","koaza":"","lat":36.548681,"lng":136.597717,"version":"13.0b/18.0a"},{"town":"御経塚三丁目","koaza":"","lat":36.551772,"lng":136.597016,"version":"13.0b/18.0a"},{"town":"御経塚四丁目","koaza":"","lat":36.550936,"lng":136.600623,"version":"13.0b/18.0a"},{"town":"押越一丁目","koaza":"","lat":36.539342,"lng":136.610585,"version":"13.0b/18.0a"},{"town":"押越二丁目","koaza":"","lat":36.54001,"lng":136.607673,"version":"13.0b/18.0a"},{"town":"押野一丁目","koaza":"","lat":36.54274,"lng":136.614705,"version":"13.0b/18.0a"},{"town":"押野二丁目","koaza":"","lat":36.540096,"lng":136.613554,"version":"13.0b/18.0a"},{"town":"押野三丁目","koaza":"","lat":36.54027,"lng":136.61727,"version":"13.0b/18.0a"},{"town":"押野四丁目","koaza":"","lat":36.540124,"lng":136.62131,"version":"13.0b/18.0a"},{"town":"押野五丁目","koaza":"","lat":36.543876,"lng":136.620723,"version":"13.0b/18.0a"},{"town":"押野六丁目","koaza":"","lat":36.545329,"lng":136.617677,"version":"13.0b/18.0a"},{"town":"押野七丁目","koaza":"","lat":36.544911,"lng":136.614225,"version":"13.0b/18.0a"},{"town":"上林一丁目","koaza":"","lat":36.49955,"lng":136.601343,"version":"13.0b/18.0a"},{"town":"上林二丁目","koaza":"","lat":36.50241,"lng":136.599673,"version":"13.0b/18.0a"},{"town":"上林三丁目","koaza":"","lat":36.503566,"lng":136.603058,"version":"13.0b/18.0a"},{"town":"上林四丁目","koaza":"","lat":36.504848,"lng":136.605668,"version":"13.0b/18.0a"},{"town":"上林五丁目","koaza":"","lat":36.500579,"lng":136.605947,"version":"13.0b/18.0a"},{"town":"清金一丁目","koaza":"","lat":36.512842,"lng":136.595101,"version":"13.0b/18.0a"},{"town":"清金二丁目","koaza":"","lat":36.516618,"lng":136.595869,"version":"13.0b/18.0a"},{"town":"清金三丁目","koaza":"","lat":36.518896,"lng":136.59568,"version":"13.0b/18.0a"},{"town":"位川","koaza":"","lat":36.524709,"lng":136.605798,"version":"13.0b/18.0a"},{"town":"三納一丁目","koaza":"","lat":36.518216,"lng":136.609562,"version":"13.0b/18.0a"},{"town":"三納二丁目","koaza":"","lat":36.521696,"lng":136.609701,"version":"13.0b/18.0a"},{"town":"三納三丁目","koaza":"","lat":36.52455,"lng":136.609701,"version":"13.0b/18.0a"},{"town":"下林一丁目","koaza":"","lat":36.518634,"lng":136.603047,"version":"13.0b/18.0a"},{"town":"下林二丁目","koaza":"","lat":36.518763,"lng":136.599429,"version":"13.0b/18.0a"},{"town":"下林三丁目","koaza":"","lat":36.523577,"lng":136.60001,"version":"13.0b/18.0a"},{"town":"下林四丁目","koaza":"","lat":36.523429,"lng":136.603787,"version":"13.0b/18.0a"},{"town":"新庄一丁目","koaza":"","lat":36.499015,"lng":136.611929,"version":"13.0b/18.0a"},{"town":"新庄二丁目","koaza":"","lat":36.499044,"lng":136.609053,"version":"13.0b/18.0a"},{"town":"新庄三丁目","koaza":"","lat":36.504065,"lng":136.610762,"version":"13.0b/18.0a"},{"town":"新庄四丁目","koaza":"","lat":36.507204,"lng":136.612914,"version":"13.0b/18.0a"},{"town":"新庄五丁目","koaza":"","lat":36.507468,"lng":136.610625,"version":"13.0b/18.0a"},{"town":"新庄六丁目","koaza":"","lat":36.5058,"lng":136.607966,"version":"13.0b/18.0a"},{"town":"末松一丁目","koaza":"","lat":36.505583,"lng":136.595277,"version":"13.0b/18.0a"},{"town":"末松二丁目","koaza":"","lat":36.506302,"lng":136.591042,"version":"13.0b/18.0a"},{"town":"末松三丁目","koaza":"","lat":36.510093,"lng":136.594204,"version":"13.0b/18.0a"},{"town":"菅原町","koaza":"","lat":36.52672,"lng":136.615924,"version":"13.0b/18.0a"},{"town":"住吉町","koaza":"","lat":36.526991,"lng":136.619505,"version":"13.0b/18.0a"},{"town":"高橋町","koaza":"","lat":36.532092,"lng":136.625841,"version":"13.0b/18.0a"},{"town":"太平寺一丁目","koaza":"","lat":36.527844,"lng":136.606441,"version":"13.0b/18.0a"},{"town":"太平寺二丁目","koaza":"","lat":36.527389,"lng":136.603276,"version":"13.0b/18.0a"},{"town":"太平寺三丁目","koaza":"","lat":36.530589,"lng":136.604642,"version":"13.0b/18.0a"},{"town":"太平寺四丁目","koaza":"","lat":36.530646,"lng":136.606558,"version":"13.0b/18.0a"},{"town":"藤平田一丁目","koaza":"","lat":36.518648,"lng":136.606717,"version":"13.0b/18.0a"},{"town":"藤平田二丁目","koaza":"","lat":36.521871,"lng":136.607307,"version":"13.0b/18.0a"},{"town":"長池","koaza":"","lat":36.543572,"lng":136.593938,"version":"13.0b/18.0a"},{"town":"中林一丁目","koaza":"","lat":36.508414,"lng":136.605028,"version":"13.0b/18.0a"},{"town":"中林二丁目","koaza":"","lat":36.506289,"lng":136.599645,"version":"13.0b/18.0a"},{"town":"中林三丁目","koaza":"","lat":36.509716,"lng":136.600094,"version":"13.0b/18.0a"},{"town":"中林四丁目","koaza":"","lat":36.513926,"lng":136.60013,"version":"13.0b/18.0a"},{"town":"中林五丁目","koaza":"","lat":36.511716,"lng":136.604433,"version":"13.0b/18.0a"},{"town":"白山町","koaza":"","lat":36.527753,"lng":136.612357,"version":"13.0b/18.0a"},{"town":"藤平","koaza":"","lat":36.515339,"lng":136.604663,"version":"13.0b/18.0a"},{"town":"堀内一丁目","koaza":"","lat":36.525782,"lng":136.596341,"version":"13.0b/18.0a"},{"town":"堀内二丁目","koaza":"","lat":36.52627,"lng":136.598881,"version":"13.0b/18.0a"},{"town":"堀内三丁目","koaza":"","lat":36.527639,"lng":136.601142,"version":"13.0b/18.0a"},{"town":"堀内四丁目","koaza":"","lat":36.531096,"lng":136.602156,"version":"13.0b/18.0a"},{"town":"本町一丁目","koaza":"","lat":36.536784,"lng":136.620643,"version":"13.0b/18.0a"},{"town":"本町二丁目","koaza":"","lat":36.531709,"lng":136.619997,"version":"13.0b/18.0a"},{"town":"本町三丁目","koaza":"","lat":36.531781,"lng":136.616333,"version":"13.0b/18.0a"},{"town":"本町四丁目","koaza":"","lat":36.531306,"lng":136.612568,"version":"13.0b/18.0a"},{"town":"本町五丁目","koaza":"","lat":36.529578,"lng":136.609628,"version":"13.0b/18.0a"},{"town":"本町六丁目","koaza":"","lat":36.535406,"lng":136.608078,"version":"13.0b/18.0a"},{"town":"柳町","koaza":"","lat":36.527342,"lng":136.582884,"version":"13.0b/18.0a"},{"town":"矢作一丁目","koaza":"","lat":36.520316,"lng":136.613901,"version":"13.0b/18.0a"},{"town":"矢作二丁目","koaza":"","lat":36.520687,"lng":136.611913,"version":"13.0b/18.0a"},{"town":"矢作三丁目","koaza":"","lat":36.524283,"lng":136.612625,"version":"13.0b/18.0a"},{"town":"矢作四丁目","koaza":"","lat":36.52386,"lng":136.614431,"version":"13.0b/18.0a"},{"town":"横宮町","koaza":"","lat":36.535893,"lng":136.616924,"version":"13.0b/18.0a"},{"town":"若松町","koaza":"","lat":36.535894,"lng":136.61271,"version":"13.0b/18.0a"},{"town":"御経塚一丁目","koaza":"","lat":36.544616,"lng":136.597727,"version":"13.0b/18.0a"},{"town":"御経塚五丁目","koaza":"","lat":36.545086,"lng":136.601287,"version":"13.0b/18.0a"},{"town":"野代三丁目","koaza":"","lat":36.542657,"lng":136.603509,"version":"13.0b/18.0a"},{"town":"野代二丁目","koaza":"","lat":36.540385,"lng":136.603487,"version":"13.0b/18.0a"},{"town":"野代一丁目","koaza":"","lat":36.538645,"lng":136.602928,"version":"13.0b/18.0a"},{"town":"稲荷四丁目","koaza":"","lat":36.53709,"lng":136.603105,"version":"13.0b/18.0a"},{"town":"二日市二丁目","koaza":"","lat":36.540625,"lng":136.601478,"version":"13.0b/18.0a"},{"town":"二日市一丁目","koaza":"","lat":36.541701,"lng":136.59707,"version":"13.0b/18.0a"},{"town":"二日市三丁目","koaza":"","lat":36.541114,"lng":136.599818,"version":"13.0b/18.0a"},{"town":"二日市五丁目","koaza":"","lat":36.539048,"lng":136.595586,"version":"13.0b/18.0a"},{"town":"二日市四丁目","koaza":"","lat":36.537927,"lng":136.59781,"version":"13.0b/18.0a"},{"town":"三日市一丁目","koaza":"","lat":36.535565,"lng":136.594777,"version":"13.0b/18.0a"},{"town":"徳用三丁目","koaza":"","lat":36.535415,"lng":136.590741,"version":"13.0b/18.0a"},{"town":"蓮花寺町","koaza":"","lat":36.527897,"lng":136.593047,"version":"13.0b/18.0a"},{"town":"三日市二丁目","koaza":"","lat":36.534102,"lng":136.595092,"version":"13.0b/18.0a"},{"town":"徳用二丁目","koaza":"","lat":36.533601,"lng":136.591068,"version":"13.0b/18.0a"},{"town":"郷二丁目","koaza":"","lat":36.53364,"lng":136.586084,"version":"13.0b/18.0a"},{"town":"郷一丁目","koaza":"","lat":36.534448,"lng":136.587738,"version":"13.0b/18.0a"},{"town":"田尻町","koaza":"","lat":36.530548,"lng":136.596391,"version":"13.0b/18.0a"},{"town":"堀内五丁目","koaza":"","lat":36.531126,"lng":136.599125,"version":"13.0b/18.0a"},{"town":"三日市三丁目","koaza":"","lat":36.534266,"lng":136.598101,"version":"13.0b/18.0a"},{"town":"郷町","koaza":"","lat":36.52622,"lng":136.586849,"version":"13.0b/18.0a"},{"town":"二日市町","koaza":"","lat":36.544839,"lng":136.602511,"version":"13.0b/18.0a"},{"town":"徳用一丁目","koaza":"","lat":36.531436,"lng":136.593083,"version":"13.0b/18.0a"},{"town":"粟田一丁目","koaza":"","lat":36.510221,"lng":136.612654,"version":"14.0b/19.0a"},{"town":"粟田二丁目","koaza":"","lat":36.512755,"lng":136.612783,"version":"14.0b/19.0a"},{"town":"粟田三丁目","koaza":"","lat":36.515681,"lng":136.613734,"version":"14.0b/19.0a"},{"town":"粟田四丁目","koaza":"","lat":36.516479,"lng":136.611592,"version":"14.0b/19.0a"},{"town":"粟田五丁目","koaza":"","lat":36.514064,"lng":136.608439,"version":"14.0b/19.0a"},{"town":"粟田六丁目","koaza":"","lat":36.510383,"lng":136.608398,"version":"14.0b/19.0a"},{"town":"稲荷一丁目","koaza":"","lat":36.534511,"lng":136.604571,"version":"14.0b/19.0a"},{"town":"稲荷二丁目","koaza":"","lat":36.534308,"lng":136.602129,"version":"14.0b/19.0a"},{"town":"稲荷三丁目","koaza":"","lat":36.534483,"lng":136.600027,"version":"14.0b/19.0a"},{"town":"扇が丘","koaza":"","lat":36.527559,"lng":136.625559,"version":"14.0b/19.0a"},{"town":"御経塚二丁目","koaza":"","lat":36.548681,"lng":136.597717,"version":"14.0b/19.0a"},{"town":"御経塚三丁目","koaza":"","lat":36.551772,"lng":136.597016,"version":"14.0b/19.0a"},{"town":"御経塚四丁目","koaza":"","lat":36.550936,"lng":136.600623,"version":"14.0b/19.0a"},{"town":"押越一丁目","koaza":"","lat":36.539342,"lng":136.610585,"version":"14.0b/19.0a"},{"town":"押越二丁目","koaza":"","lat":36.54001,"lng":136.607673,"version":"14.0b/19.0a"},{"town":"押野一丁目","koaza":"","lat":36.54274,"lng":136.614705,"version":"14.0b/19.0a"},{"town":"押野二丁目","koaza":"","lat":36.540096,"lng":136.613554,"version":"14.0b/19.0a"},{"town":"押野三丁目","koaza":"","lat":36.54027,"lng":136.61727,"version":"14.0b/19.0a"},{"town":"押野四丁目","koaza":"","lat":36.540124,"lng":136.62131,"version":"14.0b/19.0a"},{"town":"押野五丁目","koaza":"","lat":36.543876,"lng":136.620723,"version":"14.0b/19.0a"},{"town":"押野六丁目","koaza":"","lat":36.545329,"lng":136.617677,"version":"14.0b/19.0a"},{"town":"押野七丁目","koaza":"","lat":36.544911,"lng":136.614225,"version":"14.0b/19.0a"},{"town":"上林一丁目","koaza":"","lat":36.49955,"lng":136.601343,"version":"14.0b/19.0a"},{"town":"上林二丁目","koaza":"","lat":36.50241,"lng":136.599673,"version":"14.0b/19.0a"},{"town":"上林三丁目","koaza":"","lat":36.503566,"lng":136.603058,"version":"14.0b/19.0a"},{"town":"上林四丁目","koaza":"","lat":36.504848,"lng":136.605668,"version":"14.0b/19.0a"},{"town":"上林五丁目","koaza":"","lat":36.500579,"lng":136.605947,"version":"14.0b/19.0a"},{"town":"清金一丁目","koaza":"","lat":36.512842,"lng":136.595101,"version":"14.0b/19.0a"},{"town":"清金二丁目","koaza":"","lat":36.516618,"lng":136.595869,"version":"14.0b/19.0a"},{"town":"清金三丁目","koaza":"","lat":36.518896,"lng":136.59568,"version":"14.0b/19.0a"},{"town":"位川","koaza":"","lat":36.524709,"lng":136.605798,"version":"14.0b/19.0a"},{"town":"三納一丁目","koaza":"","lat":36.518216,"lng":136.609562,"version":"14.0b/19.0a"},{"town":"三納二丁目","koaza":"","lat":36.521696,"lng":136.609701,"version":"14.0b/19.0a"},{"town":"三納三丁目","koaza":"","lat":36.52455,"lng":136.609701,"version":"14.0b/19.0a"},{"town":"下林一丁目","koaza":"","lat":36.518634,"lng":136.603047,"version":"14.0b/19.0a"},{"town":"下林二丁目","koaza":"","lat":36.518763,"lng":136.599429,"version":"14.0b/19.0a"},{"town":"下林三丁目","koaza":"","lat":36.523577,"lng":136.60001,"version":"14.0b/19.0a"},{"town":"下林四丁目","koaza":"","lat":36.523429,"lng":136.603787,"version":"14.0b/19.0a"},{"town":"新庄一丁目","koaza":"","lat":36.499015,"lng":136.611929,"version":"14.0b/19.0a"},{"town":"新庄二丁目","koaza":"","lat":36.499044,"lng":136.609053,"version":"14.0b/19.0a"},{"town":"新庄三丁目","koaza":"","lat":36.504065,"lng":136.610762,"version":"14.0b/19.0a"},{"town":"新庄四丁目","koaza":"","lat":36.507204,"lng":136.612914,"version":"14.0b/19.0a"},{"town":"新庄五丁目","koaza":"","lat":36.507468,"lng":136.610625,"version":"14.0b/19.0a"},{"town":"新庄六丁目","koaza":"","lat":36.5058,"lng":136.607966,"version":"14.0b/19.0a"},{"town":"末松一丁目","koaza":"","lat":36.505583,"lng":136.595277,"version":"14.0b/19.0a"},{"town":"末松二丁目","koaza":"","lat":36.506302,"lng":136.591042,"version":"14.0b/19.0a"},{"town":"末松三丁目","koaza":"","lat":36.510093,"lng":136.594204,"version":"14.0b/19.0a"},{"town":"菅原町","koaza":"","lat":36.52672,"lng":136.615924,"version":"14.0b/19.0a"},{"town":"住吉町","koaza":"","lat":36.526991,"lng":136.619505,"version":"14.0b/19.0a"},{"town":"高橋町","koaza":"","lat":36.532092,"lng":136.625841,"version":"14.0b/19.0a"},{"town":"太平寺一丁目","koaza":"","lat":36.527844,"lng":136.606441,"version":"14.0b/19.0a"},{"town":"太平寺二丁目","koaza":"","lat":36.527389,"lng":136.603276,"version":"14.0b/19.0a"},{"town":"太平寺三丁目","koaza":"","lat":36.530589,"lng":136.604642,"version":"14.0b/19.0a"},{"town":"太平寺四丁目","koaza":"","lat":36.530646,"lng":136.606558,"version":"14.0b/19.0a"},{"town":"藤平田一丁目","koaza":"","lat":36.518648,"lng":136.606717,"version":"14.0b/19.0a"},{"town":"藤平田二丁目","koaza":"","lat":36.521871,"lng":136.607307,"version":"14.0b/19.0a"},{"town":"長池","koaza":"","lat":36.543572,"lng":136.593938,"version":"14.0b/19.0a"},{"town":"中林一丁目","koaza":"","lat":36.508414,"lng":136.605028,"version":"14.0b/19.0a"},{"town":"中林二丁目","koaza":"","lat":36.506289,"lng":136.599645,"version":"14.0b/19.0a"},{"town":"中林三丁目","koaza":"","lat":36.509716,"lng":136.600094,"version":"14.0b/19.0a"},{"town":"中林四丁目","koaza":"","lat":36.513926,"lng":136.60013,"version":"14.0b/19.0a"},{"town":"中林五丁目","koaza":"","lat":36.511716,"lng":136.604433,"version":"14.0b/19.0a"},{"town":"白山町","koaza":"","lat":36.527753,"lng":136.612357,"version":"14.0b/19.0a"},{"town":"藤平","koaza":"","lat":36.515339,"lng":136.604663,"version":"14.0b/19.0a"},{"town":"堀内一丁目","koaza":"","lat":36.525782,"lng":136.596341,"version":"14.0b/19.0a"},{"town":"堀内二丁目","koaza":"","lat":36.52627,"lng":136.598881,"version":"14.0b/19.0a"},{"town":"堀内三丁目","koaza":"","lat":36.527639,"lng":136.601142,"version":"14.0b/19.0a"},{"town":"堀内四丁目","koaza":"","lat":36.531096,"lng":136.602156,"version":"14.0b/19.0a"},{"town":"本町一丁目","koaza":"","lat":36.536784,"lng":136.620643,"version":"14.0b/19.0a"},{"town":"本町二丁目","koaza":"","lat":36.531709,"lng":136.619997,"version":"14.0b/19.0a"},{"town":"本町三丁目","koaza":"","lat":36.531781,"lng":136.616333,"version":"14.0b/19.0a"},{"town":"本町四丁目","koaza":"","lat":36.531306,"lng":136.612568,"version":"14.0b/19.0a"},{"town":"本町五丁目","koaza":"","lat":36.529578,"lng":136.609628,"version":"14.0b/19.0a"},{"town":"本町六丁目","koaza":"","lat":36.535406,"lng":136.608078,"version":"14.0b/19.0a"},{"town":"柳町","koaza":"","lat":36.527342,"lng":136.582884,"version":"14.0b/19.0a"},{"town":"矢作一丁目","koaza":"","lat":36.520316,"lng":136.613901,"version":"14.0b/19.0a"},{"town":"矢作二丁目","koaza":"","lat":36.520687,"lng":136.611913,"version":"14.0b/19.0a"},{"town":"矢作三丁目","koaza":"","lat":36.524283,"lng":136.612625,"version":"14.0b/19.0a"},{"town":"矢作四丁目","koaza":"","lat":36.52386,"lng":136.614431,"version":"14.0b/19.0a"},{"town":"横宮町","koaza":"","lat":36.535893,"lng":136.616924,"version":"14.0b/19.0a"},{"town":"若松町","koaza":"","lat":36.535894,"lng":136.61271,"version":"14.0b/19.0a"},{"town":"御経塚一丁目","koaza":"","lat":36.544616,"lng":136.597727,"version":"14.0b/19.0a"},{"town":"御経塚五丁目","koaza":"","lat":36.545086,"lng":136.601287,"version":"14.0b/19.0a"},{"town":"野代三丁目","koaza":"","lat":36.542657,"lng":136.603509,"version":"14.0b/19.0a"},{"town":"野代二丁目","koaza":"","lat":36.540385,"lng":136.603487,"version":"14.0b/19.0a"},{"town":"野代一丁目","koaza":"","lat":36.538645,"lng":136.602928,"version":"14.0b/19.0a"},{"town":"稲荷四丁目","koaza":"","lat":36.53709,"lng":136.603105,"version":"14.0b/19.0a"},{"town":"二日市二丁目","koaza":"","lat":36.540625,"lng":136.601478,"version":"14.0b/19.0a"},{"town":"二日市一丁目","koaza":"","lat":36.541701,"lng":136.59707,"version":"14.0b/19.0a"},{"town":"二日市三丁目","koaza":"","lat":36.541114,"lng":136.599818,"version":"14.0b/19.0a"},{"town":"二日市五丁目","koaza":"","lat":36.539048,"lng":136.595586,"version":"14.0b/19.0a"},{"town":"二日市四丁目","koaza":"","lat":36.537927,"lng":136.59781,"version":"14.0b/19.0a"},{"town":"三日市一丁目","koaza":"","lat":36.535565,"lng":136.594777,"version":"14.0b/19.0a"},{"town":"徳用三丁目","koaza":"","lat":36.535415,"lng":136.590741,"version":"14.0b/19.0a"},{"town":"蓮花寺町","koaza":"","lat":36.527897,"lng":136.593047,"version":"14.0b/19.0a"},{"town":"三日市二丁目","koaza":"","lat":36.534102,"lng":136.595092,"version":"14.0b/19.0a"},{"town":"徳用二丁目","koaza":"","lat":36.533601,"lng":136.591068,"version":"14.0b/19.0a"},{"town":"郷二丁目","koaza":"","lat":36.53364,"lng":136.586084,"version":"14.0b/19.0a"},{"town":"郷一丁目","koaza":"","lat":36.534448,"lng":136.587738,"version":"14.0b/19.0a"},{"town":"田尻町","koaza":"","lat":36.530548,"lng":136.596391,"version":"14.0b/19.0a"},{"town":"堀内五丁目","koaza":"","lat":36.531126,"lng":136.599125,"version":"14.0b/19.0a"},{"town":"三日市三丁目","koaza":"","lat":36.534266,"lng":136.598101,"version":"14.0b/19.0a"},{"town":"郷町","koaza":"","lat":36.52622,"lng":136.586849,"version":"14.0b/19.0a"},{"town":"二日市町","koaza":"","lat":36.544839,"lng":136.602511,"version":"14.0b/19.0a"},{"town":"徳用一丁目","koaza":"","lat":36.531436,"lng":136.593083,"version":"14.0b/19.0a"}]