[{"town":"麻生野","koaza":"","lat":33.014657,"lng":130.649824,"version":"13.0b/18.0a"},{"town":"石","koaza":"","lat":33.02512,"lng":130.676158,"version":"13.0b/18.0a"},{"town":"泉町","koaza":"","lat":33.016144,"lng":130.685829,"version":"13.0b/18.0a"},{"town":"大橋通","koaza":"","lat":33.012798,"lng":130.684753,"version":"13.0b/18.0a"},{"town":"小坂","koaza":"","lat":33.077468,"lng":130.714876,"version":"13.0b/18.0a"},{"town":"小原","koaza":"","lat":33.000693,"lng":130.6626,"version":"13.0b/18.0a"},{"town":"小群","koaza":"","lat":33.042372,"lng":130.659788,"version":"13.0b/18.0a"},{"town":"鹿央町合里","koaza":"","lat":32.971838,"lng":130.667471,"version":"13.0b/18.0a"},{"town":"鹿央町岩原","koaza":"","lat":32.989006,"lng":130.676516,"version":"13.0b/18.0a"},{"town":"鹿央町梅木谷","koaza":"","lat":32.954355,"lng":130.647021,"version":"13.0b/18.0a"},{"town":"鹿央町大浦","koaza":"","lat":32.955582,"lng":130.641967,"version":"13.0b/18.0a"},{"town":"鹿央町北谷","koaza":"","lat":32.953369,"lng":130.657797,"version":"13.0b/18.0a"},{"town":"鹿央町霜野","koaza":"","lat":32.940376,"lng":130.652463,"version":"13.0b/18.0a"},{"town":"鹿央町千田","koaza":"","lat":32.975318,"lng":130.697149,"version":"13.0b/18.0a"},{"town":"鹿央町中浦","koaza":"","lat":32.954794,"lng":130.634384,"version":"13.0b/18.0a"},{"town":"鹿央町仁王堂","koaza":"","lat":32.947991,"lng":130.658118,"version":"13.0b/18.0a"},{"town":"鹿央町広","koaza":"","lat":32.963199,"lng":130.6874,"version":"13.0b/18.0a"},{"town":"鹿央町持松","koaza":"","lat":32.983982,"lng":130.692643,"version":"13.0b/18.0a"},{"town":"鹿校通一丁目","koaza":"","lat":33.012658,"lng":130.704332,"version":"13.0b/18.0a"},{"town":"鹿校通二丁目","koaza":"","lat":33.009446,"lng":130.703496,"version":"13.0b/18.0a"},{"town":"鹿校通三丁目","koaza":"","lat":33.011171,"lng":130.708293,"version":"13.0b/18.0a"},{"town":"鹿校通四丁目","koaza":"","lat":33.013268,"lng":130.709126,"version":"13.0b/18.0a"},{"town":"方保田","koaza":"","lat":33.002666,"lng":130.718446,"version":"13.0b/18.0a"},{"town":"鹿北町芋生","koaza":"","lat":33.085705,"lng":130.675233,"version":"13.0b/18.0a"},{"town":"鹿北町岩野","koaza":"","lat":33.133436,"lng":130.687289,"version":"13.0b/18.0a"},{"town":"鹿北町椎持","koaza":"","lat":33.127013,"lng":130.737669,"version":"13.0b/18.0a"},{"town":"鹿北町四丁","koaza":"","lat":33.097528,"lng":130.708554,"version":"13.0b/18.0a"},{"town":"鹿北町多久","koaza":"","lat":33.106607,"lng":130.762988,"version":"13.0b/18.0a"},{"town":"上吉田","koaza":"","lat":33.044263,"lng":130.708022,"version":"13.0b/18.0a"},{"town":"蒲生","koaza":"","lat":33.02428,"lng":130.740161,"version":"13.0b/18.0a"},{"town":"鹿本町石渕","koaza":"","lat":32.995776,"lng":130.759921,"version":"13.0b/18.0a"},{"town":"鹿本町小嶋","koaza":"","lat":32.99437,"lng":130.74555,"version":"13.0b/18.0a"},{"town":"鹿本町梶屋","koaza":"","lat":32.985297,"lng":130.750212,"version":"13.0b/18.0a"},{"town":"鹿本町来民","koaza":"","lat":33.004877,"lng":130.7445,"version":"13.0b/18.0a"},{"town":"鹿本町小柳","koaza":"","lat":32.989083,"lng":130.710785,"version":"13.0b/18.0a"},{"town":"鹿本町下高橋","koaza":"","lat":32.99702,"lng":130.750444,"version":"13.0b/18.0a"},{"town":"鹿本町下分田","koaza":"","lat":32.987818,"lng":130.718668,"version":"13.0b/18.0a"},{"town":"鹿本町庄","koaza":"","lat":33.012362,"lng":130.766238,"version":"13.0b/18.0a"},{"town":"鹿本町高橋","koaza":"","lat":33.006308,"lng":130.754718,"version":"13.0b/18.0a"},{"town":"鹿本町津袋","koaza":"","lat":33.015754,"lng":130.756785,"version":"13.0b/18.0a"},{"town":"鹿本町中川","koaza":"","lat":32.982051,"lng":130.737598,"version":"13.0b/18.0a"},{"town":"鹿本町中富","koaza":"","lat":32.98437,"lng":130.742405,"version":"13.0b/18.0a"},{"town":"鹿本町中分田","koaza":"","lat":32.984327,"lng":130.722685,"version":"13.0b/18.0a"},{"town":"鹿本町分田","koaza":"","lat":32.982182,"lng":130.729118,"version":"13.0b/18.0a"},{"town":"鹿本町御宇田","koaza":"","lat":33.008506,"lng":130.734125,"version":"13.0b/18.0a"},{"town":"川端町","koaza":"","lat":33.015832,"lng":130.680061,"version":"13.0b/18.0a"},{"town":"菊鹿町相良","koaza":"","lat":33.073718,"lng":130.769202,"version":"13.0b/18.0a"},{"town":"菊鹿町阿佐古","koaza":"","lat":33.04099,"lng":130.800354,"version":"13.0b/18.0a"},{"town":"菊鹿町池永","koaza":"","lat":33.028729,"lng":130.793481,"version":"13.0b/18.0a"},{"town":"菊鹿町太田","koaza":"","lat":33.04395,"lng":130.769569,"version":"13.0b/18.0a"},{"town":"菊鹿町上内田","koaza":"","lat":33.068167,"lng":130.796583,"version":"13.0b/18.0a"},{"town":"菊鹿町上永野","koaza":"","lat":33.049654,"lng":130.811983,"version":"13.0b/18.0a"},{"town":"菊鹿町木野","koaza":"","lat":33.007624,"lng":130.776241,"version":"13.0b/18.0a"},{"town":"菊鹿町五郎丸","koaza":"","lat":33.0537,"lng":130.786656,"version":"13.0b/18.0a"},{"town":"菊鹿町下内田","koaza":"","lat":33.029213,"lng":130.757364,"version":"13.0b/18.0a"},{"town":"菊鹿町下永野","koaza":"","lat":33.028977,"lng":130.774758,"version":"13.0b/18.0a"},{"town":"菊鹿町長","koaza":"","lat":33.047385,"lng":130.751276,"version":"13.0b/18.0a"},{"town":"菊鹿町松尾","koaza":"","lat":33.017289,"lng":130.793278,"version":"13.0b/18.0a"},{"town":"菊鹿町宮原","koaza":"","lat":33.033748,"lng":130.781312,"version":"13.0b/18.0a"},{"town":"菊鹿町矢谷","koaza":"","lat":33.088376,"lng":130.805729,"version":"13.0b/18.0a"},{"town":"菊鹿町山内","koaza":"","lat":33.070853,"lng":130.7491,"version":"13.0b/18.0a"},{"town":"菊鹿町米原","koaza":"","lat":33.005677,"lng":130.789128,"version":"13.0b/18.0a"},{"town":"久原","koaza":"","lat":33.038008,"lng":130.72332,"version":"13.0b/18.0a"},{"town":"熊入町","koaza":"","lat":33.027765,"lng":130.686895,"version":"13.0b/18.0a"},{"town":"古閑","koaza":"","lat":33.009394,"lng":130.713476,"version":"13.0b/18.0a"},{"town":"坂田","koaza":"","lat":32.995354,"lng":130.650055,"version":"13.0b/18.0a"},{"town":"志々岐","koaza":"","lat":33.006648,"lng":130.677584,"version":"13.0b/18.0a"},{"town":"下吉田","koaza":"","lat":33.02673,"lng":130.696168,"version":"13.0b/18.0a"},{"town":"城","koaza":"","lat":33.039834,"lng":130.671177,"version":"13.0b/18.0a"},{"town":"昭和町","koaza":"","lat":33.013342,"lng":130.686389,"version":"13.0b/18.0a"},{"town":"新町","koaza":"","lat":33.018529,"lng":130.682381,"version":"13.0b/18.0a"},{"town":"杉","koaza":"","lat":33.036574,"lng":130.684274,"version":"13.0b/18.0a"},{"town":"中央通","koaza":"","lat":33.01559,"lng":130.683843,"version":"13.0b/18.0a"},{"town":"椿井","koaza":"","lat":33.018914,"lng":130.637797,"version":"13.0b/18.0a"},{"town":"津留","koaza":"","lat":33.058019,"lng":130.680811,"version":"13.0b/18.0a"},{"town":"寺島","koaza":"","lat":33.051031,"lng":130.695601,"version":"13.0b/18.0a"},{"town":"中","koaza":"","lat":33.012596,"lng":130.700369,"version":"13.0b/18.0a"},{"town":"長坂","koaza":"","lat":32.992722,"lng":130.704342,"version":"13.0b/18.0a"},{"town":"名塚","koaza":"","lat":33.032089,"lng":130.700109,"version":"13.0b/18.0a"},{"town":"鍋田","koaza":"","lat":33.022839,"lng":130.655835,"version":"13.0b/18.0a"},{"town":"西牧","koaza":"","lat":33.003179,"lng":130.654253,"version":"13.0b/18.0a"},{"town":"平山","koaza":"","lat":33.064808,"lng":130.649648,"version":"13.0b/18.0a"},{"town":"藤井","koaza":"","lat":32.990484,"lng":130.731027,"version":"13.0b/18.0a"},{"town":"保多田","koaza":"","lat":33.012707,"lng":130.659533,"version":"13.0b/18.0a"},{"town":"南島","koaza":"","lat":32.999799,"lng":130.695905,"version":"13.0b/18.0a"},{"town":"宗方","koaza":"","lat":33.011076,"lng":130.684127,"version":"13.0b/18.0a"},{"town":"宗方通","koaza":"","lat":33.012593,"lng":130.68176,"version":"13.0b/18.0a"},{"town":"山鹿","koaza":"","lat":33.014351,"lng":130.693863,"version":"13.0b/18.0a"},{"town":"中","koaza":"伏鍋","lat":33.019529,"lng":130.702996,"version":"13.0b/18.0a"},{"town":"方保田","koaza":"堤の下","lat":33.006527,"lng":130.719814,"version":"13.0b/18.0a"},{"town":"方保田","koaza":"鳥越","lat":33.006555,"lng":130.723311,"version":"13.0b/18.0a"},{"town":"麻生野","koaza":"","lat":33.014657,"lng":130.649824,"version":"14.0b/19.0a"},{"town":"石","koaza":"","lat":33.02512,"lng":130.676158,"version":"14.0b/19.0a"},{"town":"泉町","koaza":"","lat":33.016144,"lng":130.685829,"version":"14.0b/19.0a"},{"town":"大橋通","koaza":"","lat":33.012798,"lng":130.684753,"version":"14.0b/19.0a"},{"town":"小坂","koaza":"","lat":33.077468,"lng":130.714876,"version":"14.0b/19.0a"},{"town":"小原","koaza":"","lat":33.000693,"lng":130.6626,"version":"14.0b/19.0a"},{"town":"小群","koaza":"","lat":33.042372,"lng":130.659788,"version":"14.0b/19.0a"},{"town":"鹿央町合里","koaza":"","lat":32.971838,"lng":130.667471,"version":"14.0b/19.0a"},{"town":"鹿央町岩原","koaza":"","lat":32.989006,"lng":130.676516,"version":"14.0b/19.0a"},{"town":"鹿央町梅木谷","koaza":"","lat":32.954355,"lng":130.647021,"version":"14.0b/19.0a"},{"town":"鹿央町大浦","koaza":"","lat":32.955582,"lng":130.641967,"version":"14.0b/19.0a"},{"town":"鹿央町北谷","koaza":"","lat":32.953369,"lng":130.657797,"version":"14.0b/19.0a"},{"town":"鹿央町霜野","koaza":"","lat":32.940376,"lng":130.652463,"version":"14.0b/19.0a"},{"town":"鹿央町千田","koaza":"","lat":32.975318,"lng":130.697149,"version":"14.0b/19.0a"},{"town":"鹿央町中浦","koaza":"","lat":32.954794,"lng":130.634384,"version":"14.0b/19.0a"},{"town":"鹿央町仁王堂","koaza":"","lat":32.947991,"lng":130.658118,"version":"14.0b/19.0a"},{"town":"鹿央町広","koaza":"","lat":32.963199,"lng":130.6874,"version":"14.0b/19.0a"},{"town":"鹿央町持松","koaza":"","lat":32.983982,"lng":130.692643,"version":"14.0b/19.0a"},{"town":"鹿校通一丁目","koaza":"","lat":33.012658,"lng":130.704332,"version":"14.0b/19.0a"},{"town":"鹿校通二丁目","koaza":"","lat":33.009446,"lng":130.703496,"version":"14.0b/19.0a"},{"town":"鹿校通三丁目","koaza":"","lat":33.011171,"lng":130.708293,"version":"14.0b/19.0a"},{"town":"鹿校通四丁目","koaza":"","lat":33.013268,"lng":130.709126,"version":"14.0b/19.0a"},{"town":"方保田","koaza":"","lat":33.002666,"lng":130.718446,"version":"14.0b/19.0a"},{"town":"鹿北町芋生","koaza":"","lat":33.085705,"lng":130.675233,"version":"14.0b/19.0a"},{"town":"鹿北町岩野","koaza":"","lat":33.133436,"lng":130.687289,"version":"14.0b/19.0a"},{"town":"鹿北町椎持","koaza":"","lat":33.127013,"lng":130.737669,"version":"14.0b/19.0a"},{"town":"鹿北町四丁","koaza":"","lat":33.097528,"lng":130.708554,"version":"14.0b/19.0a"},{"town":"鹿北町多久","koaza":"","lat":33.106607,"lng":130.762988,"version":"14.0b/19.0a"},{"town":"上吉田","koaza":"","lat":33.044263,"lng":130.708022,"version":"14.0b/19.0a"},{"town":"蒲生","koaza":"","lat":33.02428,"lng":130.740161,"version":"14.0b/19.0a"},{"town":"鹿本町石渕","koaza":"","lat":32.995776,"lng":130.759921,"version":"14.0b/19.0a"},{"town":"鹿本町小嶋","koaza":"","lat":32.99437,"lng":130.74555,"version":"14.0b/19.0a"},{"town":"鹿本町梶屋","koaza":"","lat":32.985297,"lng":130.750212,"version":"14.0b/19.0a"},{"town":"鹿本町来民","koaza":"","lat":33.004877,"lng":130.7445,"version":"14.0b/19.0a"},{"town":"鹿本町小柳","koaza":"","lat":32.989083,"lng":130.710785,"version":"14.0b/19.0a"},{"town":"鹿本町下高橋","koaza":"","lat":32.99702,"lng":130.750444,"version":"14.0b/19.0a"},{"town":"鹿本町下分田","koaza":"","lat":32.987818,"lng":130.718668,"version":"14.0b/19.0a"},{"town":"鹿本町庄","koaza":"","lat":33.012362,"lng":130.766238,"version":"14.0b/19.0a"},{"town":"鹿本町高橋","koaza":"","lat":33.006308,"lng":130.754718,"version":"14.0b/19.0a"},{"town":"鹿本町津袋","koaza":"","lat":33.015754,"lng":130.756785,"version":"14.0b/19.0a"},{"town":"鹿本町中川","koaza":"","lat":32.982051,"lng":130.737598,"version":"14.0b/19.0a"},{"town":"鹿本町中富","koaza":"","lat":32.98437,"lng":130.742405,"version":"14.0b/19.0a"},{"town":"鹿本町中分田","koaza":"","lat":32.984327,"lng":130.722685,"version":"14.0b/19.0a"},{"town":"鹿本町分田","koaza":"","lat":32.982182,"lng":130.729118,"version":"14.0b/19.0a"},{"town":"鹿本町御宇田","koaza":"","lat":33.008506,"lng":130.734125,"version":"14.0b/19.0a"},{"town":"川端町","koaza":"","lat":33.015832,"lng":130.680061,"version":"14.0b/19.0a"},{"town":"菊鹿町相良","koaza":"","lat":33.073718,"lng":130.769202,"version":"14.0b/19.0a"},{"town":"菊鹿町阿佐古","koaza":"","lat":33.04099,"lng":130.800354,"version":"14.0b/19.0a"},{"town":"菊鹿町池永","koaza":"","lat":33.028729,"lng":130.793481,"version":"14.0b/19.0a"},{"town":"菊鹿町太田","koaza":"","lat":33.04395,"lng":130.769569,"version":"14.0b/19.0a"},{"town":"菊鹿町上内田","koaza":"","lat":33.068167,"lng":130.796583,"version":"14.0b/19.0a"},{"town":"菊鹿町上永野","koaza":"","lat":33.049654,"lng":130.811983,"version":"14.0b/19.0a"},{"town":"菊鹿町木野","koaza":"","lat":33.007624,"lng":130.776241,"version":"14.0b/19.0a"},{"town":"菊鹿町五郎丸","koaza":"","lat":33.0537,"lng":130.786656,"version":"14.0b/19.0a"},{"town":"菊鹿町下内田","koaza":"","lat":33.029213,"lng":130.757364,"version":"14.0b/19.0a"},{"town":"菊鹿町下永野","koaza":"","lat":33.028977,"lng":130.774758,"version":"14.0b/19.0a"},{"town":"菊鹿町長","koaza":"","lat":33.047385,"lng":130.751276,"version":"14.0b/19.0a"},{"town":"菊鹿町松尾","koaza":"","lat":33.017289,"lng":130.793278,"version":"14.0b/19.0a"},{"town":"菊鹿町宮原","koaza":"","lat":33.033748,"lng":130.781312,"version":"14.0b/19.0a"},{"town":"菊鹿町矢谷","koaza":"","lat":33.088376,"lng":130.805729,"version":"14.0b/19.0a"},{"town":"菊鹿町山内","koaza":"","lat":33.070853,"lng":130.7491,"version":"14.0b/19.0a"},{"town":"菊鹿町米原","koaza":"","lat":33.005677,"lng":130.789128,"version":"14.0b/19.0a"},{"town":"久原","koaza":"","lat":33.038008,"lng":130.72332,"version":"14.0b/19.0a"},{"town":"熊入町","koaza":"","lat":33.027765,"lng":130.686895,"version":"14.0b/19.0a"},{"town":"古閑","koaza":"","lat":33.009394,"lng":130.713476,"version":"14.0b/19.0a"},{"town":"坂田","koaza":"","lat":32.995354,"lng":130.650055,"version":"14.0b/19.0a"},{"town":"志々岐","koaza":"","lat":33.006648,"lng":130.677584,"version":"14.0b/19.0a"},{"town":"下吉田","koaza":"","lat":33.02673,"lng":130.696168,"version":"14.0b/19.0a"},{"town":"城","koaza":"","lat":33.039834,"lng":130.671177,"version":"14.0b/19.0a"},{"town":"昭和町","koaza":"","lat":33.013342,"lng":130.686389,"version":"14.0b/19.0a"},{"town":"新町","koaza":"","lat":33.018529,"lng":130.682381,"version":"14.0b/19.0a"},{"town":"杉","koaza":"","lat":33.036574,"lng":130.684274,"version":"14.0b/19.0a"},{"town":"中央通","koaza":"","lat":33.01559,"lng":130.683843,"version":"14.0b/19.0a"},{"town":"椿井","koaza":"","lat":33.018914,"lng":130.637797,"version":"14.0b/19.0a"},{"town":"津留","koaza":"","lat":33.058019,"lng":130.680811,"version":"14.0b/19.0a"},{"town":"寺島","koaza":"","lat":33.051031,"lng":130.695601,"version":"14.0b/19.0a"},{"town":"中","koaza":"","lat":33.012596,"lng":130.700369,"version":"14.0b/19.0a"},{"town":"長坂","koaza":"","lat":32.992722,"lng":130.704342,"version":"14.0b/19.0a"},{"town":"名塚","koaza":"","lat":33.032089,"lng":130.700109,"version":"14.0b/19.0a"},{"town":"鍋田","koaza":"","lat":33.022839,"lng":130.655835,"version":"14.0b/19.0a"},{"town":"西牧","koaza":"","lat":33.003179,"lng":130.654253,"version":"14.0b/19.0a"},{"town":"平山","koaza":"","lat":33.064808,"lng":130.649648,"version":"14.0b/19.0a"},{"town":"藤井","koaza":"","lat":32.990484,"lng":130.731027,"version":"14.0b/19.0a"},{"town":"保多田","koaza":"","lat":33.012707,"lng":130.659533,"version":"14.0b/19.0a"},{"town":"南島","koaza":"","lat":32.999799,"lng":130.695905,"version":"14.0b/19.0a"},{"town":"宗方","koaza":"","lat":33.011076,"lng":130.684127,"version":"14.0b/19.0a"},{"town":"宗方通","koaza":"","lat":33.012593,"lng":130.68176,"version":"14.0b/19.0a"},{"town":"山鹿","koaza":"","lat":33.014351,"lng":130.693863,"version":"14.0b/19.0a"},{"town":"中","koaza":"伏鍋","lat":33.019529,"lng":130.702996,"version":"14.0b/19.0a"},{"town":"方保田","koaza":"堤の下","lat":33.006527,"lng":130.719814,"version":"14.0b/19.0a"},{"town":"方保田","koaza":"鳥越","lat":33.006555,"lng":130.723311,"version":"14.0b/19.0a"}]