[{"town":"大字稲佐","koaza":"","lat":32.923766,"lng":130.61142,"version":"13.0b/18.0a"},{"town":"大字浦田","koaza":"","lat":32.932319,"lng":130.632056,"version":"13.0b/18.0a"},{"town":"大字上木葉","koaza":"","lat":32.920457,"lng":130.631852,"version":"13.0b/18.0a"},{"town":"大字上白木","koaza":"","lat":32.894752,"lng":130.62672,"version":"13.0b/18.0a"},{"town":"大字木葉","koaza":"","lat":32.919067,"lng":130.624138,"version":"13.0b/18.0a"},{"town":"大字西安寺","koaza":"","lat":32.891685,"lng":130.640025,"version":"13.0b/18.0a"},{"town":"大字白木","koaza":"","lat":32.903505,"lng":130.62754,"version":"13.0b/18.0a"},{"town":"大字原倉","koaza":"","lat":32.877257,"lng":130.625423,"version":"13.0b/18.0a"},{"town":"大字二俣","koaza":"","lat":32.908619,"lng":130.636461,"version":"13.0b/18.0a"},{"town":"大字山口","koaza":"","lat":32.920343,"lng":130.618471,"version":"13.0b/18.0a"},{"town":"大字稲佐","koaza":"","lat":32.923766,"lng":130.61142,"version":"14.0b/19.0a"},{"town":"大字浦田","koaza":"","lat":32.932319,"lng":130.632056,"version":"14.0b/19.0a"},{"town":"大字上木葉","koaza":"","lat":32.920457,"lng":130.631852,"version":"14.0b/19.0a"},{"town":"大字上白木","koaza":"","lat":32.894752,"lng":130.62672,"version":"14.0b/19.0a"},{"town":"大字木葉","koaza":"","lat":32.919067,"lng":130.624138,"version":"14.0b/19.0a"},{"town":"大字西安寺","koaza":"","lat":32.891685,"lng":130.640025,"version":"14.0b/19.0a"},{"town":"大字白木","koaza":"","lat":32.903505,"lng":130.62754,"version":"14.0b/19.0a"},{"town":"大字原倉","koaza":"","lat":32.877257,"lng":130.625423,"version":"14.0b/19.0a"},{"town":"大字二俣","koaza":"","lat":32.908619,"lng":130.636461,"version":"14.0b/19.0a"},{"town":"大字山口","koaza":"","lat":32.920343,"lng":130.618471,"version":"14.0b/19.0a"}]