[{"town":"大字一勝地","koaza":"","lat":32.228271,"lng":130.618148,"version":"13.0b/18.0a"},{"town":"大字大瀬","koaza":"","lat":32.279182,"lng":130.626329,"version":"13.0b/18.0a"},{"town":"大字神瀬","koaza":"","lat":32.329794,"lng":130.651267,"version":"13.0b/18.0a"},{"town":"大字三ケ浦","koaza":"","lat":32.207049,"lng":130.666658,"version":"13.0b/18.0a"},{"town":"大字渡","koaza":"","lat":32.270202,"lng":130.680707,"version":"13.0b/18.0a"},{"town":"大字一勝地","koaza":"","lat":32.228271,"lng":130.618148,"version":"14.0b/19.0a"},{"town":"大字大瀬","koaza":"","lat":32.279182,"lng":130.626329,"version":"14.0b/19.0a"},{"town":"大字神瀬","koaza":"","lat":32.329794,"lng":130.651267,"version":"14.0b/19.0a"},{"town":"大字三ケ浦","koaza":"","lat":32.207049,"lng":130.666658,"version":"14.0b/19.0a"},{"town":"大字渡","koaza":"","lat":32.270202,"lng":130.680707,"version":"14.0b/19.0a"}]