[{"town":"大字岩坂","koaza":"","lat":32.849321,"lng":130.882246,"version":"13.0b/18.0a"},{"town":"大字大津","koaza":"","lat":32.883408,"lng":130.894087,"version":"13.0b/18.0a"},{"town":"大字大林","koaza":"","lat":32.876527,"lng":130.915126,"version":"13.0b/18.0a"},{"town":"大字下町","koaza":"","lat":32.862214,"lng":130.854839,"version":"13.0b/18.0a"},{"town":"大字新","koaza":"","lat":32.868475,"lng":130.865609,"version":"13.0b/18.0a"},{"town":"大字陣内","koaza":"","lat":32.865372,"lng":130.878828,"version":"13.0b/18.0a"},{"town":"大字杉水","koaza":"","lat":32.909402,"lng":130.846851,"version":"13.0b/18.0a"},{"town":"大字瀬田","koaza":"","lat":32.886092,"lng":130.940711,"version":"13.0b/18.0a"},{"town":"大字高尾野","koaza":"","lat":32.891629,"lng":130.912066,"version":"13.0b/18.0a"},{"town":"大字中島","koaza":"","lat":32.85705,"lng":130.874556,"version":"13.0b/18.0a"},{"town":"大字錦野","koaza":"","lat":32.86175,"lng":130.90784,"version":"13.0b/18.0a"},{"town":"大字灰塚","koaza":"","lat":32.866697,"lng":130.858721,"version":"13.0b/18.0a"},{"town":"大字引水","koaza":"","lat":32.877444,"lng":130.883229,"version":"13.0b/18.0a"},{"town":"大字平川","koaza":"","lat":32.900326,"lng":130.886287,"version":"13.0b/18.0a"},{"town":"大字吹田","koaza":"","lat":32.873985,"lng":130.903537,"version":"13.0b/18.0a"},{"town":"大字古城","koaza":"","lat":32.910997,"lng":130.948184,"version":"13.0b/18.0a"},{"town":"大字外牧","koaza":"","lat":32.867619,"lng":130.948929,"version":"13.0b/18.0a"},{"town":"大字真木","koaza":"","lat":32.931858,"lng":130.938923,"version":"13.0b/18.0a"},{"town":"大字町","koaza":"","lat":32.85917,"lng":130.863432,"version":"13.0b/18.0a"},{"town":"大字室","koaza":"","lat":32.882718,"lng":130.860276,"version":"13.0b/18.0a"},{"town":"大字森","koaza":"","lat":32.871591,"lng":130.894242,"version":"13.0b/18.0a"},{"town":"大字矢護川","koaza":"","lat":32.921861,"lng":130.887933,"version":"13.0b/18.0a"},{"town":"美咲野一丁目","koaza":"","lat":32.886218,"lng":130.880683,"version":"13.0b/18.0a"},{"town":"美咲野二丁目","koaza":"","lat":32.885311,"lng":130.885099,"version":"13.0b/18.0a"},{"town":"美咲野三丁目","koaza":"","lat":32.887454,"lng":130.887339,"version":"13.0b/18.0a"},{"town":"美咲野四丁目","koaza":"","lat":32.885215,"lng":130.88879,"version":"13.0b/18.0a"},{"town":"大字室","koaza":"東迫尻","lat":32.874925,"lng":130.858164,"version":"13.0b/18.0a"},{"town":"大字大津","koaza":"鍛冶ノ上","lat":32.874782,"lng":130.871824,"version":"13.0b/18.0a"},{"town":"大字岩坂","koaza":"","lat":32.849321,"lng":130.882246,"version":"14.0b/19.0a"},{"town":"大字大津","koaza":"","lat":32.883408,"lng":130.894087,"version":"14.0b/19.0a"},{"town":"大字大林","koaza":"","lat":32.876527,"lng":130.915126,"version":"14.0b/19.0a"},{"town":"大字下町","koaza":"","lat":32.862214,"lng":130.854839,"version":"14.0b/19.0a"},{"town":"大字新","koaza":"","lat":32.868475,"lng":130.865609,"version":"14.0b/19.0a"},{"town":"大字陣内","koaza":"","lat":32.865372,"lng":130.878828,"version":"14.0b/19.0a"},{"town":"大字杉水","koaza":"","lat":32.909402,"lng":130.846851,"version":"14.0b/19.0a"},{"town":"大字瀬田","koaza":"","lat":32.886092,"lng":130.940711,"version":"14.0b/19.0a"},{"town":"大字高尾野","koaza":"","lat":32.891629,"lng":130.912066,"version":"14.0b/19.0a"},{"town":"大字中島","koaza":"","lat":32.85705,"lng":130.874556,"version":"14.0b/19.0a"},{"town":"大字錦野","koaza":"","lat":32.86175,"lng":130.90784,"version":"14.0b/19.0a"},{"town":"大字灰塚","koaza":"","lat":32.866697,"lng":130.858721,"version":"14.0b/19.0a"},{"town":"大字引水","koaza":"","lat":32.877444,"lng":130.883229,"version":"14.0b/19.0a"},{"town":"大字平川","koaza":"","lat":32.900326,"lng":130.886287,"version":"14.0b/19.0a"},{"town":"大字吹田","koaza":"","lat":32.873985,"lng":130.903537,"version":"14.0b/19.0a"},{"town":"大字古城","koaza":"","lat":32.910997,"lng":130.948184,"version":"14.0b/19.0a"},{"town":"大字外牧","koaza":"","lat":32.867619,"lng":130.948929,"version":"14.0b/19.0a"},{"town":"大字真木","koaza":"","lat":32.931858,"lng":130.938923,"version":"14.0b/19.0a"},{"town":"大字町","koaza":"","lat":32.85917,"lng":130.863432,"version":"14.0b/19.0a"},{"town":"大字室","koaza":"","lat":32.882718,"lng":130.860276,"version":"14.0b/19.0a"},{"town":"大字森","koaza":"","lat":32.871591,"lng":130.894242,"version":"14.0b/19.0a"},{"town":"大字矢護川","koaza":"","lat":32.921861,"lng":130.887933,"version":"14.0b/19.0a"},{"town":"美咲野一丁目","koaza":"","lat":32.886218,"lng":130.880683,"version":"14.0b/19.0a"},{"town":"美咲野二丁目","koaza":"","lat":32.885311,"lng":130.885099,"version":"14.0b/19.0a"},{"town":"美咲野三丁目","koaza":"","lat":32.887454,"lng":130.887339,"version":"14.0b/19.0a"},{"town":"美咲野四丁目","koaza":"","lat":32.885215,"lng":130.88879,"version":"14.0b/19.0a"},{"town":"大字室","koaza":"東迫尻","lat":32.874925,"lng":130.858164,"version":"14.0b/19.0a"},{"town":"大字大津","koaza":"鍛冶ノ上","lat":32.874782,"lng":130.871824,"version":"14.0b/19.0a"}]