[{"town":"大字上田","koaza":"","lat":33.116321,"lng":131.122837,"version":"13.0b/18.0a"},{"town":"大字北里","koaza":"","lat":33.143812,"lng":131.110794,"version":"13.0b/18.0a"},{"town":"大字黒渕","koaza":"","lat":33.12662,"lng":131.02032,"version":"13.0b/18.0a"},{"town":"大字下城","koaza":"","lat":33.167186,"lng":131.026199,"version":"13.0b/18.0a"},{"town":"大字西里","koaza":"","lat":33.165472,"lng":131.098139,"version":"13.0b/18.0a"},{"town":"大字宮原","koaza":"","lat":33.123872,"lng":131.064954,"version":"13.0b/18.0a"},{"town":"大字上田","koaza":"","lat":33.116321,"lng":131.122837,"version":"14.0b/19.0a"},{"town":"大字北里","koaza":"","lat":33.143812,"lng":131.110794,"version":"14.0b/19.0a"},{"town":"大字黒渕","koaza":"","lat":33.12662,"lng":131.02032,"version":"14.0b/19.0a"},{"town":"大字下城","koaza":"","lat":33.167186,"lng":131.026199,"version":"14.0b/19.0a"},{"town":"大字西里","koaza":"","lat":33.165472,"lng":131.098139,"version":"14.0b/19.0a"},{"town":"大字宮原","koaza":"","lat":33.123872,"lng":131.064954,"version":"14.0b/19.0a"}]