[{"town":"浅利町","koaza":"","lat":35.032003,"lng":132.260821,"version":"13.0b/18.0a"},{"town":"跡市町","koaza":"","lat":34.94941,"lng":132.231461,"version":"13.0b/18.0a"},{"town":"有福温泉町","koaza":"","lat":34.943349,"lng":132.199345,"version":"13.0b/18.0a"},{"town":"有福温泉町本明","koaza":"","lat":34.931264,"lng":132.211674,"version":"13.0b/18.0a"},{"town":"井沢町","koaza":"","lat":34.945872,"lng":132.276188,"version":"13.0b/18.0a"},{"town":"後地町","koaza":"","lat":35.03813,"lng":132.292424,"version":"13.0b/18.0a"},{"town":"敬川町","koaza":"","lat":34.966112,"lng":132.171276,"version":"13.0b/18.0a"},{"town":"嘉久志町","koaza":"","lat":35.000487,"lng":132.218944,"version":"13.0b/18.0a"},{"town":"金田町","koaza":"","lat":34.998559,"lng":132.25397,"version":"13.0b/18.0a"},{"town":"川平町平田","koaza":"","lat":34.975749,"lng":132.273515,"version":"13.0b/18.0a"},{"town":"川平町南川上","koaza":"","lat":34.993758,"lng":132.281514,"version":"13.0b/18.0a"},{"town":"黒松町","koaza":"","lat":35.055138,"lng":132.313035,"version":"13.0b/18.0a"},{"town":"江津町","koaza":"","lat":35.013048,"lng":132.221504,"version":"13.0b/18.0a"},{"town":"桜江町市山","koaza":"","lat":34.941457,"lng":132.305236,"version":"13.0b/18.0a"},{"town":"桜江町今田","koaza":"","lat":34.936398,"lng":132.339385,"version":"13.0b/18.0a"},{"town":"桜江町後山","koaza":"","lat":34.962619,"lng":132.310303,"version":"13.0b/18.0a"},{"town":"桜江町江尾","koaza":"","lat":34.923961,"lng":132.331062,"version":"13.0b/18.0a"},{"town":"桜江町大貫","koaza":"","lat":34.965544,"lng":132.393131,"version":"13.0b/18.0a"},{"town":"桜江町小田","koaza":"","lat":34.949865,"lng":132.325483,"version":"13.0b/18.0a"},{"town":"桜江町川越","koaza":"","lat":34.943794,"lng":132.423923,"version":"13.0b/18.0a"},{"town":"桜江町川戸","koaza":"","lat":34.950286,"lng":132.351211,"version":"13.0b/18.0a"},{"town":"桜江町坂本","koaza":"","lat":34.967158,"lng":132.423578,"version":"13.0b/18.0a"},{"town":"桜江町鹿賀","koaza":"","lat":34.955837,"lng":132.450309,"version":"13.0b/18.0a"},{"town":"桜江町田津","koaza":"","lat":34.945612,"lng":132.391379,"version":"13.0b/18.0a"},{"town":"桜江町谷住郷","koaza":"","lat":34.982188,"lng":132.347819,"version":"13.0b/18.0a"},{"town":"桜江町長谷","koaza":"","lat":34.92608,"lng":132.27014,"version":"13.0b/18.0a"},{"town":"桜江町八戸","koaza":"","lat":34.915415,"lng":132.290714,"version":"13.0b/18.0a"},{"town":"島の星町","koaza":"","lat":34.989944,"lng":132.236207,"version":"13.0b/18.0a"},{"town":"清見町","koaza":"","lat":34.949882,"lng":132.261826,"version":"13.0b/18.0a"},{"town":"千田町","koaza":"","lat":34.965186,"lng":132.219741,"version":"13.0b/18.0a"},{"town":"都治町","koaza":"","lat":35.032207,"lng":132.305691,"version":"13.0b/18.0a"},{"town":"都野津町","koaza":"","lat":34.988782,"lng":132.194364,"version":"13.0b/18.0a"},{"town":"二宮町神村","koaza":"","lat":34.97544,"lng":132.209889,"version":"13.0b/18.0a"},{"town":"二宮町神主","koaza":"","lat":34.974914,"lng":132.191739,"version":"13.0b/18.0a"},{"town":"二宮町羽代","koaza":"","lat":34.985821,"lng":132.219253,"version":"13.0b/18.0a"},{"town":"波子町","koaza":"","lat":34.962204,"lng":132.153395,"version":"13.0b/18.0a"},{"town":"波積町北","koaza":"","lat":35.047256,"lng":132.335391,"version":"13.0b/18.0a"},{"town":"波積町本郷","koaza":"","lat":35.031125,"lng":132.339754,"version":"13.0b/18.0a"},{"town":"波積町南","koaza":"","lat":35.015137,"lng":132.34795,"version":"13.0b/18.0a"},{"town":"松川町市村","koaza":"","lat":35.004171,"lng":132.284067,"version":"13.0b/18.0a"},{"town":"松川町太田","koaza":"","lat":35.015327,"lng":132.250759,"version":"13.0b/18.0a"},{"town":"松川町上河戸","koaza":"","lat":35.015679,"lng":132.296799,"version":"13.0b/18.0a"},{"town":"松川町上津井","koaza":"","lat":34.998044,"lng":132.325263,"version":"13.0b/18.0a"},{"town":"松川町下河戸","koaza":"","lat":35.017775,"lng":132.282007,"version":"13.0b/18.0a"},{"town":"松川町長良","koaza":"","lat":34.99142,"lng":132.301622,"version":"13.0b/18.0a"},{"town":"松川町畑田","koaza":"","lat":35.016806,"lng":132.313133,"version":"13.0b/18.0a"},{"town":"松川町八神","koaza":"","lat":35.011815,"lng":132.264275,"version":"13.0b/18.0a"},{"town":"和木町","koaza":"","lat":34.999831,"lng":132.201085,"version":"13.0b/18.0a"},{"town":"渡津町","koaza":"","lat":35.018608,"lng":132.236466,"version":"13.0b/18.0a"},{"town":"浅利町","koaza":"","lat":35.032003,"lng":132.260821,"version":"14.0b/19.0a"},{"town":"跡市町","koaza":"","lat":34.94941,"lng":132.231461,"version":"14.0b/19.0a"},{"town":"有福温泉町","koaza":"","lat":34.943349,"lng":132.199345,"version":"14.0b/19.0a"},{"town":"有福温泉町本明","koaza":"","lat":34.931264,"lng":132.211674,"version":"14.0b/19.0a"},{"town":"井沢町","koaza":"","lat":34.945872,"lng":132.276188,"version":"14.0b/19.0a"},{"town":"後地町","koaza":"","lat":35.03813,"lng":132.292424,"version":"14.0b/19.0a"},{"town":"敬川町","koaza":"","lat":34.966112,"lng":132.171276,"version":"14.0b/19.0a"},{"town":"嘉久志町","koaza":"","lat":35.000487,"lng":132.218944,"version":"14.0b/19.0a"},{"town":"金田町","koaza":"","lat":34.998559,"lng":132.25397,"version":"14.0b/19.0a"},{"town":"川平町平田","koaza":"","lat":34.975749,"lng":132.273515,"version":"14.0b/19.0a"},{"town":"川平町南川上","koaza":"","lat":34.993758,"lng":132.281514,"version":"14.0b/19.0a"},{"town":"黒松町","koaza":"","lat":35.055138,"lng":132.313035,"version":"14.0b/19.0a"},{"town":"江津町","koaza":"","lat":35.013048,"lng":132.221504,"version":"14.0b/19.0a"},{"town":"桜江町市山","koaza":"","lat":34.941457,"lng":132.305236,"version":"14.0b/19.0a"},{"town":"桜江町今田","koaza":"","lat":34.936398,"lng":132.339385,"version":"14.0b/19.0a"},{"town":"桜江町後山","koaza":"","lat":34.962619,"lng":132.310303,"version":"14.0b/19.0a"},{"town":"桜江町江尾","koaza":"","lat":34.923961,"lng":132.331062,"version":"14.0b/19.0a"},{"town":"桜江町大貫","koaza":"","lat":34.965544,"lng":132.393131,"version":"14.0b/19.0a"},{"town":"桜江町小田","koaza":"","lat":34.949865,"lng":132.325483,"version":"14.0b/19.0a"},{"town":"桜江町川越","koaza":"","lat":34.943794,"lng":132.423923,"version":"14.0b/19.0a"},{"town":"桜江町川戸","koaza":"","lat":34.950286,"lng":132.351211,"version":"14.0b/19.0a"},{"town":"桜江町坂本","koaza":"","lat":34.967158,"lng":132.423578,"version":"14.0b/19.0a"},{"town":"桜江町鹿賀","koaza":"","lat":34.955837,"lng":132.450309,"version":"14.0b/19.0a"},{"town":"桜江町田津","koaza":"","lat":34.945612,"lng":132.391379,"version":"14.0b/19.0a"},{"town":"桜江町谷住郷","koaza":"","lat":34.982188,"lng":132.347819,"version":"14.0b/19.0a"},{"town":"桜江町長谷","koaza":"","lat":34.92608,"lng":132.27014,"version":"14.0b/19.0a"},{"town":"桜江町八戸","koaza":"","lat":34.915415,"lng":132.290714,"version":"14.0b/19.0a"},{"town":"島の星町","koaza":"","lat":34.989944,"lng":132.236207,"version":"14.0b/19.0a"},{"town":"清見町","koaza":"","lat":34.949882,"lng":132.261826,"version":"14.0b/19.0a"},{"town":"千田町","koaza":"","lat":34.965186,"lng":132.219741,"version":"14.0b/19.0a"},{"town":"都治町","koaza":"","lat":35.032207,"lng":132.305691,"version":"14.0b/19.0a"},{"town":"都野津町","koaza":"","lat":34.988782,"lng":132.194364,"version":"14.0b/19.0a"},{"town":"二宮町神村","koaza":"","lat":34.97544,"lng":132.209889,"version":"14.0b/19.0a"},{"town":"二宮町神主","koaza":"","lat":34.974914,"lng":132.191739,"version":"14.0b/19.0a"},{"town":"二宮町羽代","koaza":"","lat":34.985821,"lng":132.219253,"version":"14.0b/19.0a"},{"town":"波子町","koaza":"","lat":34.962204,"lng":132.153395,"version":"14.0b/19.0a"},{"town":"波積町北","koaza":"","lat":35.047256,"lng":132.335391,"version":"14.0b/19.0a"},{"town":"波積町本郷","koaza":"","lat":35.031125,"lng":132.339754,"version":"14.0b/19.0a"},{"town":"波積町南","koaza":"","lat":35.015137,"lng":132.34795,"version":"14.0b/19.0a"},{"town":"松川町市村","koaza":"","lat":35.004171,"lng":132.284067,"version":"14.0b/19.0a"},{"town":"松川町太田","koaza":"","lat":35.015327,"lng":132.250759,"version":"14.0b/19.0a"},{"town":"松川町上河戸","koaza":"","lat":35.015679,"lng":132.296799,"version":"14.0b/19.0a"},{"town":"松川町上津井","koaza":"","lat":34.998044,"lng":132.325263,"version":"14.0b/19.0a"},{"town":"松川町下河戸","koaza":"","lat":35.017775,"lng":132.282007,"version":"14.0b/19.0a"},{"town":"松川町長良","koaza":"","lat":34.99142,"lng":132.301622,"version":"14.0b/19.0a"},{"town":"松川町畑田","koaza":"","lat":35.016806,"lng":132.313133,"version":"14.0b/19.0a"},{"town":"松川町八神","koaza":"","lat":35.011815,"lng":132.264275,"version":"14.0b/19.0a"},{"town":"和木町","koaza":"","lat":34.999831,"lng":132.201085,"version":"14.0b/19.0a"},{"town":"渡津町","koaza":"","lat":35.018608,"lng":132.236466,"version":"14.0b/19.0a"}]