[{"town":"山枝町","koaza":"","lat":34.922458,"lng":134.870363,"version":"13.0b/18.0a"},{"town":"中野町","koaza":"","lat":34.879306,"lng":134.877172,"version":"13.0b/18.0a"},{"town":"下宮木町","koaza":"","lat":34.890325,"lng":134.877464,"version":"13.0b/18.0a"},{"town":"網引町","koaza":"","lat":34.85506,"lng":134.879715,"version":"13.0b/18.0a"},{"town":"鶉野町","koaza":"","lat":34.88936,"lng":134.866252,"version":"13.0b/18.0a"},{"town":"田原町","koaza":"","lat":34.864019,"lng":134.865381,"version":"13.0b/18.0a"},{"town":"上宮木町","koaza":"","lat":34.897344,"lng":134.875634,"version":"13.0b/18.0a"},{"town":"豊倉町","koaza":"","lat":34.907603,"lng":134.863891,"version":"13.0b/18.0a"},{"town":"朝妻町","koaza":"","lat":34.910605,"lng":134.876349,"version":"13.0b/18.0a"},{"town":"別府町","koaza":"","lat":34.924294,"lng":134.889392,"version":"13.0b/18.0a"},{"town":"常吉町","koaza":"","lat":34.91339,"lng":134.889621,"version":"13.0b/18.0a"},{"town":"東横田町","koaza":"","lat":34.915465,"lng":134.826493,"version":"13.0b/18.0a"},{"town":"北条町西南","koaza":"","lat":34.923478,"lng":134.826152,"version":"13.0b/18.0a"},{"town":"河内町","koaza":"","lat":34.969698,"lng":134.882705,"version":"13.0b/18.0a"},{"town":"佐谷町","koaza":"","lat":34.969106,"lng":134.86781,"version":"13.0b/18.0a"},{"town":"満久町","koaza":"","lat":34.948368,"lng":134.875155,"version":"13.0b/18.0a"},{"town":"山下町","koaza":"","lat":34.908465,"lng":134.80406,"version":"13.0b/18.0a"},{"town":"福居町","koaza":"","lat":34.926147,"lng":134.803909,"version":"13.0b/18.0a"},{"town":"谷口町","koaza":"","lat":34.922247,"lng":134.80314,"version":"13.0b/18.0a"},{"town":"吉野町","koaza":"","lat":34.921449,"lng":134.811068,"version":"13.0b/18.0a"},{"town":"坂元町","koaza":"","lat":34.923793,"lng":134.820353,"version":"13.0b/18.0a"},{"town":"北条町西高室","koaza":"","lat":34.920621,"lng":134.835184,"version":"13.0b/18.0a"},{"town":"北条町東高室","koaza":"","lat":34.917644,"lng":134.842953,"version":"13.0b/18.0a"},{"town":"玉丘町","koaza":"","lat":34.919886,"lng":134.852515,"version":"13.0b/18.0a"},{"town":"玉野町","koaza":"","lat":34.919214,"lng":134.863878,"version":"13.0b/18.0a"},{"town":"中富町","koaza":"","lat":34.93589,"lng":134.86769,"version":"13.0b/18.0a"},{"town":"別所町","koaza":"","lat":34.95358,"lng":134.872304,"version":"13.0b/18.0a"},{"town":"上万願寺町","koaza":"","lat":35.002175,"lng":134.843071,"version":"13.0b/18.0a"},{"town":"上芥田町","koaza":"","lat":34.989555,"lng":134.856802,"version":"13.0b/18.0a"},{"town":"栄町","koaza":"","lat":34.873317,"lng":134.896162,"version":"13.0b/18.0a"},{"town":"桑原田町","koaza":"","lat":34.876984,"lng":134.888353,"version":"13.0b/18.0a"},{"town":"青野原町","koaza":"","lat":34.917174,"lng":134.905416,"version":"13.0b/18.0a"},{"town":"繁昌町","koaza":"","lat":34.896356,"lng":134.89372,"version":"13.0b/18.0a"},{"town":"倉谷町","koaza":"","lat":34.857678,"lng":134.844199,"version":"13.0b/18.0a"},{"town":"東笠原町","koaza":"","lat":34.876635,"lng":134.856652,"version":"13.0b/18.0a"},{"town":"西笠原町","koaza":"","lat":34.879014,"lng":134.846839,"version":"13.0b/18.0a"},{"town":"坂本町","koaza":"","lat":34.862693,"lng":134.824156,"version":"13.0b/18.0a"},{"town":"三口町","koaza":"","lat":34.867994,"lng":134.840801,"version":"13.0b/18.0a"},{"town":"新生町","koaza":"","lat":34.888256,"lng":134.854286,"version":"13.0b/18.0a"},{"town":"野条町","koaza":"","lat":34.891687,"lng":134.8583,"version":"13.0b/18.0a"},{"town":"野田町","koaza":"","lat":34.883496,"lng":134.846061,"version":"13.0b/18.0a"},{"town":"王子町","koaza":"","lat":34.884348,"lng":134.840663,"version":"13.0b/18.0a"},{"town":"牛居町","koaza":"","lat":34.889729,"lng":134.847828,"version":"13.0b/18.0a"},{"town":"戸田井町","koaza":"","lat":34.88536,"lng":134.83478,"version":"13.0b/18.0a"},{"town":"両月町","koaza":"","lat":34.886618,"lng":134.831568,"version":"13.0b/18.0a"},{"town":"大村町","koaza":"","lat":34.896365,"lng":134.833377,"version":"13.0b/18.0a"},{"town":"東長町","koaza":"","lat":34.893284,"lng":134.83035,"version":"13.0b/18.0a"},{"town":"西長町","koaza":"","lat":34.889979,"lng":134.822142,"version":"13.0b/18.0a"},{"town":"東剣坂町","koaza":"","lat":34.888582,"lng":134.81307,"version":"13.0b/18.0a"},{"town":"中山町","koaza":"","lat":34.884671,"lng":134.804441,"version":"13.0b/18.0a"},{"town":"大柳町","koaza":"","lat":34.883887,"lng":134.793523,"version":"13.0b/18.0a"},{"town":"西剣坂町","koaza":"","lat":34.894407,"lng":134.79993,"version":"13.0b/18.0a"},{"town":"琵琶甲町","koaza":"","lat":34.896291,"lng":134.853116,"version":"13.0b/18.0a"},{"town":"中西町","koaza":"","lat":34.90079,"lng":134.848314,"version":"13.0b/18.0a"},{"town":"尾崎町","koaza":"","lat":34.902352,"lng":134.845563,"version":"13.0b/18.0a"},{"town":"段下町","koaza":"","lat":34.907202,"lng":134.844424,"version":"13.0b/18.0a"},{"town":"鎮岩町","koaza":"","lat":34.908792,"lng":134.833107,"version":"13.0b/18.0a"},{"town":"岸呂町","koaza":"","lat":34.901803,"lng":134.827407,"version":"13.0b/18.0a"},{"town":"福住町","koaza":"","lat":34.903453,"lng":134.81285,"version":"13.0b/18.0a"},{"town":"西横田町","koaza":"","lat":34.911696,"lng":134.820553,"version":"13.0b/18.0a"},{"town":"田谷町","koaza":"","lat":34.943545,"lng":134.916801,"version":"13.0b/18.0a"},{"town":"小印南町","koaza":"","lat":34.93354,"lng":134.918919,"version":"13.0b/18.0a"},{"town":"都染町","koaza":"","lat":34.932749,"lng":134.889849,"version":"13.0b/18.0a"},{"town":"青野町","koaza":"","lat":34.938524,"lng":134.899894,"version":"13.0b/18.0a"},{"town":"野上町","koaza":"","lat":34.939942,"lng":134.890129,"version":"13.0b/18.0a"},{"town":"池上町","koaza":"","lat":34.940043,"lng":134.883967,"version":"13.0b/18.0a"},{"town":"西野々町","koaza":"","lat":34.940658,"lng":134.879658,"version":"13.0b/18.0a"},{"town":"島町","koaza":"","lat":34.942816,"lng":134.876576,"version":"13.0b/18.0a"},{"town":"国正町","koaza":"","lat":34.946336,"lng":134.927634,"version":"13.0b/18.0a"},{"town":"油谷町","koaza":"","lat":34.945862,"lng":134.909876,"version":"13.0b/18.0a"},{"town":"鍛治屋町","koaza":"","lat":34.948081,"lng":134.907047,"version":"13.0b/18.0a"},{"town":"大工町","koaza":"","lat":34.957539,"lng":134.905494,"version":"13.0b/18.0a"},{"town":"馬渡谷町","koaza":"","lat":34.950129,"lng":134.898501,"version":"13.0b/18.0a"},{"town":"山田町","koaza":"","lat":34.958021,"lng":134.894697,"version":"13.0b/18.0a"},{"town":"和泉町","koaza":"","lat":34.955668,"lng":134.884728,"version":"13.0b/18.0a"},{"town":"下芥田町","koaza":"","lat":34.966513,"lng":134.855702,"version":"13.0b/18.0a"},{"town":"北条町古坂六丁目","koaza":"","lat":34.926116,"lng":134.848873,"version":"13.0b/18.0a"},{"town":"北条町古坂五丁目","koaza":"","lat":34.923304,"lng":134.849375,"version":"13.0b/18.0a"},{"town":"北条町古坂三丁目","koaza":"","lat":34.923675,"lng":134.846611,"version":"13.0b/18.0a"},{"town":"北条町古坂二丁目","koaza":"","lat":34.923835,"lng":134.845146,"version":"13.0b/18.0a"},{"town":"北条町横尾一丁目","koaza":"","lat":34.925405,"lng":134.840554,"version":"13.0b/18.0a"},{"town":"北条町古坂一丁目","koaza":"","lat":34.924867,"lng":134.84336,"version":"13.0b/18.0a"},{"town":"北条町東南","koaza":"","lat":34.924482,"lng":134.831585,"version":"13.0b/18.0a"},{"town":"北条町黒駒","koaza":"","lat":34.930917,"lng":134.822267,"version":"13.0b/18.0a"},{"town":"市村町","koaza":"","lat":34.929425,"lng":134.816937,"version":"13.0b/18.0a"},{"town":"越水町","koaza":"","lat":34.944417,"lng":134.865095,"version":"13.0b/18.0a"},{"town":"北町","koaza":"","lat":34.948884,"lng":134.866534,"version":"13.0b/18.0a"},{"town":"笹倉町","koaza":"","lat":34.931522,"lng":134.856865,"version":"13.0b/18.0a"},{"town":"北条町古坂七丁目","koaza":"","lat":34.927618,"lng":134.844942,"version":"13.0b/18.0a"},{"town":"北条町横尾","koaza":"","lat":34.929792,"lng":134.838084,"version":"13.0b/18.0a"},{"town":"北条町古坂","koaza":"","lat":34.934078,"lng":134.845018,"version":"13.0b/18.0a"},{"town":"北条町栗田","koaza":"","lat":34.936812,"lng":134.837208,"version":"13.0b/18.0a"},{"town":"北条町北条","koaza":"","lat":34.93311,"lng":134.828673,"version":"13.0b/18.0a"},{"town":"北条町小谷","koaza":"","lat":34.943536,"lng":134.831389,"version":"13.0b/18.0a"},{"town":"谷町","koaza":"","lat":34.94354,"lng":134.823111,"version":"13.0b/18.0a"},{"town":"西上野町","koaza":"","lat":34.936939,"lng":134.819423,"version":"13.0b/18.0a"},{"town":"西谷町","koaza":"","lat":34.94611,"lng":134.817377,"version":"13.0b/18.0a"},{"town":"窪田町","koaza":"","lat":34.940905,"lng":134.811819,"version":"13.0b/18.0a"},{"town":"吸谷町","koaza":"","lat":34.936327,"lng":134.806973,"version":"13.0b/18.0a"},{"town":"畑町","koaza":"","lat":34.955416,"lng":134.810644,"version":"13.0b/18.0a"},{"town":"上野町","koaza":"","lat":34.951282,"lng":134.858976,"version":"13.0b/18.0a"},{"town":"殿原町","koaza":"","lat":34.944048,"lng":134.858753,"version":"13.0b/18.0a"},{"town":"鴨谷町","koaza":"","lat":34.943033,"lng":134.84622,"version":"13.0b/18.0a"},{"town":"大内町","koaza":"","lat":34.956471,"lng":134.842528,"version":"13.0b/18.0a"},{"town":"広原町","koaza":"","lat":34.956692,"lng":134.856006,"version":"13.0b/18.0a"},{"town":"下道山町","koaza":"","lat":34.963043,"lng":134.846877,"version":"13.0b/18.0a"},{"town":"上道山町","koaza":"","lat":34.973336,"lng":134.841938,"version":"13.0b/18.0a"},{"town":"下万願寺町","koaza":"","lat":34.989019,"lng":134.836968,"version":"13.0b/18.0a"},{"town":"若井町","koaza":"","lat":34.971325,"lng":134.821678,"version":"13.0b/18.0a"},{"town":"尾崎町","koaza":"野田","lat":34.903923,"lng":134.845743,"version":"13.0b/18.0a"},{"town":"豊倉町","koaza":"飯森","lat":34.90905,"lng":134.861686,"version":"13.0b/18.0a"},{"town":"山枝町","koaza":"","lat":34.922458,"lng":134.870363,"version":"14.0b/19.0a"},{"town":"中野町","koaza":"","lat":34.879306,"lng":134.877172,"version":"14.0b/19.0a"},{"town":"下宮木町","koaza":"","lat":34.890325,"lng":134.877464,"version":"14.0b/19.0a"},{"town":"網引町","koaza":"","lat":34.85506,"lng":134.879715,"version":"14.0b/19.0a"},{"town":"鶉野町","koaza":"","lat":34.88936,"lng":134.866252,"version":"14.0b/19.0a"},{"town":"田原町","koaza":"","lat":34.864019,"lng":134.865381,"version":"14.0b/19.0a"},{"town":"上宮木町","koaza":"","lat":34.897344,"lng":134.875634,"version":"14.0b/19.0a"},{"town":"豊倉町","koaza":"","lat":34.907603,"lng":134.863891,"version":"14.0b/19.0a"},{"town":"朝妻町","koaza":"","lat":34.910605,"lng":134.876349,"version":"14.0b/19.0a"},{"town":"別府町","koaza":"","lat":34.924294,"lng":134.889392,"version":"14.0b/19.0a"},{"town":"常吉町","koaza":"","lat":34.91339,"lng":134.889621,"version":"14.0b/19.0a"},{"town":"東横田町","koaza":"","lat":34.915465,"lng":134.826493,"version":"14.0b/19.0a"},{"town":"北条町西南","koaza":"","lat":34.923478,"lng":134.826152,"version":"14.0b/19.0a"},{"town":"河内町","koaza":"","lat":34.969698,"lng":134.882705,"version":"14.0b/19.0a"},{"town":"佐谷町","koaza":"","lat":34.969106,"lng":134.86781,"version":"14.0b/19.0a"},{"town":"満久町","koaza":"","lat":34.948368,"lng":134.875155,"version":"14.0b/19.0a"},{"town":"山下町","koaza":"","lat":34.908465,"lng":134.80406,"version":"14.0b/19.0a"},{"town":"福居町","koaza":"","lat":34.926147,"lng":134.803909,"version":"14.0b/19.0a"},{"town":"谷口町","koaza":"","lat":34.922247,"lng":134.80314,"version":"14.0b/19.0a"},{"town":"吉野町","koaza":"","lat":34.921449,"lng":134.811068,"version":"14.0b/19.0a"},{"town":"坂元町","koaza":"","lat":34.923793,"lng":134.820353,"version":"14.0b/19.0a"},{"town":"北条町西高室","koaza":"","lat":34.920621,"lng":134.835184,"version":"14.0b/19.0a"},{"town":"北条町東高室","koaza":"","lat":34.917644,"lng":134.842953,"version":"14.0b/19.0a"},{"town":"玉丘町","koaza":"","lat":34.919886,"lng":134.852515,"version":"14.0b/19.0a"},{"town":"玉野町","koaza":"","lat":34.919214,"lng":134.863878,"version":"14.0b/19.0a"},{"town":"中富町","koaza":"","lat":34.93589,"lng":134.86769,"version":"14.0b/19.0a"},{"town":"別所町","koaza":"","lat":34.95358,"lng":134.872304,"version":"14.0b/19.0a"},{"town":"上万願寺町","koaza":"","lat":35.002175,"lng":134.843071,"version":"14.0b/19.0a"},{"town":"上芥田町","koaza":"","lat":34.989555,"lng":134.856802,"version":"14.0b/19.0a"},{"town":"栄町","koaza":"","lat":34.873317,"lng":134.896162,"version":"14.0b/19.0a"},{"town":"桑原田町","koaza":"","lat":34.876984,"lng":134.888353,"version":"14.0b/19.0a"},{"town":"青野原町","koaza":"","lat":34.917174,"lng":134.905416,"version":"14.0b/19.0a"},{"town":"繁昌町","koaza":"","lat":34.896356,"lng":134.89372,"version":"14.0b/19.0a"},{"town":"倉谷町","koaza":"","lat":34.857678,"lng":134.844199,"version":"14.0b/19.0a"},{"town":"東笠原町","koaza":"","lat":34.876635,"lng":134.856652,"version":"14.0b/19.0a"},{"town":"西笠原町","koaza":"","lat":34.879014,"lng":134.846839,"version":"14.0b/19.0a"},{"town":"坂本町","koaza":"","lat":34.862693,"lng":134.824156,"version":"14.0b/19.0a"},{"town":"三口町","koaza":"","lat":34.867994,"lng":134.840801,"version":"14.0b/19.0a"},{"town":"新生町","koaza":"","lat":34.888256,"lng":134.854286,"version":"14.0b/19.0a"},{"town":"野条町","koaza":"","lat":34.891687,"lng":134.8583,"version":"14.0b/19.0a"},{"town":"野田町","koaza":"","lat":34.883496,"lng":134.846061,"version":"14.0b/19.0a"},{"town":"王子町","koaza":"","lat":34.884348,"lng":134.840663,"version":"14.0b/19.0a"},{"town":"牛居町","koaza":"","lat":34.889729,"lng":134.847828,"version":"14.0b/19.0a"},{"town":"戸田井町","koaza":"","lat":34.88536,"lng":134.83478,"version":"14.0b/19.0a"},{"town":"両月町","koaza":"","lat":34.886618,"lng":134.831568,"version":"14.0b/19.0a"},{"town":"大村町","koaza":"","lat":34.896365,"lng":134.833377,"version":"14.0b/19.0a"},{"town":"東長町","koaza":"","lat":34.893284,"lng":134.83035,"version":"14.0b/19.0a"},{"town":"西長町","koaza":"","lat":34.889979,"lng":134.822142,"version":"14.0b/19.0a"},{"town":"東剣坂町","koaza":"","lat":34.888582,"lng":134.81307,"version":"14.0b/19.0a"},{"town":"中山町","koaza":"","lat":34.884671,"lng":134.804441,"version":"14.0b/19.0a"},{"town":"大柳町","koaza":"","lat":34.883887,"lng":134.793523,"version":"14.0b/19.0a"},{"town":"西剣坂町","koaza":"","lat":34.894407,"lng":134.79993,"version":"14.0b/19.0a"},{"town":"琵琶甲町","koaza":"","lat":34.896291,"lng":134.853116,"version":"14.0b/19.0a"},{"town":"中西町","koaza":"","lat":34.90079,"lng":134.848314,"version":"14.0b/19.0a"},{"town":"尾崎町","koaza":"","lat":34.902352,"lng":134.845563,"version":"14.0b/19.0a"},{"town":"段下町","koaza":"","lat":34.907202,"lng":134.844424,"version":"14.0b/19.0a"},{"town":"鎮岩町","koaza":"","lat":34.908792,"lng":134.833107,"version":"14.0b/19.0a"},{"town":"岸呂町","koaza":"","lat":34.901803,"lng":134.827407,"version":"14.0b/19.0a"},{"town":"福住町","koaza":"","lat":34.903453,"lng":134.81285,"version":"14.0b/19.0a"},{"town":"西横田町","koaza":"","lat":34.911696,"lng":134.820553,"version":"14.0b/19.0a"},{"town":"田谷町","koaza":"","lat":34.943545,"lng":134.916801,"version":"14.0b/19.0a"},{"town":"小印南町","koaza":"","lat":34.93354,"lng":134.918919,"version":"14.0b/19.0a"},{"town":"都染町","koaza":"","lat":34.932749,"lng":134.889849,"version":"14.0b/19.0a"},{"town":"青野町","koaza":"","lat":34.938524,"lng":134.899894,"version":"14.0b/19.0a"},{"town":"野上町","koaza":"","lat":34.939942,"lng":134.890129,"version":"14.0b/19.0a"},{"town":"池上町","koaza":"","lat":34.940043,"lng":134.883967,"version":"14.0b/19.0a"},{"town":"西野々町","koaza":"","lat":34.940658,"lng":134.879658,"version":"14.0b/19.0a"},{"town":"島町","koaza":"","lat":34.942816,"lng":134.876576,"version":"14.0b/19.0a"},{"town":"国正町","koaza":"","lat":34.946336,"lng":134.927634,"version":"14.0b/19.0a"},{"town":"油谷町","koaza":"","lat":34.945862,"lng":134.909876,"version":"14.0b/19.0a"},{"town":"鍛治屋町","koaza":"","lat":34.948081,"lng":134.907047,"version":"14.0b/19.0a"},{"town":"大工町","koaza":"","lat":34.957539,"lng":134.905494,"version":"14.0b/19.0a"},{"town":"馬渡谷町","koaza":"","lat":34.950129,"lng":134.898501,"version":"14.0b/19.0a"},{"town":"山田町","koaza":"","lat":34.958021,"lng":134.894697,"version":"14.0b/19.0a"},{"town":"和泉町","koaza":"","lat":34.955668,"lng":134.884728,"version":"14.0b/19.0a"},{"town":"下芥田町","koaza":"","lat":34.966513,"lng":134.855702,"version":"14.0b/19.0a"},{"town":"北条町古坂六丁目","koaza":"","lat":34.926116,"lng":134.848873,"version":"14.0b/19.0a"},{"town":"北条町古坂五丁目","koaza":"","lat":34.923304,"lng":134.849375,"version":"14.0b/19.0a"},{"town":"北条町古坂三丁目","koaza":"","lat":34.923675,"lng":134.846611,"version":"14.0b/19.0a"},{"town":"北条町古坂二丁目","koaza":"","lat":34.923835,"lng":134.845146,"version":"14.0b/19.0a"},{"town":"北条町横尾一丁目","koaza":"","lat":34.925405,"lng":134.840554,"version":"14.0b/19.0a"},{"town":"北条町古坂一丁目","koaza":"","lat":34.924867,"lng":134.84336,"version":"14.0b/19.0a"},{"town":"北条町東南","koaza":"","lat":34.924482,"lng":134.831585,"version":"14.0b/19.0a"},{"town":"北条町黒駒","koaza":"","lat":34.930917,"lng":134.822267,"version":"14.0b/19.0a"},{"town":"市村町","koaza":"","lat":34.929425,"lng":134.816937,"version":"14.0b/19.0a"},{"town":"越水町","koaza":"","lat":34.944417,"lng":134.865095,"version":"14.0b/19.0a"},{"town":"北町","koaza":"","lat":34.948884,"lng":134.866534,"version":"14.0b/19.0a"},{"town":"笹倉町","koaza":"","lat":34.931522,"lng":134.856865,"version":"14.0b/19.0a"},{"town":"北条町古坂七丁目","koaza":"","lat":34.927618,"lng":134.844942,"version":"14.0b/19.0a"},{"town":"北条町横尾","koaza":"","lat":34.929792,"lng":134.838084,"version":"14.0b/19.0a"},{"town":"北条町古坂","koaza":"","lat":34.934078,"lng":134.845018,"version":"14.0b/19.0a"},{"town":"北条町栗田","koaza":"","lat":34.936812,"lng":134.837208,"version":"14.0b/19.0a"},{"town":"北条町北条","koaza":"","lat":34.93311,"lng":134.828673,"version":"14.0b/19.0a"},{"town":"北条町小谷","koaza":"","lat":34.943536,"lng":134.831389,"version":"14.0b/19.0a"},{"town":"谷町","koaza":"","lat":34.94354,"lng":134.823111,"version":"14.0b/19.0a"},{"town":"西上野町","koaza":"","lat":34.936939,"lng":134.819423,"version":"14.0b/19.0a"},{"town":"西谷町","koaza":"","lat":34.94611,"lng":134.817377,"version":"14.0b/19.0a"},{"town":"窪田町","koaza":"","lat":34.940905,"lng":134.811819,"version":"14.0b/19.0a"},{"town":"吸谷町","koaza":"","lat":34.936327,"lng":134.806973,"version":"14.0b/19.0a"},{"town":"畑町","koaza":"","lat":34.955416,"lng":134.810644,"version":"14.0b/19.0a"},{"town":"上野町","koaza":"","lat":34.951282,"lng":134.858976,"version":"14.0b/19.0a"},{"town":"殿原町","koaza":"","lat":34.944048,"lng":134.858753,"version":"14.0b/19.0a"},{"town":"鴨谷町","koaza":"","lat":34.943033,"lng":134.84622,"version":"14.0b/19.0a"},{"town":"大内町","koaza":"","lat":34.956471,"lng":134.842528,"version":"14.0b/19.0a"},{"town":"広原町","koaza":"","lat":34.956692,"lng":134.856006,"version":"14.0b/19.0a"},{"town":"下道山町","koaza":"","lat":34.963043,"lng":134.846877,"version":"14.0b/19.0a"},{"town":"上道山町","koaza":"","lat":34.973336,"lng":134.841938,"version":"14.0b/19.0a"},{"town":"下万願寺町","koaza":"","lat":34.989019,"lng":134.836968,"version":"14.0b/19.0a"},{"town":"若井町","koaza":"","lat":34.971325,"lng":134.821678,"version":"14.0b/19.0a"},{"town":"尾崎町","koaza":"野田","lat":34.903923,"lng":134.845743,"version":"14.0b/19.0a"},{"town":"豊倉町","koaza":"飯森","lat":34.90905,"lng":134.861686,"version":"14.0b/19.0a"}]