[{"town":"山田町","koaza":"","lat":34.83454,"lng":134.979129,"version":"13.0b/18.0a"},{"town":"小田町","koaza":"","lat":34.884479,"lng":134.995323,"version":"13.0b/18.0a"},{"town":"万勝寺町","koaza":"","lat":34.861374,"lng":134.99953,"version":"13.0b/18.0a"},{"town":"栄町","koaza":"","lat":34.856749,"lng":134.995886,"version":"13.0b/18.0a"},{"town":"大開町","koaza":"","lat":34.846279,"lng":134.999665,"version":"13.0b/18.0a"},{"town":"福甸町","koaza":"","lat":34.837806,"lng":134.887537,"version":"13.0b/18.0a"},{"town":"来住町","koaza":"","lat":34.834904,"lng":134.900334,"version":"13.0b/18.0a"},{"town":"下来住町","koaza":"","lat":34.83176,"lng":134.917634,"version":"13.0b/18.0a"},{"town":"片山町","koaza":"","lat":34.841991,"lng":134.921143,"version":"13.0b/18.0a"},{"town":"大島町","koaza":"","lat":34.836349,"lng":134.927188,"version":"13.0b/18.0a"},{"town":"垂井町","koaza":"","lat":34.838174,"lng":134.936407,"version":"13.0b/18.0a"},{"town":"二葉町","koaza":"","lat":34.837512,"lng":134.946688,"version":"13.0b/18.0a"},{"town":"市場町","koaza":"","lat":34.829781,"lng":134.944663,"version":"13.0b/18.0a"},{"town":"匠台","koaza":"","lat":34.824745,"lng":134.977474,"version":"13.0b/18.0a"},{"town":"榊町","koaza":"","lat":34.82438,"lng":134.968912,"version":"13.0b/18.0a"},{"town":"育ケ丘町","koaza":"","lat":34.821392,"lng":134.955594,"version":"13.0b/18.0a"},{"town":"池尻町","koaza":"","lat":34.826553,"lng":134.953055,"version":"13.0b/18.0a"},{"town":"樫山町","koaza":"","lat":34.815414,"lng":134.950617,"version":"13.0b/18.0a"},{"town":"黍田町","koaza":"","lat":34.817134,"lng":134.929661,"version":"13.0b/18.0a"},{"town":"中谷町","koaza":"","lat":34.869129,"lng":135.018497,"version":"13.0b/18.0a"},{"town":"脇本町","koaza":"","lat":34.865635,"lng":135.008322,"version":"13.0b/18.0a"},{"town":"池田町","koaza":"","lat":34.878723,"lng":135.009682,"version":"13.0b/18.0a"},{"town":"曽根町","koaza":"","lat":34.883262,"lng":135.005037,"version":"13.0b/18.0a"},{"town":"丸山町","koaza":"","lat":34.847502,"lng":134.931036,"version":"13.0b/18.0a"},{"town":"高山町","koaza":"","lat":34.872385,"lng":134.961656,"version":"13.0b/18.0a"},{"town":"中町","koaza":"","lat":34.843814,"lng":134.939816,"version":"13.0b/18.0a"},{"town":"東本町","koaza":"","lat":34.845139,"lng":134.936785,"version":"13.0b/18.0a"},{"town":"本町一丁目","koaza":"","lat":34.844153,"lng":134.936192,"version":"13.0b/18.0a"},{"town":"神明町","koaza":"","lat":34.840909,"lng":134.933424,"version":"13.0b/18.0a"},{"town":"本町","koaza":"","lat":34.847088,"lng":134.937549,"version":"13.0b/18.0a"},{"town":"上本町","koaza":"","lat":34.849664,"lng":134.936221,"version":"13.0b/18.0a"},{"town":"西本町","koaza":"","lat":34.845281,"lng":134.93263,"version":"13.0b/18.0a"},{"town":"田園町","koaza":"","lat":34.84446,"lng":134.920173,"version":"13.0b/18.0a"},{"town":"下大部町","koaza":"","lat":34.844082,"lng":134.915731,"version":"13.0b/18.0a"},{"town":"日吉町","koaza":"","lat":34.844773,"lng":134.982743,"version":"13.0b/18.0a"},{"town":"長尾町","koaza":"","lat":34.856044,"lng":134.980744,"version":"13.0b/18.0a"},{"town":"北丘町","koaza":"","lat":34.86605,"lng":134.965414,"version":"13.0b/18.0a"},{"town":"天神町","koaza":"","lat":34.845386,"lng":134.956627,"version":"13.0b/18.0a"},{"town":"黒川町","koaza":"","lat":34.852962,"lng":134.947186,"version":"13.0b/18.0a"},{"town":"中島町","koaza":"","lat":34.859183,"lng":134.942345,"version":"13.0b/18.0a"},{"town":"久茂町","koaza":"","lat":34.849865,"lng":134.9156,"version":"13.0b/18.0a"},{"town":"王子町","koaza":"","lat":34.854549,"lng":134.930776,"version":"13.0b/18.0a"},{"town":"敷地町","koaza":"","lat":34.862657,"lng":134.929074,"version":"13.0b/18.0a"},{"town":"葉多町","koaza":"","lat":34.853087,"lng":134.920098,"version":"13.0b/18.0a"},{"town":"阿形町","koaza":"","lat":34.848322,"lng":134.900273,"version":"13.0b/18.0a"},{"town":"西脇町","koaza":"","lat":34.856547,"lng":134.898796,"version":"13.0b/18.0a"},{"town":"菅田町","koaza":"","lat":34.874861,"lng":134.977203,"version":"13.0b/18.0a"},{"town":"浄谷町","koaza":"","lat":34.861822,"lng":134.959388,"version":"13.0b/18.0a"},{"town":"広渡町","koaza":"","lat":34.867661,"lng":134.94464,"version":"13.0b/18.0a"},{"town":"古川町","koaza":"","lat":34.87867,"lng":134.944744,"version":"13.0b/18.0a"},{"town":"鹿野町","koaza":"","lat":34.870115,"lng":134.937496,"version":"13.0b/18.0a"},{"town":"高田町","koaza":"","lat":34.872988,"lng":134.932686,"version":"13.0b/18.0a"},{"town":"喜多町","koaza":"","lat":34.878325,"lng":134.935941,"version":"13.0b/18.0a"},{"town":"住永町","koaza":"","lat":34.864562,"lng":134.92043,"version":"13.0b/18.0a"},{"town":"旭町","koaza":"","lat":34.873313,"lng":134.923017,"version":"13.0b/18.0a"},{"town":"三和町","koaza":"","lat":34.871322,"lng":134.917313,"version":"13.0b/18.0a"},{"town":"旭新町","koaza":"","lat":34.876047,"lng":134.915918,"version":"13.0b/18.0a"},{"town":"昭和町","koaza":"","lat":34.874731,"lng":134.907354,"version":"13.0b/18.0a"},{"town":"新部町","koaza":"","lat":34.8794,"lng":134.918261,"version":"13.0b/18.0a"},{"town":"粟生町","koaza":"","lat":34.861062,"lng":134.904324,"version":"13.0b/18.0a"},{"town":"船木町","koaza":"","lat":34.879873,"lng":134.98624,"version":"13.0b/18.0a"},{"town":"中番町","koaza":"","lat":34.888155,"lng":134.974641,"version":"13.0b/18.0a"},{"town":"住吉町","koaza":"","lat":34.881514,"lng":134.967392,"version":"13.0b/18.0a"},{"town":"福住町","koaza":"","lat":34.892735,"lng":134.979699,"version":"13.0b/18.0a"},{"town":"久保木町","koaza":"","lat":34.877126,"lng":134.957777,"version":"13.0b/18.0a"},{"town":"河合中町","koaza":"","lat":34.891724,"lng":134.927872,"version":"13.0b/18.0a"},{"town":"桜台","koaza":"","lat":34.906611,"lng":134.918206,"version":"13.0b/18.0a"},{"town":"河合西町","koaza":"","lat":34.89426,"lng":134.908447,"version":"13.0b/18.0a"},{"town":"復井町","koaza":"","lat":34.906298,"lng":134.926918,"version":"13.0b/18.0a"},{"town":"王子町","koaza":"山ノ下","lat":34.8561,"lng":134.927155,"version":"13.0b/18.0a"},{"town":"古川町","koaza":"溝向","lat":34.882463,"lng":134.948493,"version":"13.0b/18.0a"},{"town":"復井町","koaza":"中ノ池","lat":34.902639,"lng":134.919445,"version":"13.0b/18.0a"},{"town":"山田町","koaza":"","lat":34.83454,"lng":134.979129,"version":"14.0b/19.0a"},{"town":"小田町","koaza":"","lat":34.884479,"lng":134.995323,"version":"14.0b/19.0a"},{"town":"万勝寺町","koaza":"","lat":34.861374,"lng":134.99953,"version":"14.0b/19.0a"},{"town":"栄町","koaza":"","lat":34.856749,"lng":134.995886,"version":"14.0b/19.0a"},{"town":"大開町","koaza":"","lat":34.846279,"lng":134.999665,"version":"14.0b/19.0a"},{"town":"福甸町","koaza":"","lat":34.837806,"lng":134.887537,"version":"14.0b/19.0a"},{"town":"来住町","koaza":"","lat":34.834904,"lng":134.900334,"version":"14.0b/19.0a"},{"town":"下来住町","koaza":"","lat":34.83176,"lng":134.917634,"version":"14.0b/19.0a"},{"town":"片山町","koaza":"","lat":34.841991,"lng":134.921143,"version":"14.0b/19.0a"},{"town":"大島町","koaza":"","lat":34.836349,"lng":134.927188,"version":"14.0b/19.0a"},{"town":"垂井町","koaza":"","lat":34.838174,"lng":134.936407,"version":"14.0b/19.0a"},{"town":"二葉町","koaza":"","lat":34.837512,"lng":134.946688,"version":"14.0b/19.0a"},{"town":"市場町","koaza":"","lat":34.829781,"lng":134.944663,"version":"14.0b/19.0a"},{"town":"匠台","koaza":"","lat":34.824745,"lng":134.977474,"version":"14.0b/19.0a"},{"town":"榊町","koaza":"","lat":34.82438,"lng":134.968912,"version":"14.0b/19.0a"},{"town":"育ケ丘町","koaza":"","lat":34.821392,"lng":134.955594,"version":"14.0b/19.0a"},{"town":"池尻町","koaza":"","lat":34.826553,"lng":134.953055,"version":"14.0b/19.0a"},{"town":"樫山町","koaza":"","lat":34.815414,"lng":134.950617,"version":"14.0b/19.0a"},{"town":"黍田町","koaza":"","lat":34.817134,"lng":134.929661,"version":"14.0b/19.0a"},{"town":"中谷町","koaza":"","lat":34.869129,"lng":135.018497,"version":"14.0b/19.0a"},{"town":"脇本町","koaza":"","lat":34.865635,"lng":135.008322,"version":"14.0b/19.0a"},{"town":"池田町","koaza":"","lat":34.878723,"lng":135.009682,"version":"14.0b/19.0a"},{"town":"曽根町","koaza":"","lat":34.883262,"lng":135.005037,"version":"14.0b/19.0a"},{"town":"丸山町","koaza":"","lat":34.847502,"lng":134.931036,"version":"14.0b/19.0a"},{"town":"高山町","koaza":"","lat":34.872385,"lng":134.961656,"version":"14.0b/19.0a"},{"town":"中町","koaza":"","lat":34.843814,"lng":134.939816,"version":"14.0b/19.0a"},{"town":"東本町","koaza":"","lat":34.845139,"lng":134.936785,"version":"14.0b/19.0a"},{"town":"本町一丁目","koaza":"","lat":34.844153,"lng":134.936192,"version":"14.0b/19.0a"},{"town":"神明町","koaza":"","lat":34.840909,"lng":134.933424,"version":"14.0b/19.0a"},{"town":"本町","koaza":"","lat":34.847088,"lng":134.937549,"version":"14.0b/19.0a"},{"town":"上本町","koaza":"","lat":34.849664,"lng":134.936221,"version":"14.0b/19.0a"},{"town":"西本町","koaza":"","lat":34.845281,"lng":134.93263,"version":"14.0b/19.0a"},{"town":"田園町","koaza":"","lat":34.84446,"lng":134.920173,"version":"14.0b/19.0a"},{"town":"下大部町","koaza":"","lat":34.844082,"lng":134.915731,"version":"14.0b/19.0a"},{"town":"日吉町","koaza":"","lat":34.844773,"lng":134.982743,"version":"14.0b/19.0a"},{"town":"長尾町","koaza":"","lat":34.856044,"lng":134.980744,"version":"14.0b/19.0a"},{"town":"北丘町","koaza":"","lat":34.86605,"lng":134.965414,"version":"14.0b/19.0a"},{"town":"天神町","koaza":"","lat":34.845386,"lng":134.956627,"version":"14.0b/19.0a"},{"town":"黒川町","koaza":"","lat":34.852962,"lng":134.947186,"version":"14.0b/19.0a"},{"town":"中島町","koaza":"","lat":34.859183,"lng":134.942345,"version":"14.0b/19.0a"},{"town":"久茂町","koaza":"","lat":34.849865,"lng":134.9156,"version":"14.0b/19.0a"},{"town":"王子町","koaza":"","lat":34.854549,"lng":134.930776,"version":"14.0b/19.0a"},{"town":"敷地町","koaza":"","lat":34.862657,"lng":134.929074,"version":"14.0b/19.0a"},{"town":"葉多町","koaza":"","lat":34.853087,"lng":134.920098,"version":"14.0b/19.0a"},{"town":"阿形町","koaza":"","lat":34.848322,"lng":134.900273,"version":"14.0b/19.0a"},{"town":"西脇町","koaza":"","lat":34.856547,"lng":134.898796,"version":"14.0b/19.0a"},{"town":"菅田町","koaza":"","lat":34.874861,"lng":134.977203,"version":"14.0b/19.0a"},{"town":"浄谷町","koaza":"","lat":34.861822,"lng":134.959388,"version":"14.0b/19.0a"},{"town":"広渡町","koaza":"","lat":34.867661,"lng":134.94464,"version":"14.0b/19.0a"},{"town":"古川町","koaza":"","lat":34.87867,"lng":134.944744,"version":"14.0b/19.0a"},{"town":"鹿野町","koaza":"","lat":34.870115,"lng":134.937496,"version":"14.0b/19.0a"},{"town":"高田町","koaza":"","lat":34.872988,"lng":134.932686,"version":"14.0b/19.0a"},{"town":"喜多町","koaza":"","lat":34.878325,"lng":134.935941,"version":"14.0b/19.0a"},{"town":"住永町","koaza":"","lat":34.864562,"lng":134.92043,"version":"14.0b/19.0a"},{"town":"旭町","koaza":"","lat":34.873313,"lng":134.923017,"version":"14.0b/19.0a"},{"town":"三和町","koaza":"","lat":34.871322,"lng":134.917313,"version":"14.0b/19.0a"},{"town":"旭新町","koaza":"","lat":34.876047,"lng":134.915918,"version":"14.0b/19.0a"},{"town":"昭和町","koaza":"","lat":34.874731,"lng":134.907354,"version":"14.0b/19.0a"},{"town":"新部町","koaza":"","lat":34.8794,"lng":134.918261,"version":"14.0b/19.0a"},{"town":"粟生町","koaza":"","lat":34.861062,"lng":134.904324,"version":"14.0b/19.0a"},{"town":"船木町","koaza":"","lat":34.879873,"lng":134.98624,"version":"14.0b/19.0a"},{"town":"中番町","koaza":"","lat":34.888155,"lng":134.974641,"version":"14.0b/19.0a"},{"town":"住吉町","koaza":"","lat":34.881514,"lng":134.967392,"version":"14.0b/19.0a"},{"town":"福住町","koaza":"","lat":34.892735,"lng":134.979699,"version":"14.0b/19.0a"},{"town":"久保木町","koaza":"","lat":34.877126,"lng":134.957777,"version":"14.0b/19.0a"},{"town":"河合中町","koaza":"","lat":34.891724,"lng":134.927872,"version":"14.0b/19.0a"},{"town":"桜台","koaza":"","lat":34.906611,"lng":134.918206,"version":"14.0b/19.0a"},{"town":"河合西町","koaza":"","lat":34.89426,"lng":134.908447,"version":"14.0b/19.0a"},{"town":"復井町","koaza":"","lat":34.906298,"lng":134.926918,"version":"14.0b/19.0a"},{"town":"王子町","koaza":"山ノ下","lat":34.8561,"lng":134.927155,"version":"14.0b/19.0a"},{"town":"古川町","koaza":"溝向","lat":34.882463,"lng":134.948493,"version":"14.0b/19.0a"},{"town":"復井町","koaza":"中ノ池","lat":34.902639,"lng":134.919445,"version":"14.0b/19.0a"}]