[{"town":"出在家町","koaza":"","lat":34.839347,"lng":135.421682,"version":"13.0b/18.0a"},{"town":"火打一丁目","koaza":"","lat":34.835686,"lng":135.418444,"version":"13.0b/18.0a"},{"town":"松が丘町","koaza":"","lat":34.837428,"lng":135.410963,"version":"13.0b/18.0a"},{"town":"霞ケ丘一丁目","koaza":"","lat":34.835876,"lng":135.412034,"version":"13.0b/18.0a"},{"town":"火打二丁目","koaza":"","lat":34.837121,"lng":135.415106,"version":"13.0b/18.0a"},{"town":"満願寺町","koaza":"","lat":34.837291,"lng":135.393321,"version":"13.0b/18.0a"},{"town":"赤松","koaza":"","lat":34.870466,"lng":135.376217,"version":"13.0b/18.0a"},{"town":"柳谷","koaza":"","lat":34.861648,"lng":135.368314,"version":"13.0b/18.0a"},{"town":"若宮","koaza":"","lat":34.851709,"lng":135.37468,"version":"13.0b/18.0a"},{"town":"一庫","koaza":"","lat":34.908412,"lng":135.411254,"version":"13.0b/18.0a"},{"town":"国崎","koaza":"","lat":34.923376,"lng":135.423239,"version":"13.0b/18.0a"},{"town":"横路","koaza":"","lat":34.918583,"lng":135.432793,"version":"13.0b/18.0a"},{"town":"黒川","koaza":"","lat":34.928663,"lng":135.44593,"version":"13.0b/18.0a"},{"town":"東久代一丁目","koaza":"","lat":34.806003,"lng":135.420088,"version":"13.0b/18.0a"},{"town":"東久代二丁目","koaza":"","lat":34.806943,"lng":135.41668,"version":"13.0b/18.0a"},{"town":"久代六丁目","koaza":"","lat":34.802489,"lng":135.415718,"version":"13.0b/18.0a"},{"town":"久代一丁目","koaza":"","lat":34.806898,"lng":135.41346,"version":"13.0b/18.0a"},{"town":"久代五丁目","koaza":"","lat":34.802855,"lng":135.40848,"version":"13.0b/18.0a"},{"town":"久代二丁目","koaza":"","lat":34.807694,"lng":135.410461,"version":"13.0b/18.0a"},{"town":"久代三丁目","koaza":"","lat":34.807336,"lng":135.406875,"version":"13.0b/18.0a"},{"town":"久代四丁目","koaza":"","lat":34.80515,"lng":135.403043,"version":"13.0b/18.0a"},{"town":"加茂六丁目","koaza":"","lat":34.813206,"lng":135.413218,"version":"13.0b/18.0a"},{"town":"下加茂二丁目","koaza":"","lat":34.814365,"lng":135.413535,"version":"13.0b/18.0a"},{"town":"加茂五丁目","koaza":"","lat":34.813091,"lng":135.409346,"version":"13.0b/18.0a"},{"town":"加茂四丁目","koaza":"","lat":34.812889,"lng":135.405616,"version":"13.0b/18.0a"},{"town":"加茂二丁目","koaza":"","lat":34.816513,"lng":135.405706,"version":"13.0b/18.0a"},{"town":"加茂三丁目","koaza":"","lat":34.814555,"lng":135.402561,"version":"13.0b/18.0a"},{"town":"小花二丁目","koaza":"","lat":34.823241,"lng":135.417273,"version":"13.0b/18.0a"},{"town":"栄根一丁目","koaza":"","lat":34.821774,"lng":135.413637,"version":"13.0b/18.0a"},{"town":"下加茂一丁目","koaza":"","lat":34.817918,"lng":135.41322,"version":"13.0b/18.0a"},{"town":"小花一丁目","koaza":"","lat":34.8254,"lng":135.41465,"version":"13.0b/18.0a"},{"town":"加茂一丁目","koaza":"","lat":34.817911,"lng":135.408908,"version":"13.0b/18.0a"},{"town":"南花屋敷二丁目","koaza":"","lat":34.821296,"lng":135.40651,"version":"13.0b/18.0a"},{"town":"南花屋敷一丁目","koaza":"","lat":34.824124,"lng":135.407001,"version":"13.0b/18.0a"},{"town":"栄根二丁目","koaza":"","lat":34.823099,"lng":135.410857,"version":"13.0b/18.0a"},{"town":"寺畑一丁目","koaza":"","lat":34.826738,"lng":135.408294,"version":"13.0b/18.0a"},{"town":"南花屋敷三丁目","koaza":"","lat":34.820357,"lng":135.402756,"version":"13.0b/18.0a"},{"town":"寺畑二丁目","koaza":"","lat":34.826368,"lng":135.40427,"version":"13.0b/18.0a"},{"town":"南花屋敷四丁目","koaza":"","lat":34.82351,"lng":135.402857,"version":"13.0b/18.0a"},{"town":"小戸二丁目","koaza":"","lat":34.828139,"lng":135.420687,"version":"13.0b/18.0a"},{"town":"小戸一丁目","koaza":"","lat":34.828759,"lng":135.417854,"version":"13.0b/18.0a"},{"town":"小戸三丁目","koaza":"","lat":34.831637,"lng":135.421647,"version":"13.0b/18.0a"},{"town":"美園町","koaza":"","lat":34.832838,"lng":135.420004,"version":"13.0b/18.0a"},{"town":"絹延町","koaza":"","lat":34.834944,"lng":135.421907,"version":"13.0b/18.0a"},{"town":"中央町","koaza":"","lat":34.830203,"lng":135.415961,"version":"13.0b/18.0a"},{"town":"栄町","koaza":"","lat":34.828677,"lng":135.412732,"version":"13.0b/18.0a"},{"town":"日高町","koaza":"","lat":34.833298,"lng":135.412724,"version":"13.0b/18.0a"},{"town":"霞ケ丘二丁目","koaza":"","lat":34.833926,"lng":135.412597,"version":"13.0b/18.0a"},{"town":"花屋敷山手町","koaza":"","lat":34.83314,"lng":135.409455,"version":"13.0b/18.0a"},{"town":"花屋敷一丁目","koaza":"","lat":34.829964,"lng":135.409197,"version":"13.0b/18.0a"},{"town":"花屋敷二丁目","koaza":"","lat":34.829854,"lng":135.406552,"version":"13.0b/18.0a"},{"town":"多田院西一丁目","koaza":"","lat":34.859021,"lng":135.400344,"version":"13.0b/18.0a"},{"town":"西畦野一丁目","koaza":"","lat":34.886373,"lng":135.400413,"version":"13.0b/18.0a"},{"town":"山原二丁目","koaza":"","lat":34.89454,"lng":135.401965,"version":"13.0b/18.0a"},{"town":"緑が丘二丁目","koaza":"","lat":34.8975,"lng":135.401894,"version":"13.0b/18.0a"},{"town":"笹部三丁目","koaza":"","lat":34.89584,"lng":135.416737,"version":"13.0b/18.0a"},{"town":"笹部二丁目","koaza":"","lat":34.896634,"lng":135.413033,"version":"13.0b/18.0a"},{"town":"下財町","koaza":"","lat":34.89777,"lng":135.409535,"version":"13.0b/18.0a"},{"town":"一庫一丁目","koaza":"","lat":34.90023,"lng":135.405929,"version":"13.0b/18.0a"},{"town":"一庫三丁目","koaza":"","lat":34.903344,"lng":135.400761,"version":"13.0b/18.0a"},{"town":"一庫二丁目","koaza":"","lat":34.903033,"lng":135.405553,"version":"13.0b/18.0a"},{"town":"丸の内町","koaza":"","lat":34.839911,"lng":135.4184,"version":"13.0b/18.0a"},{"town":"滝山町","koaza":"","lat":34.843778,"lng":135.420368,"version":"13.0b/18.0a"},{"town":"萩原三丁目","koaza":"","lat":34.844772,"lng":135.417592,"version":"13.0b/18.0a"},{"town":"萩原二丁目","koaza":"","lat":34.8424,"lng":135.416976,"version":"13.0b/18.0a"},{"town":"萩原一丁目","koaza":"","lat":34.839295,"lng":135.415311,"version":"13.0b/18.0a"},{"town":"萩原台東一丁目","koaza":"","lat":34.843086,"lng":135.413952,"version":"13.0b/18.0a"},{"town":"萩原台東二丁目","koaza":"","lat":34.846257,"lng":135.4129,"version":"13.0b/18.0a"},{"town":"鴬が丘","koaza":"","lat":34.846694,"lng":135.415269,"version":"13.0b/18.0a"},{"town":"萩原台西一丁目","koaza":"","lat":34.843329,"lng":135.409523,"version":"13.0b/18.0a"},{"town":"萩原台西二丁目","koaza":"","lat":34.846407,"lng":135.407655,"version":"13.0b/18.0a"},{"town":"萩原台西三丁目","koaza":"","lat":34.847994,"lng":135.410114,"version":"13.0b/18.0a"},{"town":"南野坂一丁目","koaza":"","lat":34.846721,"lng":135.404675,"version":"13.0b/18.0a"},{"town":"湯山台一丁目","koaza":"","lat":34.849366,"lng":135.401581,"version":"13.0b/18.0a"},{"town":"南野坂二丁目","koaza":"","lat":34.847681,"lng":135.403483,"version":"13.0b/18.0a"},{"town":"鼓が滝三丁目","koaza":"","lat":34.856889,"lng":135.427951,"version":"13.0b/18.0a"},{"town":"鴬の森町","koaza":"","lat":34.847535,"lng":135.418145,"version":"13.0b/18.0a"},{"town":"鼓が滝二丁目","koaza":"","lat":34.854461,"lng":135.424818,"version":"13.0b/18.0a"},{"town":"鴬台二丁目","koaza":"","lat":34.851602,"lng":135.415566,"version":"13.0b/18.0a"},{"town":"鴬台一丁目","koaza":"","lat":34.850469,"lng":135.413599,"version":"13.0b/18.0a"},{"town":"鼓が滝一丁目","koaza":"","lat":34.853508,"lng":135.41961,"version":"13.0b/18.0a"},{"town":"東多田二丁目","koaza":"","lat":34.858038,"lng":135.422901,"version":"13.0b/18.0a"},{"town":"東多田一丁目","koaza":"","lat":34.857497,"lng":135.419015,"version":"13.0b/18.0a"},{"town":"多田桜木一丁目","koaza":"","lat":34.85669,"lng":135.41708,"version":"13.0b/18.0a"},{"town":"東多田三丁目","koaza":"","lat":34.861782,"lng":135.42061,"version":"13.0b/18.0a"},{"town":"矢問一丁目","koaza":"","lat":34.85426,"lng":135.414101,"version":"13.0b/18.0a"},{"town":"矢問東町","koaza":"","lat":34.856516,"lng":135.415002,"version":"13.0b/18.0a"},{"town":"錦松台","koaza":"","lat":34.850754,"lng":135.408814,"version":"13.0b/18.0a"},{"town":"矢問二丁目","koaza":"","lat":34.855283,"lng":135.4103,"version":"13.0b/18.0a"},{"town":"西多田二丁目","koaza":"","lat":34.855297,"lng":135.40764,"version":"13.0b/18.0a"},{"town":"湯山台二丁目","koaza":"","lat":34.849706,"lng":135.396714,"version":"13.0b/18.0a"},{"town":"多田桜木二丁目","koaza":"","lat":34.860995,"lng":135.414951,"version":"13.0b/18.0a"},{"town":"新田一丁目","koaza":"","lat":34.861895,"lng":135.411109,"version":"13.0b/18.0a"},{"town":"矢問三丁目","koaza":"","lat":34.859286,"lng":135.408981,"version":"13.0b/18.0a"},{"town":"西多田一丁目","koaza":"","lat":34.855848,"lng":135.403379,"version":"13.0b/18.0a"},{"town":"多田院多田所町","koaza":"","lat":34.860861,"lng":135.40287,"version":"13.0b/18.0a"},{"town":"新田三丁目","koaza":"","lat":34.864706,"lng":135.411041,"version":"13.0b/18.0a"},{"town":"新田二丁目","koaza":"","lat":34.862999,"lng":135.407161,"version":"13.0b/18.0a"},{"town":"多田院一丁目","koaza":"","lat":34.861887,"lng":135.405251,"version":"13.0b/18.0a"},{"town":"緑台三丁目","koaza":"","lat":34.865855,"lng":135.405813,"version":"13.0b/18.0a"},{"town":"多田院二丁目","koaza":"","lat":34.86206,"lng":135.401335,"version":"13.0b/18.0a"},{"town":"多田院西二丁目","koaza":"","lat":34.865355,"lng":135.397869,"version":"13.0b/18.0a"},{"town":"多田院","koaza":"","lat":34.861379,"lng":135.395484,"version":"13.0b/18.0a"},{"town":"けやき坂一丁目","koaza":"","lat":34.86272,"lng":135.391659,"version":"13.0b/18.0a"},{"town":"西多田","koaza":"","lat":34.850636,"lng":135.389556,"version":"13.0b/18.0a"},{"town":"芋生","koaza":"","lat":34.856679,"lng":135.38634,"version":"13.0b/18.0a"},{"town":"けやき坂二丁目","koaza":"","lat":34.859267,"lng":135.380352,"version":"13.0b/18.0a"},{"town":"けやき坂三丁目","koaza":"","lat":34.860112,"lng":135.375303,"version":"13.0b/18.0a"},{"town":"けやき坂五丁目","koaza":"","lat":34.863502,"lng":135.384589,"version":"13.0b/18.0a"},{"town":"けやき坂四丁目","koaza":"","lat":34.864649,"lng":135.378468,"version":"13.0b/18.0a"},{"town":"東多田","koaza":"","lat":34.86497,"lng":135.426805,"version":"13.0b/18.0a"},{"town":"平野一丁目","koaza":"","lat":34.865523,"lng":135.418245,"version":"13.0b/18.0a"},{"town":"平野二丁目","koaza":"","lat":34.866486,"lng":135.413465,"version":"13.0b/18.0a"},{"town":"平野三丁目","koaza":"","lat":34.870248,"lng":135.415417,"version":"13.0b/18.0a"},{"town":"長尾町","koaza":"","lat":34.880717,"lng":135.421967,"version":"13.0b/18.0a"},{"town":"東畦野山手一丁目","koaza":"","lat":34.879876,"lng":135.417263,"version":"13.0b/18.0a"},{"town":"平野","koaza":"","lat":34.875256,"lng":135.416737,"version":"13.0b/18.0a"},{"town":"東畦野山手二丁目","koaza":"","lat":34.876491,"lng":135.407846,"version":"13.0b/18.0a"},{"town":"緑台一丁目","koaza":"","lat":34.868706,"lng":135.411359,"version":"13.0b/18.0a"},{"town":"緑台二丁目","koaza":"","lat":34.869343,"lng":135.40961,"version":"13.0b/18.0a"},{"town":"向陽台二丁目","koaza":"","lat":34.872915,"lng":135.407209,"version":"13.0b/18.0a"},{"town":"緑台四丁目","koaza":"","lat":34.869076,"lng":135.406194,"version":"13.0b/18.0a"},{"town":"緑台七丁目","koaza":"","lat":34.866797,"lng":135.398981,"version":"13.0b/18.0a"},{"town":"緑台五丁目","koaza":"","lat":34.869014,"lng":135.402214,"version":"13.0b/18.0a"},{"town":"緑台六丁目","koaza":"","lat":34.86988,"lng":135.400049,"version":"13.0b/18.0a"},{"town":"向陽台一丁目","koaza":"","lat":34.874304,"lng":135.411067,"version":"13.0b/18.0a"},{"town":"東畦野一丁目","koaza":"","lat":34.882906,"lng":135.409338,"version":"13.0b/18.0a"},{"town":"水明台二丁目","koaza":"","lat":34.876978,"lng":135.39965,"version":"13.0b/18.0a"},{"town":"向陽台三丁目","koaza":"","lat":34.876405,"lng":135.404495,"version":"13.0b/18.0a"},{"town":"水明台一丁目","koaza":"","lat":34.873497,"lng":135.3991,"version":"13.0b/18.0a"},{"town":"清和台西五丁目","koaza":"","lat":34.868697,"lng":135.388885,"version":"13.0b/18.0a"},{"town":"清和台東五丁目","koaza":"","lat":34.869391,"lng":135.39178,"version":"13.0b/18.0a"},{"town":"清和台東四丁目","koaza":"","lat":34.872117,"lng":135.391525,"version":"13.0b/18.0a"},{"town":"清和台東三丁目","koaza":"","lat":34.874177,"lng":135.390006,"version":"13.0b/18.0a"},{"town":"虫生","koaza":"","lat":34.877204,"lng":135.392647,"version":"13.0b/18.0a"},{"town":"水明台三丁目","koaza":"","lat":34.87774,"lng":135.395238,"version":"13.0b/18.0a"},{"town":"清流台","koaza":"","lat":34.883041,"lng":135.400807,"version":"13.0b/18.0a"},{"town":"水明台四丁目","koaza":"","lat":34.880831,"lng":135.398419,"version":"13.0b/18.0a"},{"town":"清和台東二丁目","koaza":"","lat":34.876726,"lng":135.388591,"version":"13.0b/18.0a"},{"town":"清和台西四丁目","koaza":"","lat":34.86946,"lng":135.384756,"version":"13.0b/18.0a"},{"town":"清和台西三丁目","koaza":"","lat":34.870938,"lng":135.384263,"version":"13.0b/18.0a"},{"town":"清和台西二丁目","koaza":"","lat":34.873296,"lng":135.385021,"version":"13.0b/18.0a"},{"town":"清和台東一丁目","koaza":"","lat":34.879913,"lng":135.387044,"version":"13.0b/18.0a"},{"town":"清和台西一丁目","koaza":"","lat":34.878586,"lng":135.384417,"version":"13.0b/18.0a"},{"town":"東畦野","koaza":"","lat":34.884423,"lng":135.431119,"version":"13.0b/18.0a"},{"town":"大和東二丁目","koaza":"","lat":34.891451,"lng":135.427299,"version":"13.0b/18.0a"},{"town":"大和東五丁目","koaza":"","lat":34.894016,"lng":135.428411,"version":"13.0b/18.0a"},{"town":"大和東一丁目","koaza":"","lat":34.884842,"lng":135.421909,"version":"13.0b/18.0a"},{"town":"大和東三丁目","koaza":"","lat":34.889961,"lng":135.42225,"version":"13.0b/18.0a"},{"town":"大和西四丁目","koaza":"","lat":34.890102,"lng":135.418578,"version":"13.0b/18.0a"},{"town":"大和西一丁目","koaza":"","lat":34.883912,"lng":135.418316,"version":"13.0b/18.0a"},{"town":"大和西二丁目","koaza":"","lat":34.887258,"lng":135.416527,"version":"13.0b/18.0a"},{"town":"大和西三丁目","koaza":"","lat":34.890027,"lng":135.414573,"version":"13.0b/18.0a"},{"town":"見野一丁目","koaza":"","lat":34.891174,"lng":135.412363,"version":"13.0b/18.0a"},{"town":"東畦野二丁目","koaza":"","lat":34.885207,"lng":135.414664,"version":"13.0b/18.0a"},{"town":"大和東四丁目","koaza":"","lat":34.892811,"lng":135.422324,"version":"13.0b/18.0a"},{"town":"大和西五丁目","koaza":"","lat":34.892526,"lng":135.417452,"version":"13.0b/18.0a"},{"town":"東畦野三丁目","koaza":"","lat":34.885694,"lng":135.411173,"version":"13.0b/18.0a"},{"town":"東畦野四丁目","koaza":"","lat":34.885196,"lng":135.407629,"version":"13.0b/18.0a"},{"town":"東畦野五丁目","koaza":"","lat":34.888154,"lng":135.406634,"version":"13.0b/18.0a"},{"town":"西畦野二丁目","koaza":"","lat":34.888603,"lng":135.402624,"version":"13.0b/18.0a"},{"town":"見野三丁目","koaza":"","lat":34.890768,"lng":135.407378,"version":"13.0b/18.0a"},{"town":"見野二丁目","koaza":"","lat":34.890861,"lng":135.409553,"version":"13.0b/18.0a"},{"town":"笹部一丁目","koaza":"","lat":34.894228,"lng":135.409411,"version":"13.0b/18.0a"},{"town":"東畦野六丁目","koaza":"","lat":34.891753,"lng":135.405484,"version":"13.0b/18.0a"},{"town":"山原一丁目","koaza":"","lat":34.894183,"lng":135.40463,"version":"13.0b/18.0a"},{"town":"山下町","koaza":"","lat":34.89736,"lng":135.407547,"version":"13.0b/18.0a"},{"town":"緑が丘一丁目","koaza":"","lat":34.897373,"lng":135.405418,"version":"13.0b/18.0a"},{"town":"西畦野","koaza":"","lat":34.887951,"lng":135.395544,"version":"13.0b/18.0a"},{"town":"山原","koaza":"","lat":34.897938,"lng":135.394145,"version":"13.0b/18.0a"},{"town":"石道","koaza":"","lat":34.887273,"lng":135.385604,"version":"13.0b/18.0a"},{"town":"笹部","koaza":"","lat":34.899865,"lng":135.420964,"version":"13.0b/18.0a"},{"town":"山下","koaza":"","lat":34.901321,"lng":135.412044,"version":"13.0b/18.0a"},{"town":"丸山台二丁目","koaza":"","lat":34.909785,"lng":135.406737,"version":"13.0b/18.0a"},{"town":"丸山台三丁目","koaza":"","lat":34.914981,"lng":135.407524,"version":"13.0b/18.0a"},{"town":"美山台三丁目","koaza":"","lat":34.911274,"lng":135.402113,"version":"13.0b/18.0a"},{"town":"丸山台一丁目","koaza":"","lat":34.905187,"lng":135.398666,"version":"13.0b/18.0a"},{"town":"美山台一丁目","koaza":"","lat":34.907987,"lng":135.396625,"version":"13.0b/18.0a"},{"town":"美山台二丁目","koaza":"","lat":34.90928,"lng":135.398745,"version":"13.0b/18.0a"},{"town":"多田院","koaza":"敦盛","lat":34.860056,"lng":135.393952,"version":"13.0b/18.0a"},{"town":"西畦野","koaza":"金ヶ谷","lat":34.892146,"lng":135.395651,"version":"13.0b/18.0a"},{"town":"東畦野","koaza":"中山谷西尾","lat":34.879111,"lng":135.411069,"version":"13.0b/18.0a"},{"town":"国崎","koaza":"欅ヶ谷","lat":34.925487,"lng":135.410874,"version":"13.0b/18.0a"},{"town":"東畦野","koaza":"長尾","lat":34.882983,"lng":135.431624,"version":"13.0b/18.0a"},{"town":"国崎","koaza":"笹ヶ谷","lat":34.934369,"lng":135.427192,"version":"13.0b/18.0a"},{"town":"国崎","koaza":"椿","lat":34.92418,"lng":135.431153,"version":"13.0b/18.0a"},{"town":"黒川","koaza":"谷垣内","lat":34.929196,"lng":135.438909,"version":"13.0b/18.0a"},{"town":"黒川","koaza":"針田","lat":34.924016,"lng":135.458138,"version":"13.0b/18.0a"},{"town":"出在家町","koaza":"","lat":34.839347,"lng":135.421682,"version":"14.0b/19.0a"},{"town":"火打一丁目","koaza":"","lat":34.835686,"lng":135.418444,"version":"14.0b/19.0a"},{"town":"松が丘町","koaza":"","lat":34.837428,"lng":135.410963,"version":"14.0b/19.0a"},{"town":"霞ケ丘一丁目","koaza":"","lat":34.835876,"lng":135.412034,"version":"14.0b/19.0a"},{"town":"火打二丁目","koaza":"","lat":34.837121,"lng":135.415106,"version":"14.0b/19.0a"},{"town":"満願寺町","koaza":"","lat":34.837291,"lng":135.393321,"version":"14.0b/19.0a"},{"town":"赤松","koaza":"","lat":34.870466,"lng":135.376217,"version":"14.0b/19.0a"},{"town":"柳谷","koaza":"","lat":34.861648,"lng":135.368314,"version":"14.0b/19.0a"},{"town":"若宮","koaza":"","lat":34.851709,"lng":135.37468,"version":"14.0b/19.0a"},{"town":"一庫","koaza":"","lat":34.908412,"lng":135.411254,"version":"14.0b/19.0a"},{"town":"国崎","koaza":"","lat":34.923376,"lng":135.423239,"version":"14.0b/19.0a"},{"town":"横路","koaza":"","lat":34.918583,"lng":135.432793,"version":"14.0b/19.0a"},{"town":"黒川","koaza":"","lat":34.928663,"lng":135.44593,"version":"14.0b/19.0a"},{"town":"東久代一丁目","koaza":"","lat":34.806003,"lng":135.420088,"version":"14.0b/19.0a"},{"town":"東久代二丁目","koaza":"","lat":34.806943,"lng":135.41668,"version":"14.0b/19.0a"},{"town":"久代六丁目","koaza":"","lat":34.802489,"lng":135.415718,"version":"14.0b/19.0a"},{"town":"久代一丁目","koaza":"","lat":34.806898,"lng":135.41346,"version":"14.0b/19.0a"},{"town":"久代五丁目","koaza":"","lat":34.802855,"lng":135.40848,"version":"14.0b/19.0a"},{"town":"久代二丁目","koaza":"","lat":34.807694,"lng":135.410461,"version":"14.0b/19.0a"},{"town":"久代三丁目","koaza":"","lat":34.807336,"lng":135.406875,"version":"14.0b/19.0a"},{"town":"久代四丁目","koaza":"","lat":34.80515,"lng":135.403043,"version":"14.0b/19.0a"},{"town":"加茂六丁目","koaza":"","lat":34.813206,"lng":135.413218,"version":"14.0b/19.0a"},{"town":"下加茂二丁目","koaza":"","lat":34.814365,"lng":135.413535,"version":"14.0b/19.0a"},{"town":"加茂五丁目","koaza":"","lat":34.813091,"lng":135.409346,"version":"14.0b/19.0a"},{"town":"加茂四丁目","koaza":"","lat":34.812889,"lng":135.405616,"version":"14.0b/19.0a"},{"town":"加茂二丁目","koaza":"","lat":34.816513,"lng":135.405706,"version":"14.0b/19.0a"},{"town":"加茂三丁目","koaza":"","lat":34.814555,"lng":135.402561,"version":"14.0b/19.0a"},{"town":"小花二丁目","koaza":"","lat":34.823241,"lng":135.417273,"version":"14.0b/19.0a"},{"town":"栄根一丁目","koaza":"","lat":34.821774,"lng":135.413637,"version":"14.0b/19.0a"},{"town":"下加茂一丁目","koaza":"","lat":34.817918,"lng":135.41322,"version":"14.0b/19.0a"},{"town":"小花一丁目","koaza":"","lat":34.8254,"lng":135.41465,"version":"14.0b/19.0a"},{"town":"加茂一丁目","koaza":"","lat":34.817911,"lng":135.408908,"version":"14.0b/19.0a"},{"town":"南花屋敷二丁目","koaza":"","lat":34.821296,"lng":135.40651,"version":"14.0b/19.0a"},{"town":"南花屋敷一丁目","koaza":"","lat":34.824124,"lng":135.407001,"version":"14.0b/19.0a"},{"town":"栄根二丁目","koaza":"","lat":34.823099,"lng":135.410857,"version":"14.0b/19.0a"},{"town":"寺畑一丁目","koaza":"","lat":34.826738,"lng":135.408294,"version":"14.0b/19.0a"},{"town":"南花屋敷三丁目","koaza":"","lat":34.820357,"lng":135.402756,"version":"14.0b/19.0a"},{"town":"寺畑二丁目","koaza":"","lat":34.826368,"lng":135.40427,"version":"14.0b/19.0a"},{"town":"南花屋敷四丁目","koaza":"","lat":34.82351,"lng":135.402857,"version":"14.0b/19.0a"},{"town":"小戸二丁目","koaza":"","lat":34.828139,"lng":135.420687,"version":"14.0b/19.0a"},{"town":"小戸一丁目","koaza":"","lat":34.828759,"lng":135.417854,"version":"14.0b/19.0a"},{"town":"小戸三丁目","koaza":"","lat":34.831637,"lng":135.421647,"version":"14.0b/19.0a"},{"town":"美園町","koaza":"","lat":34.832838,"lng":135.420004,"version":"14.0b/19.0a"},{"town":"絹延町","koaza":"","lat":34.834944,"lng":135.421907,"version":"14.0b/19.0a"},{"town":"中央町","koaza":"","lat":34.830203,"lng":135.415961,"version":"14.0b/19.0a"},{"town":"栄町","koaza":"","lat":34.828677,"lng":135.412732,"version":"14.0b/19.0a"},{"town":"日高町","koaza":"","lat":34.833298,"lng":135.412724,"version":"14.0b/19.0a"},{"town":"霞ケ丘二丁目","koaza":"","lat":34.833926,"lng":135.412597,"version":"14.0b/19.0a"},{"town":"花屋敷山手町","koaza":"","lat":34.83314,"lng":135.409455,"version":"14.0b/19.0a"},{"town":"花屋敷一丁目","koaza":"","lat":34.829964,"lng":135.409197,"version":"14.0b/19.0a"},{"town":"花屋敷二丁目","koaza":"","lat":34.829854,"lng":135.406552,"version":"14.0b/19.0a"},{"town":"多田院西一丁目","koaza":"","lat":34.859021,"lng":135.400344,"version":"14.0b/19.0a"},{"town":"西畦野一丁目","koaza":"","lat":34.886373,"lng":135.400413,"version":"14.0b/19.0a"},{"town":"山原二丁目","koaza":"","lat":34.89454,"lng":135.401965,"version":"14.0b/19.0a"},{"town":"緑が丘二丁目","koaza":"","lat":34.8975,"lng":135.401894,"version":"14.0b/19.0a"},{"town":"笹部三丁目","koaza":"","lat":34.89584,"lng":135.416737,"version":"14.0b/19.0a"},{"town":"笹部二丁目","koaza":"","lat":34.896634,"lng":135.413033,"version":"14.0b/19.0a"},{"town":"下財町","koaza":"","lat":34.89777,"lng":135.409535,"version":"14.0b/19.0a"},{"town":"一庫一丁目","koaza":"","lat":34.90023,"lng":135.405929,"version":"14.0b/19.0a"},{"town":"一庫三丁目","koaza":"","lat":34.903344,"lng":135.400761,"version":"14.0b/19.0a"},{"town":"一庫二丁目","koaza":"","lat":34.903033,"lng":135.405553,"version":"14.0b/19.0a"},{"town":"丸の内町","koaza":"","lat":34.839911,"lng":135.4184,"version":"14.0b/19.0a"},{"town":"滝山町","koaza":"","lat":34.843778,"lng":135.420368,"version":"14.0b/19.0a"},{"town":"萩原三丁目","koaza":"","lat":34.844772,"lng":135.417592,"version":"14.0b/19.0a"},{"town":"萩原二丁目","koaza":"","lat":34.8424,"lng":135.416976,"version":"14.0b/19.0a"},{"town":"萩原一丁目","koaza":"","lat":34.839295,"lng":135.415311,"version":"14.0b/19.0a"},{"town":"萩原台東一丁目","koaza":"","lat":34.843086,"lng":135.413952,"version":"14.0b/19.0a"},{"town":"萩原台東二丁目","koaza":"","lat":34.846257,"lng":135.4129,"version":"14.0b/19.0a"},{"town":"鴬が丘","koaza":"","lat":34.846694,"lng":135.415269,"version":"14.0b/19.0a"},{"town":"萩原台西一丁目","koaza":"","lat":34.843329,"lng":135.409523,"version":"14.0b/19.0a"},{"town":"萩原台西二丁目","koaza":"","lat":34.846407,"lng":135.407655,"version":"14.0b/19.0a"},{"town":"萩原台西三丁目","koaza":"","lat":34.847994,"lng":135.410114,"version":"14.0b/19.0a"},{"town":"南野坂一丁目","koaza":"","lat":34.846721,"lng":135.404675,"version":"14.0b/19.0a"},{"town":"湯山台一丁目","koaza":"","lat":34.849366,"lng":135.401581,"version":"14.0b/19.0a"},{"town":"南野坂二丁目","koaza":"","lat":34.847681,"lng":135.403483,"version":"14.0b/19.0a"},{"town":"鼓が滝三丁目","koaza":"","lat":34.856889,"lng":135.427951,"version":"14.0b/19.0a"},{"town":"鴬の森町","koaza":"","lat":34.847535,"lng":135.418145,"version":"14.0b/19.0a"},{"town":"鼓が滝二丁目","koaza":"","lat":34.854461,"lng":135.424818,"version":"14.0b/19.0a"},{"town":"鴬台二丁目","koaza":"","lat":34.851602,"lng":135.415566,"version":"14.0b/19.0a"},{"town":"鴬台一丁目","koaza":"","lat":34.850469,"lng":135.413599,"version":"14.0b/19.0a"},{"town":"鼓が滝一丁目","koaza":"","lat":34.853508,"lng":135.41961,"version":"14.0b/19.0a"},{"town":"東多田二丁目","koaza":"","lat":34.858038,"lng":135.422901,"version":"14.0b/19.0a"},{"town":"東多田一丁目","koaza":"","lat":34.857497,"lng":135.419015,"version":"14.0b/19.0a"},{"town":"多田桜木一丁目","koaza":"","lat":34.85669,"lng":135.41708,"version":"14.0b/19.0a"},{"town":"東多田三丁目","koaza":"","lat":34.861782,"lng":135.42061,"version":"14.0b/19.0a"},{"town":"矢問一丁目","koaza":"","lat":34.85426,"lng":135.414101,"version":"14.0b/19.0a"},{"town":"矢問東町","koaza":"","lat":34.856516,"lng":135.415002,"version":"14.0b/19.0a"},{"town":"錦松台","koaza":"","lat":34.850754,"lng":135.408814,"version":"14.0b/19.0a"},{"town":"矢問二丁目","koaza":"","lat":34.855283,"lng":135.4103,"version":"14.0b/19.0a"},{"town":"西多田二丁目","koaza":"","lat":34.855297,"lng":135.40764,"version":"14.0b/19.0a"},{"town":"湯山台二丁目","koaza":"","lat":34.849706,"lng":135.396714,"version":"14.0b/19.0a"},{"town":"多田桜木二丁目","koaza":"","lat":34.860995,"lng":135.414951,"version":"14.0b/19.0a"},{"town":"新田一丁目","koaza":"","lat":34.861895,"lng":135.411109,"version":"14.0b/19.0a"},{"town":"矢問三丁目","koaza":"","lat":34.859286,"lng":135.408981,"version":"14.0b/19.0a"},{"town":"西多田一丁目","koaza":"","lat":34.855848,"lng":135.403379,"version":"14.0b/19.0a"},{"town":"多田院多田所町","koaza":"","lat":34.860861,"lng":135.40287,"version":"14.0b/19.0a"},{"town":"新田三丁目","koaza":"","lat":34.864706,"lng":135.411041,"version":"14.0b/19.0a"},{"town":"新田二丁目","koaza":"","lat":34.862999,"lng":135.407161,"version":"14.0b/19.0a"},{"town":"多田院一丁目","koaza":"","lat":34.861887,"lng":135.405251,"version":"14.0b/19.0a"},{"town":"緑台三丁目","koaza":"","lat":34.865855,"lng":135.405813,"version":"14.0b/19.0a"},{"town":"多田院二丁目","koaza":"","lat":34.86206,"lng":135.401335,"version":"14.0b/19.0a"},{"town":"多田院西二丁目","koaza":"","lat":34.865355,"lng":135.397869,"version":"14.0b/19.0a"},{"town":"多田院","koaza":"","lat":34.861379,"lng":135.395484,"version":"14.0b/19.0a"},{"town":"けやき坂一丁目","koaza":"","lat":34.86272,"lng":135.391659,"version":"14.0b/19.0a"},{"town":"西多田","koaza":"","lat":34.850636,"lng":135.389556,"version":"14.0b/19.0a"},{"town":"芋生","koaza":"","lat":34.856679,"lng":135.38634,"version":"14.0b/19.0a"},{"town":"けやき坂二丁目","koaza":"","lat":34.859267,"lng":135.380352,"version":"14.0b/19.0a"},{"town":"けやき坂三丁目","koaza":"","lat":34.860112,"lng":135.375303,"version":"14.0b/19.0a"},{"town":"けやき坂五丁目","koaza":"","lat":34.863502,"lng":135.384589,"version":"14.0b/19.0a"},{"town":"けやき坂四丁目","koaza":"","lat":34.864649,"lng":135.378468,"version":"14.0b/19.0a"},{"town":"東多田","koaza":"","lat":34.86497,"lng":135.426805,"version":"14.0b/19.0a"},{"town":"平野一丁目","koaza":"","lat":34.865523,"lng":135.418245,"version":"14.0b/19.0a"},{"town":"平野二丁目","koaza":"","lat":34.866486,"lng":135.413465,"version":"14.0b/19.0a"},{"town":"平野三丁目","koaza":"","lat":34.870248,"lng":135.415417,"version":"14.0b/19.0a"},{"town":"長尾町","koaza":"","lat":34.880717,"lng":135.421967,"version":"14.0b/19.0a"},{"town":"東畦野山手一丁目","koaza":"","lat":34.879876,"lng":135.417263,"version":"14.0b/19.0a"},{"town":"平野","koaza":"","lat":34.875256,"lng":135.416737,"version":"14.0b/19.0a"},{"town":"東畦野山手二丁目","koaza":"","lat":34.876491,"lng":135.407846,"version":"14.0b/19.0a"},{"town":"緑台一丁目","koaza":"","lat":34.868706,"lng":135.411359,"version":"14.0b/19.0a"},{"town":"緑台二丁目","koaza":"","lat":34.869343,"lng":135.40961,"version":"14.0b/19.0a"},{"town":"向陽台二丁目","koaza":"","lat":34.872915,"lng":135.407209,"version":"14.0b/19.0a"},{"town":"緑台四丁目","koaza":"","lat":34.869076,"lng":135.406194,"version":"14.0b/19.0a"},{"town":"緑台七丁目","koaza":"","lat":34.866797,"lng":135.398981,"version":"14.0b/19.0a"},{"town":"緑台五丁目","koaza":"","lat":34.869014,"lng":135.402214,"version":"14.0b/19.0a"},{"town":"緑台六丁目","koaza":"","lat":34.86988,"lng":135.400049,"version":"14.0b/19.0a"},{"town":"向陽台一丁目","koaza":"","lat":34.874304,"lng":135.411067,"version":"14.0b/19.0a"},{"town":"東畦野一丁目","koaza":"","lat":34.882906,"lng":135.409338,"version":"14.0b/19.0a"},{"town":"水明台二丁目","koaza":"","lat":34.876978,"lng":135.39965,"version":"14.0b/19.0a"},{"town":"向陽台三丁目","koaza":"","lat":34.876405,"lng":135.404495,"version":"14.0b/19.0a"},{"town":"水明台一丁目","koaza":"","lat":34.873497,"lng":135.3991,"version":"14.0b/19.0a"},{"town":"清和台西五丁目","koaza":"","lat":34.868697,"lng":135.388885,"version":"14.0b/19.0a"},{"town":"清和台東五丁目","koaza":"","lat":34.869391,"lng":135.39178,"version":"14.0b/19.0a"},{"town":"清和台東四丁目","koaza":"","lat":34.872117,"lng":135.391525,"version":"14.0b/19.0a"},{"town":"清和台東三丁目","koaza":"","lat":34.874177,"lng":135.390006,"version":"14.0b/19.0a"},{"town":"虫生","koaza":"","lat":34.877204,"lng":135.392647,"version":"14.0b/19.0a"},{"town":"水明台三丁目","koaza":"","lat":34.87774,"lng":135.395238,"version":"14.0b/19.0a"},{"town":"清流台","koaza":"","lat":34.883041,"lng":135.400807,"version":"14.0b/19.0a"},{"town":"水明台四丁目","koaza":"","lat":34.880831,"lng":135.398419,"version":"14.0b/19.0a"},{"town":"清和台東二丁目","koaza":"","lat":34.876726,"lng":135.388591,"version":"14.0b/19.0a"},{"town":"清和台西四丁目","koaza":"","lat":34.86946,"lng":135.384756,"version":"14.0b/19.0a"},{"town":"清和台西三丁目","koaza":"","lat":34.870938,"lng":135.384263,"version":"14.0b/19.0a"},{"town":"清和台西二丁目","koaza":"","lat":34.873296,"lng":135.385021,"version":"14.0b/19.0a"},{"town":"清和台東一丁目","koaza":"","lat":34.879913,"lng":135.387044,"version":"14.0b/19.0a"},{"town":"清和台西一丁目","koaza":"","lat":34.878586,"lng":135.384417,"version":"14.0b/19.0a"},{"town":"東畦野","koaza":"","lat":34.884423,"lng":135.431119,"version":"14.0b/19.0a"},{"town":"大和東二丁目","koaza":"","lat":34.891451,"lng":135.427299,"version":"14.0b/19.0a"},{"town":"大和東五丁目","koaza":"","lat":34.894016,"lng":135.428411,"version":"14.0b/19.0a"},{"town":"大和東一丁目","koaza":"","lat":34.884842,"lng":135.421909,"version":"14.0b/19.0a"},{"town":"大和東三丁目","koaza":"","lat":34.889961,"lng":135.42225,"version":"14.0b/19.0a"},{"town":"大和西四丁目","koaza":"","lat":34.890102,"lng":135.418578,"version":"14.0b/19.0a"},{"town":"大和西一丁目","koaza":"","lat":34.883912,"lng":135.418316,"version":"14.0b/19.0a"},{"town":"大和西二丁目","koaza":"","lat":34.887258,"lng":135.416527,"version":"14.0b/19.0a"},{"town":"大和西三丁目","koaza":"","lat":34.890027,"lng":135.414573,"version":"14.0b/19.0a"},{"town":"見野一丁目","koaza":"","lat":34.891174,"lng":135.412363,"version":"14.0b/19.0a"},{"town":"東畦野二丁目","koaza":"","lat":34.885207,"lng":135.414664,"version":"14.0b/19.0a"},{"town":"大和東四丁目","koaza":"","lat":34.892811,"lng":135.422324,"version":"14.0b/19.0a"},{"town":"大和西五丁目","koaza":"","lat":34.892526,"lng":135.417452,"version":"14.0b/19.0a"},{"town":"東畦野三丁目","koaza":"","lat":34.885694,"lng":135.411173,"version":"14.0b/19.0a"},{"town":"東畦野四丁目","koaza":"","lat":34.885196,"lng":135.407629,"version":"14.0b/19.0a"},{"town":"東畦野五丁目","koaza":"","lat":34.888154,"lng":135.406634,"version":"14.0b/19.0a"},{"town":"西畦野二丁目","koaza":"","lat":34.888603,"lng":135.402624,"version":"14.0b/19.0a"},{"town":"見野三丁目","koaza":"","lat":34.890768,"lng":135.407378,"version":"14.0b/19.0a"},{"town":"見野二丁目","koaza":"","lat":34.890861,"lng":135.409553,"version":"14.0b/19.0a"},{"town":"笹部一丁目","koaza":"","lat":34.894228,"lng":135.409411,"version":"14.0b/19.0a"},{"town":"東畦野六丁目","koaza":"","lat":34.891753,"lng":135.405484,"version":"14.0b/19.0a"},{"town":"山原一丁目","koaza":"","lat":34.894183,"lng":135.40463,"version":"14.0b/19.0a"},{"town":"山下町","koaza":"","lat":34.89736,"lng":135.407547,"version":"14.0b/19.0a"},{"town":"緑が丘一丁目","koaza":"","lat":34.897373,"lng":135.405418,"version":"14.0b/19.0a"},{"town":"西畦野","koaza":"","lat":34.887951,"lng":135.395544,"version":"14.0b/19.0a"},{"town":"山原","koaza":"","lat":34.897938,"lng":135.394145,"version":"14.0b/19.0a"},{"town":"石道","koaza":"","lat":34.887273,"lng":135.385604,"version":"14.0b/19.0a"},{"town":"笹部","koaza":"","lat":34.899865,"lng":135.420964,"version":"14.0b/19.0a"},{"town":"山下","koaza":"","lat":34.901321,"lng":135.412044,"version":"14.0b/19.0a"},{"town":"丸山台二丁目","koaza":"","lat":34.909785,"lng":135.406737,"version":"14.0b/19.0a"},{"town":"丸山台三丁目","koaza":"","lat":34.914981,"lng":135.407524,"version":"14.0b/19.0a"},{"town":"美山台三丁目","koaza":"","lat":34.911274,"lng":135.402113,"version":"14.0b/19.0a"},{"town":"丸山台一丁目","koaza":"","lat":34.905187,"lng":135.398666,"version":"14.0b/19.0a"},{"town":"美山台一丁目","koaza":"","lat":34.907987,"lng":135.396625,"version":"14.0b/19.0a"},{"town":"美山台二丁目","koaza":"","lat":34.90928,"lng":135.398745,"version":"14.0b/19.0a"},{"town":"多田院","koaza":"敦盛","lat":34.860056,"lng":135.393952,"version":"14.0b/19.0a"},{"town":"西畦野","koaza":"金ヶ谷","lat":34.892146,"lng":135.395651,"version":"14.0b/19.0a"},{"town":"東畦野","koaza":"中山谷西尾","lat":34.879111,"lng":135.411069,"version":"14.0b/19.0a"},{"town":"国崎","koaza":"欅ヶ谷","lat":34.925487,"lng":135.410874,"version":"14.0b/19.0a"},{"town":"東畦野","koaza":"長尾","lat":34.882983,"lng":135.431624,"version":"14.0b/19.0a"},{"town":"国崎","koaza":"笹ヶ谷","lat":34.934369,"lng":135.427192,"version":"14.0b/19.0a"},{"town":"国崎","koaza":"椿","lat":34.92418,"lng":135.431153,"version":"14.0b/19.0a"},{"town":"黒川","koaza":"谷垣内","lat":34.929196,"lng":135.438909,"version":"14.0b/19.0a"},{"town":"黒川","koaza":"針田","lat":34.924016,"lng":135.458138,"version":"14.0b/19.0a"}]