[{"town":"大久保町茜三丁目","koaza":"","lat":34.694274,"lng":134.935177,"version":"13.0b/18.0a"},{"town":"大久保町茜二丁目","koaza":"","lat":34.693433,"lng":134.937658,"version":"13.0b/18.0a"},{"town":"大久保町茜一丁目","koaza":"","lat":34.69595,"lng":134.938114,"version":"13.0b/18.0a"},{"town":"朝霧南町四丁目","koaza":"","lat":34.648091,"lng":135.013831,"version":"13.0b/18.0a"},{"town":"朝霧南町三丁目","koaza":"","lat":34.64681,"lng":135.015179,"version":"13.0b/18.0a"},{"town":"朝霧南町二丁目","koaza":"","lat":34.646346,"lng":135.017382,"version":"13.0b/18.0a"},{"town":"朝霧南町一丁目","koaza":"","lat":34.645244,"lng":135.018776,"version":"13.0b/18.0a"},{"town":"朝霧東町三丁目","koaza":"","lat":34.649091,"lng":135.017258,"version":"13.0b/18.0a"},{"town":"朝霧東町二丁目","koaza":"","lat":34.65104,"lng":135.016364,"version":"13.0b/18.0a"},{"town":"朝霧東町一丁目","koaza":"","lat":34.652974,"lng":135.018305,"version":"13.0b/18.0a"},{"town":"大久保町駅前二丁目","koaza":"","lat":34.685347,"lng":134.940547,"version":"13.0b/18.0a"},{"town":"大久保町駅前一丁目","koaza":"","lat":34.682526,"lng":134.939623,"version":"13.0b/18.0a"},{"town":"中崎一丁目","koaza":"","lat":34.643192,"lng":134.998665,"version":"13.0b/18.0a"},{"town":"相生町二丁目","koaza":"","lat":34.645292,"lng":134.996777,"version":"13.0b/18.0a"},{"town":"東仲ノ町","koaza":"","lat":34.648098,"lng":134.996364,"version":"13.0b/18.0a"},{"town":"桜町","koaza":"","lat":34.646747,"lng":134.996152,"version":"13.0b/18.0a"},{"town":"上ノ丸一丁目","koaza":"","lat":34.652309,"lng":134.998456,"version":"13.0b/18.0a"},{"town":"上ノ丸三丁目","koaza":"","lat":34.656184,"lng":134.997312,"version":"13.0b/18.0a"},{"town":"山下町","koaza":"","lat":34.649889,"lng":134.99671,"version":"13.0b/18.0a"},{"town":"上ノ丸二丁目","koaza":"","lat":34.653126,"lng":134.996239,"version":"13.0b/18.0a"},{"town":"明石公園","koaza":"","lat":34.654214,"lng":134.991812,"version":"13.0b/18.0a"},{"town":"大久保町八木","koaza":"","lat":34.67323,"lng":134.931348,"version":"13.0b/18.0a"},{"town":"大久保町谷八木","koaza":"","lat":34.669062,"lng":134.940737,"version":"13.0b/18.0a"},{"town":"藤江","koaza":"","lat":34.664623,"lng":134.951127,"version":"13.0b/18.0a"},{"town":"西明石西町二丁目","koaza":"","lat":34.668864,"lng":134.955281,"version":"13.0b/18.0a"},{"town":"小久保三丁目","koaza":"","lat":34.671735,"lng":134.959082,"version":"13.0b/18.0a"},{"town":"小久保一丁目","koaza":"","lat":34.669235,"lng":134.960229,"version":"13.0b/18.0a"},{"town":"小久保五丁目","koaza":"","lat":34.671874,"lng":134.962193,"version":"13.0b/18.0a"},{"town":"西明石北町三丁目","koaza":"","lat":34.670027,"lng":134.963812,"version":"13.0b/18.0a"},{"town":"西明石北町二丁目","koaza":"","lat":34.671033,"lng":134.965046,"version":"13.0b/18.0a"},{"town":"西明石北町一丁目","koaza":"","lat":34.671104,"lng":134.966776,"version":"13.0b/18.0a"},{"town":"明南町一丁目","koaza":"","lat":34.671165,"lng":134.968932,"version":"13.0b/18.0a"},{"town":"二見町南二見","koaza":"","lat":34.69301,"lng":134.873829,"version":"13.0b/18.0a"},{"town":"二見町西二見","koaza":"","lat":34.708868,"lng":134.883044,"version":"13.0b/18.0a"},{"town":"大蔵海岸通一丁目","koaza":"","lat":34.642682,"lng":135.01253,"version":"13.0b/18.0a"},{"town":"大蔵海岸通二丁目","koaza":"","lat":34.643236,"lng":135.009162,"version":"13.0b/18.0a"},{"town":"松が丘四丁目","koaza":"","lat":34.650201,"lng":135.022828,"version":"13.0b/18.0a"},{"town":"朝霧町二丁目","koaza":"","lat":34.649133,"lng":135.011762,"version":"13.0b/18.0a"},{"town":"大蔵八幡町","koaza":"","lat":34.64514,"lng":135.010591,"version":"13.0b/18.0a"},{"town":"朝霧町一丁目","koaza":"","lat":34.647229,"lng":135.010709,"version":"13.0b/18.0a"},{"town":"大蔵町","koaza":"","lat":34.645607,"lng":135.006758,"version":"13.0b/18.0a"},{"town":"大蔵中町","koaza":"","lat":34.645548,"lng":135.004909,"version":"13.0b/18.0a"},{"town":"大蔵本町","koaza":"","lat":34.645591,"lng":135.003336,"version":"13.0b/18.0a"},{"town":"東人丸町","koaza":"","lat":34.649067,"lng":135.004511,"version":"13.0b/18.0a"},{"town":"大蔵天神町","koaza":"","lat":34.64569,"lng":135.002011,"version":"13.0b/18.0a"},{"town":"相生町一丁目","koaza":"","lat":34.644597,"lng":134.999313,"version":"13.0b/18.0a"},{"town":"天文町二丁目","koaza":"","lat":34.646178,"lng":135.000109,"version":"13.0b/18.0a"},{"town":"天文町一丁目","koaza":"","lat":34.647541,"lng":135.000345,"version":"13.0b/18.0a"},{"town":"人丸町","koaza":"","lat":34.649853,"lng":135.000714,"version":"13.0b/18.0a"},{"town":"松が丘二丁目","koaza":"","lat":34.654445,"lng":135.026856,"version":"13.0b/18.0a"},{"town":"松が丘一丁目","koaza":"","lat":34.65708,"lng":135.029025,"version":"13.0b/18.0a"},{"town":"松が丘北町","koaza":"","lat":34.659787,"lng":135.028627,"version":"13.0b/18.0a"},{"town":"東山町","koaza":"","lat":34.659231,"lng":135.024695,"version":"13.0b/18.0a"},{"town":"松が丘三丁目","koaza":"","lat":34.655365,"lng":135.024206,"version":"13.0b/18.0a"},{"town":"松が丘五丁目","koaza":"","lat":34.65062,"lng":135.020341,"version":"13.0b/18.0a"},{"town":"大蔵谷奥","koaza":"","lat":34.656718,"lng":135.023816,"version":"13.0b/18.0a"},{"town":"朝霧北町","koaza":"","lat":34.656967,"lng":135.021777,"version":"13.0b/18.0a"},{"town":"朝霧町三丁目","koaza":"","lat":34.652675,"lng":135.014729,"version":"13.0b/18.0a"},{"town":"朝霧台","koaza":"","lat":34.656283,"lng":135.018135,"version":"13.0b/18.0a"},{"town":"朝霧山手町","koaza":"","lat":34.656356,"lng":135.015283,"version":"13.0b/18.0a"},{"town":"東朝霧丘","koaza":"","lat":34.654482,"lng":135.011997,"version":"13.0b/18.0a"},{"town":"北朝霧丘一丁目","koaza":"","lat":34.659093,"lng":135.013497,"version":"13.0b/18.0a"},{"town":"北朝霧丘二丁目","koaza":"","lat":34.658093,"lng":135.011484,"version":"13.0b/18.0a"},{"town":"中朝霧丘","koaza":"","lat":34.654,"lng":135.009487,"version":"13.0b/18.0a"},{"town":"西朝霧丘","koaza":"","lat":34.656784,"lng":135.009684,"version":"13.0b/18.0a"},{"town":"東野町","koaza":"","lat":34.651311,"lng":135.008716,"version":"13.0b/18.0a"},{"town":"太寺一丁目","koaza":"","lat":34.651626,"lng":135.003998,"version":"13.0b/18.0a"},{"town":"太寺大野町","koaza":"","lat":34.653552,"lng":135.005819,"version":"13.0b/18.0a"},{"town":"荷山町","koaza":"","lat":34.658235,"lng":135.008132,"version":"13.0b/18.0a"},{"town":"太寺二丁目","koaza":"","lat":34.654905,"lng":135.003214,"version":"13.0b/18.0a"},{"town":"太寺三丁目","koaza":"","lat":34.652062,"lng":135.000671,"version":"13.0b/18.0a"},{"town":"太寺天王町","koaza":"","lat":34.657155,"lng":135.002675,"version":"13.0b/18.0a"},{"town":"太寺四丁目","koaza":"","lat":34.655469,"lng":135.000731,"version":"13.0b/18.0a"},{"town":"中崎二丁目","koaza":"","lat":34.643799,"lng":134.991856,"version":"13.0b/18.0a"},{"town":"港町","koaza":"","lat":34.642384,"lng":134.987809,"version":"13.0b/18.0a"},{"town":"鍛治屋町","koaza":"","lat":34.64562,"lng":134.994181,"version":"13.0b/18.0a"},{"town":"本町一丁目","koaza":"","lat":34.646359,"lng":134.991909,"version":"13.0b/18.0a"},{"town":"本町二丁目","koaza":"","lat":34.646541,"lng":134.989269,"version":"13.0b/18.0a"},{"town":"大明石町一丁目","koaza":"","lat":34.648849,"lng":134.991172,"version":"13.0b/18.0a"},{"town":"材木町","koaza":"","lat":34.644791,"lng":134.987546,"version":"13.0b/18.0a"},{"town":"岬町","koaza":"","lat":34.642433,"lng":134.983453,"version":"13.0b/18.0a"},{"town":"日富美町","koaza":"","lat":34.644967,"lng":134.984339,"version":"13.0b/18.0a"},{"town":"樽屋町","koaza":"","lat":34.647409,"lng":134.985397,"version":"13.0b/18.0a"},{"town":"大明石町二丁目","koaza":"","lat":34.649389,"lng":134.98687,"version":"13.0b/18.0a"},{"town":"西新町三丁目","koaza":"","lat":34.648769,"lng":134.981878,"version":"13.0b/18.0a"},{"town":"大観町","koaza":"","lat":34.643934,"lng":134.980082,"version":"13.0b/18.0a"},{"town":"南王子町","koaza":"","lat":34.646563,"lng":134.980154,"version":"13.0b/18.0a"},{"town":"田町二丁目","koaza":"","lat":34.646718,"lng":134.977563,"version":"13.0b/18.0a"},{"town":"船上町","koaza":"","lat":34.645306,"lng":134.97514,"version":"13.0b/18.0a"},{"town":"田町一丁目","koaza":"","lat":34.648313,"lng":134.978248,"version":"13.0b/18.0a"},{"town":"西新町二丁目","koaza":"","lat":34.651152,"lng":134.981753,"version":"13.0b/18.0a"},{"town":"硯町二丁目","koaza":"","lat":34.650841,"lng":134.978312,"version":"13.0b/18.0a"},{"town":"林一丁目","koaza":"","lat":34.645439,"lng":134.972733,"version":"13.0b/18.0a"},{"town":"林二丁目","koaza":"","lat":34.646357,"lng":134.970984,"version":"13.0b/18.0a"},{"town":"新明町","koaza":"","lat":34.648671,"lng":134.974159,"version":"13.0b/18.0a"},{"town":"林崎町一丁目","koaza":"","lat":34.649322,"lng":134.971249,"version":"13.0b/18.0a"},{"town":"立石二丁目","koaza":"","lat":34.650987,"lng":134.971605,"version":"13.0b/18.0a"},{"town":"立石一丁目","koaza":"","lat":34.653015,"lng":134.973439,"version":"13.0b/18.0a"},{"town":"林崎町二丁目","koaza":"","lat":34.649901,"lng":134.968061,"version":"13.0b/18.0a"},{"town":"南貴崎町","koaza":"","lat":34.651707,"lng":134.965345,"version":"13.0b/18.0a"},{"town":"林三丁目","koaza":"","lat":34.647717,"lng":134.966873,"version":"13.0b/18.0a"},{"town":"林崎町三丁目","koaza":"","lat":34.650573,"lng":134.964527,"version":"13.0b/18.0a"},{"town":"鷹匠町","koaza":"","lat":34.65403,"lng":134.988016,"version":"13.0b/18.0a"},{"town":"西新町一丁目","koaza":"","lat":34.65304,"lng":134.983738,"version":"13.0b/18.0a"},{"town":"茶園場町","koaza":"","lat":34.65421,"lng":134.986243,"version":"13.0b/18.0a"},{"town":"王子一丁目","koaza":"","lat":34.655768,"lng":134.981923,"version":"13.0b/18.0a"},{"town":"王子二丁目","koaza":"","lat":34.653616,"lng":134.98083,"version":"13.0b/18.0a"},{"town":"大道町一丁目","koaza":"","lat":34.656866,"lng":134.978425,"version":"13.0b/18.0a"},{"town":"硯町一丁目","koaza":"","lat":34.65361,"lng":134.977447,"version":"13.0b/18.0a"},{"town":"大道町二丁目","koaza":"","lat":34.655038,"lng":134.978485,"version":"13.0b/18.0a"},{"town":"硯町三丁目","koaza":"","lat":34.651935,"lng":134.975606,"version":"13.0b/18.0a"},{"town":"北王子町","koaza":"","lat":34.658065,"lng":134.983047,"version":"13.0b/18.0a"},{"town":"宮の上","koaza":"","lat":34.653894,"lng":134.972335,"version":"13.0b/18.0a"},{"town":"和坂稲荷町","koaza":"","lat":34.655948,"lng":134.974232,"version":"13.0b/18.0a"},{"town":"貴崎二丁目","koaza":"","lat":34.652184,"lng":134.967157,"version":"13.0b/18.0a"},{"town":"貴崎一丁目","koaza":"","lat":34.653263,"lng":134.968566,"version":"13.0b/18.0a"},{"town":"貴崎四丁目","koaza":"","lat":34.65543,"lng":134.965131,"version":"13.0b/18.0a"},{"town":"貴崎三丁目","koaza":"","lat":34.654153,"lng":134.96403,"version":"13.0b/18.0a"},{"town":"和坂一丁目","koaza":"","lat":34.659547,"lng":134.974842,"version":"13.0b/18.0a"},{"town":"西明石町一丁目","koaza":"","lat":34.663385,"lng":134.974263,"version":"13.0b/18.0a"},{"town":"和坂二丁目","koaza":"","lat":34.660552,"lng":134.972144,"version":"13.0b/18.0a"},{"town":"西明石町二丁目","koaza":"","lat":34.66339,"lng":134.972059,"version":"13.0b/18.0a"},{"town":"西明石町三丁目","koaza":"","lat":34.66348,"lng":134.97025,"version":"13.0b/18.0a"},{"town":"旭が丘","koaza":"","lat":34.667943,"lng":134.971109,"version":"13.0b/18.0a"},{"town":"西明石町四丁目","koaza":"","lat":34.663702,"lng":134.96875,"version":"13.0b/18.0a"},{"town":"和坂三丁目","koaza":"","lat":34.661307,"lng":134.969405,"version":"13.0b/18.0a"},{"town":"野々上一丁目","koaza":"","lat":34.66591,"lng":134.967932,"version":"13.0b/18.0a"},{"town":"西明石町五丁目","koaza":"","lat":34.663837,"lng":134.967033,"version":"13.0b/18.0a"},{"town":"花園町","koaza":"","lat":34.66396,"lng":134.964502,"version":"13.0b/18.0a"},{"town":"松の内一丁目","koaza":"","lat":34.665324,"lng":134.965774,"version":"13.0b/18.0a"},{"town":"野々上二丁目","koaza":"","lat":34.668947,"lng":134.966932,"version":"13.0b/18.0a"},{"town":"和坂","koaza":"","lat":34.66199,"lng":134.96627,"version":"13.0b/18.0a"},{"town":"野々上三丁目","koaza":"","lat":34.667408,"lng":134.966415,"version":"13.0b/18.0a"},{"town":"松の内二丁目","koaza":"","lat":34.667019,"lng":134.96364,"version":"13.0b/18.0a"},{"town":"松江","koaza":"","lat":34.653617,"lng":134.959142,"version":"13.0b/18.0a"},{"town":"川崎町","koaza":"","lat":34.658063,"lng":134.966927,"version":"13.0b/18.0a"},{"town":"西明石南町一丁目","koaza":"","lat":34.663212,"lng":134.961921,"version":"13.0b/18.0a"},{"town":"貴崎五丁目","koaza":"","lat":34.657685,"lng":134.9597,"version":"13.0b/18.0a"},{"town":"別所町","koaza":"","lat":34.661517,"lng":134.957089,"version":"13.0b/18.0a"},{"town":"西明石南町三丁目","koaza":"","lat":34.663737,"lng":134.958095,"version":"13.0b/18.0a"},{"town":"西明石南町二丁目","koaza":"","lat":34.665084,"lng":134.959316,"version":"13.0b/18.0a"},{"town":"小久保","koaza":"","lat":34.668691,"lng":134.9579,"version":"13.0b/18.0a"},{"town":"小久保二丁目","koaza":"","lat":34.667326,"lng":134.959968,"version":"13.0b/18.0a"},{"town":"西明石西町一丁目","koaza":"","lat":34.666079,"lng":134.956856,"version":"13.0b/18.0a"},{"town":"東藤江二丁目","koaza":"","lat":34.660331,"lng":134.954132,"version":"13.0b/18.0a"},{"town":"東藤江一丁目","koaza":"","lat":34.662802,"lng":134.95532,"version":"13.0b/18.0a"},{"town":"藤が丘二丁目","koaza":"","lat":34.665273,"lng":134.946576,"version":"13.0b/18.0a"},{"town":"藤が丘一丁目","koaza":"","lat":34.667854,"lng":134.947278,"version":"13.0b/18.0a"},{"town":"小久保四丁目","koaza":"","lat":34.673082,"lng":134.9608,"version":"13.0b/18.0a"},{"town":"二見町西二見駅前三丁目","koaza":"","lat":34.705221,"lng":134.874432,"version":"13.0b/18.0a"},{"town":"二見町西二見駅前二丁目","koaza":"","lat":34.703791,"lng":134.87697,"version":"13.0b/18.0a"},{"town":"二見町西二見駅前一丁目","koaza":"","lat":34.705286,"lng":134.878272,"version":"13.0b/18.0a"},{"town":"二見町西二見駅前四丁目","koaza":"","lat":34.70687,"lng":134.875849,"version":"13.0b/18.0a"},{"town":"大久保町山手台四丁目","koaza":"","lat":34.701819,"lng":134.93655,"version":"13.0b/18.0a"},{"town":"大久保町福田二丁目","koaza":"","lat":34.682972,"lng":134.934635,"version":"13.0b/18.0a"},{"town":"大久保町福田三丁目","koaza":"","lat":34.682138,"lng":134.933833,"version":"13.0b/18.0a"},{"town":"大久保町福田一丁目","koaza":"","lat":34.684349,"lng":134.933962,"version":"13.0b/18.0a"},{"town":"大久保町わかば","koaza":"","lat":34.674614,"lng":134.940804,"version":"13.0b/18.0a"},{"town":"魚住町住吉四丁目","koaza":"","lat":34.696256,"lng":134.896398,"version":"13.0b/18.0a"},{"town":"魚住町住吉三丁目","koaza":"","lat":34.692955,"lng":134.898709,"version":"13.0b/18.0a"},{"town":"大久保町ゆりのき通三丁目","koaza":"","lat":34.678043,"lng":134.935735,"version":"13.0b/18.0a"},{"town":"大久保町ゆりのき通一丁目","koaza":"","lat":34.681105,"lng":134.938415,"version":"13.0b/18.0a"},{"town":"明南町二丁目","koaza":"","lat":34.674041,"lng":134.970238,"version":"13.0b/18.0a"},{"town":"小久保六丁目","koaza":"","lat":34.673841,"lng":134.963582,"version":"13.0b/18.0a"},{"town":"沢野一丁目","koaza":"","lat":34.677877,"lng":134.965195,"version":"13.0b/18.0a"},{"town":"沢野二丁目","koaza":"","lat":34.679843,"lng":134.963711,"version":"13.0b/18.0a"},{"town":"明南町三丁目","koaza":"","lat":34.677582,"lng":134.968691,"version":"13.0b/18.0a"},{"town":"大久保町森田","koaza":"","lat":34.675006,"lng":134.955652,"version":"13.0b/18.0a"},{"town":"大久保町大久保町","koaza":"","lat":34.678082,"lng":134.945055,"version":"13.0b/18.0a"},{"town":"鳥羽","koaza":"","lat":34.679232,"lng":134.960098,"version":"13.0b/18.0a"},{"town":"大久保町松陰新田","koaza":"","lat":34.690716,"lng":134.961005,"version":"13.0b/18.0a"},{"town":"大久保町高丘四丁目","koaza":"","lat":34.696654,"lng":134.945977,"version":"13.0b/18.0a"},{"town":"大久保町山手台一丁目","koaza":"","lat":34.698553,"lng":134.93674,"version":"13.0b/18.0a"},{"town":"大久保町ゆりのき通二丁目","koaza":"","lat":34.68024,"lng":134.93583,"version":"13.0b/18.0a"},{"town":"大久保町福田","koaza":"","lat":34.684698,"lng":134.936332,"version":"13.0b/18.0a"},{"town":"大久保町江井島","koaza":"","lat":34.679749,"lng":134.924236,"version":"13.0b/18.0a"},{"town":"大久保町緑が丘","koaza":"","lat":34.696695,"lng":134.932252,"version":"13.0b/18.0a"},{"town":"大久保町山手台三丁目","koaza":"","lat":34.701043,"lng":134.934536,"version":"13.0b/18.0a"},{"town":"大久保町山手台二丁目","koaza":"","lat":34.698695,"lng":134.932853,"version":"13.0b/18.0a"},{"town":"大久保町西脇","koaza":"","lat":34.692637,"lng":134.932151,"version":"13.0b/18.0a"},{"town":"魚住町錦が丘二丁目","koaza":"","lat":34.693688,"lng":134.911978,"version":"13.0b/18.0a"},{"town":"魚住町錦が丘一丁目","koaza":"","lat":34.697032,"lng":134.912412,"version":"13.0b/18.0a"},{"town":"大久保町西島","koaza":"","lat":34.683133,"lng":134.910407,"version":"13.0b/18.0a"},{"town":"魚住町錦が丘三丁目","koaza":"","lat":34.694912,"lng":134.909124,"version":"13.0b/18.0a"},{"town":"魚住町鴨池","koaza":"","lat":34.698286,"lng":134.908334,"version":"13.0b/18.0a"},{"town":"魚住町錦が丘四丁目","koaza":"","lat":34.698208,"lng":134.905255,"version":"13.0b/18.0a"},{"town":"魚住町住吉一丁目","koaza":"","lat":34.691681,"lng":134.904673,"version":"13.0b/18.0a"},{"town":"魚住町住吉二丁目","koaza":"","lat":34.690431,"lng":134.902549,"version":"13.0b/18.0a"},{"town":"魚住町中尾","koaza":"","lat":34.689166,"lng":134.909489,"version":"13.0b/18.0a"},{"town":"大久保町高丘二丁目","koaza":"","lat":34.699631,"lng":134.952275,"version":"13.0b/18.0a"},{"town":"大久保町高丘三丁目","koaza":"","lat":34.699982,"lng":134.94925,"version":"13.0b/18.0a"},{"town":"大久保町高丘一丁目","koaza":"","lat":34.704715,"lng":134.950498,"version":"13.0b/18.0a"},{"town":"大久保町高丘五丁目","koaza":"","lat":34.700425,"lng":134.94637,"version":"13.0b/18.0a"},{"town":"大久保町高丘七丁目","koaza":"","lat":34.703672,"lng":134.940969,"version":"13.0b/18.0a"},{"town":"大久保町高丘六丁目","koaza":"","lat":34.706078,"lng":134.942335,"version":"13.0b/18.0a"},{"town":"大久保町大窪","koaza":"","lat":34.696695,"lng":134.941957,"version":"13.0b/18.0a"},{"town":"魚住町金ケ崎","koaza":"","lat":34.695414,"lng":134.923601,"version":"13.0b/18.0a"},{"town":"魚住町長坂寺","koaza":"","lat":34.697843,"lng":134.916751,"version":"13.0b/18.0a"},{"town":"魚住町西岡","koaza":"","lat":34.699167,"lng":134.899784,"version":"13.0b/18.0a"},{"town":"二見町東二見","koaza":"","lat":34.701289,"lng":134.887663,"version":"13.0b/18.0a"},{"town":"二見町福里","koaza":"","lat":34.713117,"lng":134.894822,"version":"13.0b/18.0a"},{"town":"魚住町清水","koaza":"","lat":34.712146,"lng":134.905459,"version":"13.0b/18.0a"},{"town":"大久保町松陰","koaza":"","lat":34.695561,"lng":134.957193,"version":"13.0b/18.0a"},{"town":"大久保町松陰山手","koaza":"","lat":34.686015,"lng":134.95426,"version":"13.0b/18.0a"},{"town":"西明石東町","koaza":"","lat":34.665065,"lng":134.972464,"version":"13.0b/18.0a"},{"town":"藤江","koaza":"中谷","lat":34.672882,"lng":134.952268,"version":"13.0b/18.0a"},{"town":"大久保町茜三丁目","koaza":"","lat":34.694274,"lng":134.935177,"version":"14.0b/19.0a"},{"town":"大久保町茜二丁目","koaza":"","lat":34.693433,"lng":134.937658,"version":"14.0b/19.0a"},{"town":"大久保町茜一丁目","koaza":"","lat":34.69595,"lng":134.938114,"version":"14.0b/19.0a"},{"town":"朝霧南町四丁目","koaza":"","lat":34.648091,"lng":135.013831,"version":"14.0b/19.0a"},{"town":"朝霧南町三丁目","koaza":"","lat":34.64681,"lng":135.015179,"version":"14.0b/19.0a"},{"town":"朝霧南町二丁目","koaza":"","lat":34.646346,"lng":135.017382,"version":"14.0b/19.0a"},{"town":"朝霧南町一丁目","koaza":"","lat":34.645244,"lng":135.018776,"version":"14.0b/19.0a"},{"town":"朝霧東町三丁目","koaza":"","lat":34.649091,"lng":135.017258,"version":"14.0b/19.0a"},{"town":"朝霧東町二丁目","koaza":"","lat":34.65104,"lng":135.016364,"version":"14.0b/19.0a"},{"town":"朝霧東町一丁目","koaza":"","lat":34.652974,"lng":135.018305,"version":"14.0b/19.0a"},{"town":"大久保町駅前二丁目","koaza":"","lat":34.685347,"lng":134.940547,"version":"14.0b/19.0a"},{"town":"大久保町駅前一丁目","koaza":"","lat":34.682526,"lng":134.939623,"version":"14.0b/19.0a"},{"town":"中崎一丁目","koaza":"","lat":34.643192,"lng":134.998665,"version":"14.0b/19.0a"},{"town":"相生町二丁目","koaza":"","lat":34.645292,"lng":134.996777,"version":"14.0b/19.0a"},{"town":"東仲ノ町","koaza":"","lat":34.648098,"lng":134.996364,"version":"14.0b/19.0a"},{"town":"桜町","koaza":"","lat":34.646747,"lng":134.996152,"version":"14.0b/19.0a"},{"town":"上ノ丸一丁目","koaza":"","lat":34.652309,"lng":134.998456,"version":"14.0b/19.0a"},{"town":"上ノ丸三丁目","koaza":"","lat":34.656184,"lng":134.997312,"version":"14.0b/19.0a"},{"town":"山下町","koaza":"","lat":34.649889,"lng":134.99671,"version":"14.0b/19.0a"},{"town":"上ノ丸二丁目","koaza":"","lat":34.653126,"lng":134.996239,"version":"14.0b/19.0a"},{"town":"明石公園","koaza":"","lat":34.654214,"lng":134.991812,"version":"14.0b/19.0a"},{"town":"大久保町八木","koaza":"","lat":34.67323,"lng":134.931348,"version":"14.0b/19.0a"},{"town":"大久保町谷八木","koaza":"","lat":34.669062,"lng":134.940737,"version":"14.0b/19.0a"},{"town":"藤江","koaza":"","lat":34.664623,"lng":134.951127,"version":"14.0b/19.0a"},{"town":"西明石西町二丁目","koaza":"","lat":34.668864,"lng":134.955281,"version":"14.0b/19.0a"},{"town":"小久保三丁目","koaza":"","lat":34.671735,"lng":134.959082,"version":"14.0b/19.0a"},{"town":"小久保一丁目","koaza":"","lat":34.669235,"lng":134.960229,"version":"14.0b/19.0a"},{"town":"小久保五丁目","koaza":"","lat":34.671874,"lng":134.962193,"version":"14.0b/19.0a"},{"town":"西明石北町三丁目","koaza":"","lat":34.670027,"lng":134.963812,"version":"14.0b/19.0a"},{"town":"西明石北町二丁目","koaza":"","lat":34.671033,"lng":134.965046,"version":"14.0b/19.0a"},{"town":"西明石北町一丁目","koaza":"","lat":34.671104,"lng":134.966776,"version":"14.0b/19.0a"},{"town":"明南町一丁目","koaza":"","lat":34.671165,"lng":134.968932,"version":"14.0b/19.0a"},{"town":"二見町南二見","koaza":"","lat":34.69301,"lng":134.873829,"version":"14.0b/19.0a"},{"town":"二見町西二見","koaza":"","lat":34.708868,"lng":134.883044,"version":"14.0b/19.0a"},{"town":"大蔵海岸通一丁目","koaza":"","lat":34.642682,"lng":135.01253,"version":"14.0b/19.0a"},{"town":"大蔵海岸通二丁目","koaza":"","lat":34.643236,"lng":135.009162,"version":"14.0b/19.0a"},{"town":"松が丘四丁目","koaza":"","lat":34.650201,"lng":135.022828,"version":"14.0b/19.0a"},{"town":"朝霧町二丁目","koaza":"","lat":34.649133,"lng":135.011762,"version":"14.0b/19.0a"},{"town":"大蔵八幡町","koaza":"","lat":34.64514,"lng":135.010591,"version":"14.0b/19.0a"},{"town":"朝霧町一丁目","koaza":"","lat":34.647229,"lng":135.010709,"version":"14.0b/19.0a"},{"town":"大蔵町","koaza":"","lat":34.645607,"lng":135.006758,"version":"14.0b/19.0a"},{"town":"大蔵中町","koaza":"","lat":34.645548,"lng":135.004909,"version":"14.0b/19.0a"},{"town":"大蔵本町","koaza":"","lat":34.645591,"lng":135.003336,"version":"14.0b/19.0a"},{"town":"東人丸町","koaza":"","lat":34.649067,"lng":135.004511,"version":"14.0b/19.0a"},{"town":"大蔵天神町","koaza":"","lat":34.64569,"lng":135.002011,"version":"14.0b/19.0a"},{"town":"相生町一丁目","koaza":"","lat":34.644597,"lng":134.999313,"version":"14.0b/19.0a"},{"town":"天文町二丁目","koaza":"","lat":34.646178,"lng":135.000109,"version":"14.0b/19.0a"},{"town":"天文町一丁目","koaza":"","lat":34.647541,"lng":135.000345,"version":"14.0b/19.0a"},{"town":"人丸町","koaza":"","lat":34.649853,"lng":135.000714,"version":"14.0b/19.0a"},{"town":"松が丘二丁目","koaza":"","lat":34.654445,"lng":135.026856,"version":"14.0b/19.0a"},{"town":"松が丘一丁目","koaza":"","lat":34.65708,"lng":135.029025,"version":"14.0b/19.0a"},{"town":"松が丘北町","koaza":"","lat":34.659787,"lng":135.028627,"version":"14.0b/19.0a"},{"town":"東山町","koaza":"","lat":34.659231,"lng":135.024695,"version":"14.0b/19.0a"},{"town":"松が丘三丁目","koaza":"","lat":34.655365,"lng":135.024206,"version":"14.0b/19.0a"},{"town":"松が丘五丁目","koaza":"","lat":34.65062,"lng":135.020341,"version":"14.0b/19.0a"},{"town":"大蔵谷奥","koaza":"","lat":34.656718,"lng":135.023816,"version":"14.0b/19.0a"},{"town":"朝霧北町","koaza":"","lat":34.656967,"lng":135.021777,"version":"14.0b/19.0a"},{"town":"朝霧町三丁目","koaza":"","lat":34.652675,"lng":135.014729,"version":"14.0b/19.0a"},{"town":"朝霧台","koaza":"","lat":34.656283,"lng":135.018135,"version":"14.0b/19.0a"},{"town":"朝霧山手町","koaza":"","lat":34.656356,"lng":135.015283,"version":"14.0b/19.0a"},{"town":"東朝霧丘","koaza":"","lat":34.654482,"lng":135.011997,"version":"14.0b/19.0a"},{"town":"北朝霧丘一丁目","koaza":"","lat":34.659093,"lng":135.013497,"version":"14.0b/19.0a"},{"town":"北朝霧丘二丁目","koaza":"","lat":34.658093,"lng":135.011484,"version":"14.0b/19.0a"},{"town":"中朝霧丘","koaza":"","lat":34.654,"lng":135.009487,"version":"14.0b/19.0a"},{"town":"西朝霧丘","koaza":"","lat":34.656784,"lng":135.009684,"version":"14.0b/19.0a"},{"town":"東野町","koaza":"","lat":34.651311,"lng":135.008716,"version":"14.0b/19.0a"},{"town":"太寺一丁目","koaza":"","lat":34.651626,"lng":135.003998,"version":"14.0b/19.0a"},{"town":"太寺大野町","koaza":"","lat":34.653552,"lng":135.005819,"version":"14.0b/19.0a"},{"town":"荷山町","koaza":"","lat":34.658235,"lng":135.008132,"version":"14.0b/19.0a"},{"town":"太寺二丁目","koaza":"","lat":34.654905,"lng":135.003214,"version":"14.0b/19.0a"},{"town":"太寺三丁目","koaza":"","lat":34.652062,"lng":135.000671,"version":"14.0b/19.0a"},{"town":"太寺天王町","koaza":"","lat":34.657155,"lng":135.002675,"version":"14.0b/19.0a"},{"town":"太寺四丁目","koaza":"","lat":34.655469,"lng":135.000731,"version":"14.0b/19.0a"},{"town":"中崎二丁目","koaza":"","lat":34.643799,"lng":134.991856,"version":"14.0b/19.0a"},{"town":"港町","koaza":"","lat":34.642384,"lng":134.987809,"version":"14.0b/19.0a"},{"town":"鍛治屋町","koaza":"","lat":34.64562,"lng":134.994181,"version":"14.0b/19.0a"},{"town":"本町一丁目","koaza":"","lat":34.646359,"lng":134.991909,"version":"14.0b/19.0a"},{"town":"本町二丁目","koaza":"","lat":34.646541,"lng":134.989269,"version":"14.0b/19.0a"},{"town":"大明石町一丁目","koaza":"","lat":34.648849,"lng":134.991172,"version":"14.0b/19.0a"},{"town":"材木町","koaza":"","lat":34.644791,"lng":134.987546,"version":"14.0b/19.0a"},{"town":"岬町","koaza":"","lat":34.642433,"lng":134.983453,"version":"14.0b/19.0a"},{"town":"日富美町","koaza":"","lat":34.644967,"lng":134.984339,"version":"14.0b/19.0a"},{"town":"樽屋町","koaza":"","lat":34.647409,"lng":134.985397,"version":"14.0b/19.0a"},{"town":"大明石町二丁目","koaza":"","lat":34.649389,"lng":134.98687,"version":"14.0b/19.0a"},{"town":"西新町三丁目","koaza":"","lat":34.648769,"lng":134.981878,"version":"14.0b/19.0a"},{"town":"大観町","koaza":"","lat":34.643934,"lng":134.980082,"version":"14.0b/19.0a"},{"town":"南王子町","koaza":"","lat":34.646563,"lng":134.980154,"version":"14.0b/19.0a"},{"town":"田町二丁目","koaza":"","lat":34.646718,"lng":134.977563,"version":"14.0b/19.0a"},{"town":"船上町","koaza":"","lat":34.645306,"lng":134.97514,"version":"14.0b/19.0a"},{"town":"田町一丁目","koaza":"","lat":34.648313,"lng":134.978248,"version":"14.0b/19.0a"},{"town":"西新町二丁目","koaza":"","lat":34.651152,"lng":134.981753,"version":"14.0b/19.0a"},{"town":"硯町二丁目","koaza":"","lat":34.650841,"lng":134.978312,"version":"14.0b/19.0a"},{"town":"林一丁目","koaza":"","lat":34.645439,"lng":134.972733,"version":"14.0b/19.0a"},{"town":"林二丁目","koaza":"","lat":34.646357,"lng":134.970984,"version":"14.0b/19.0a"},{"town":"新明町","koaza":"","lat":34.648671,"lng":134.974159,"version":"14.0b/19.0a"},{"town":"林崎町一丁目","koaza":"","lat":34.649322,"lng":134.971249,"version":"14.0b/19.0a"},{"town":"立石二丁目","koaza":"","lat":34.650987,"lng":134.971605,"version":"14.0b/19.0a"},{"town":"立石一丁目","koaza":"","lat":34.653015,"lng":134.973439,"version":"14.0b/19.0a"},{"town":"林崎町二丁目","koaza":"","lat":34.649901,"lng":134.968061,"version":"14.0b/19.0a"},{"town":"南貴崎町","koaza":"","lat":34.651707,"lng":134.965345,"version":"14.0b/19.0a"},{"town":"林三丁目","koaza":"","lat":34.647717,"lng":134.966873,"version":"14.0b/19.0a"},{"town":"林崎町三丁目","koaza":"","lat":34.650573,"lng":134.964527,"version":"14.0b/19.0a"},{"town":"鷹匠町","koaza":"","lat":34.65403,"lng":134.988016,"version":"14.0b/19.0a"},{"town":"西新町一丁目","koaza":"","lat":34.65304,"lng":134.983738,"version":"14.0b/19.0a"},{"town":"茶園場町","koaza":"","lat":34.65421,"lng":134.986243,"version":"14.0b/19.0a"},{"town":"王子一丁目","koaza":"","lat":34.655768,"lng":134.981923,"version":"14.0b/19.0a"},{"town":"王子二丁目","koaza":"","lat":34.653616,"lng":134.98083,"version":"14.0b/19.0a"},{"town":"大道町一丁目","koaza":"","lat":34.656866,"lng":134.978425,"version":"14.0b/19.0a"},{"town":"硯町一丁目","koaza":"","lat":34.65361,"lng":134.977447,"version":"14.0b/19.0a"},{"town":"大道町二丁目","koaza":"","lat":34.655038,"lng":134.978485,"version":"14.0b/19.0a"},{"town":"硯町三丁目","koaza":"","lat":34.651935,"lng":134.975606,"version":"14.0b/19.0a"},{"town":"北王子町","koaza":"","lat":34.658065,"lng":134.983047,"version":"14.0b/19.0a"},{"town":"宮の上","koaza":"","lat":34.653894,"lng":134.972335,"version":"14.0b/19.0a"},{"town":"和坂稲荷町","koaza":"","lat":34.655948,"lng":134.974232,"version":"14.0b/19.0a"},{"town":"貴崎二丁目","koaza":"","lat":34.652184,"lng":134.967157,"version":"14.0b/19.0a"},{"town":"貴崎一丁目","koaza":"","lat":34.653263,"lng":134.968566,"version":"14.0b/19.0a"},{"town":"貴崎四丁目","koaza":"","lat":34.65543,"lng":134.965131,"version":"14.0b/19.0a"},{"town":"貴崎三丁目","koaza":"","lat":34.654153,"lng":134.96403,"version":"14.0b/19.0a"},{"town":"和坂一丁目","koaza":"","lat":34.659547,"lng":134.974842,"version":"14.0b/19.0a"},{"town":"西明石町一丁目","koaza":"","lat":34.663385,"lng":134.974263,"version":"14.0b/19.0a"},{"town":"和坂二丁目","koaza":"","lat":34.660552,"lng":134.972144,"version":"14.0b/19.0a"},{"town":"西明石町二丁目","koaza":"","lat":34.66339,"lng":134.972059,"version":"14.0b/19.0a"},{"town":"西明石町三丁目","koaza":"","lat":34.66348,"lng":134.97025,"version":"14.0b/19.0a"},{"town":"旭が丘","koaza":"","lat":34.667943,"lng":134.971109,"version":"14.0b/19.0a"},{"town":"西明石町四丁目","koaza":"","lat":34.663702,"lng":134.96875,"version":"14.0b/19.0a"},{"town":"和坂三丁目","koaza":"","lat":34.661307,"lng":134.969405,"version":"14.0b/19.0a"},{"town":"野々上一丁目","koaza":"","lat":34.66591,"lng":134.967932,"version":"14.0b/19.0a"},{"town":"西明石町五丁目","koaza":"","lat":34.663837,"lng":134.967033,"version":"14.0b/19.0a"},{"town":"花園町","koaza":"","lat":34.66396,"lng":134.964502,"version":"14.0b/19.0a"},{"town":"松の内一丁目","koaza":"","lat":34.665324,"lng":134.965774,"version":"14.0b/19.0a"},{"town":"野々上二丁目","koaza":"","lat":34.668947,"lng":134.966932,"version":"14.0b/19.0a"},{"town":"和坂","koaza":"","lat":34.66199,"lng":134.96627,"version":"14.0b/19.0a"},{"town":"野々上三丁目","koaza":"","lat":34.667408,"lng":134.966415,"version":"14.0b/19.0a"},{"town":"松の内二丁目","koaza":"","lat":34.667019,"lng":134.96364,"version":"14.0b/19.0a"},{"town":"松江","koaza":"","lat":34.653617,"lng":134.959142,"version":"14.0b/19.0a"},{"town":"川崎町","koaza":"","lat":34.658063,"lng":134.966927,"version":"14.0b/19.0a"},{"town":"西明石南町一丁目","koaza":"","lat":34.663212,"lng":134.961921,"version":"14.0b/19.0a"},{"town":"貴崎五丁目","koaza":"","lat":34.657685,"lng":134.9597,"version":"14.0b/19.0a"},{"town":"別所町","koaza":"","lat":34.661517,"lng":134.957089,"version":"14.0b/19.0a"},{"town":"西明石南町三丁目","koaza":"","lat":34.663737,"lng":134.958095,"version":"14.0b/19.0a"},{"town":"西明石南町二丁目","koaza":"","lat":34.665084,"lng":134.959316,"version":"14.0b/19.0a"},{"town":"小久保","koaza":"","lat":34.668691,"lng":134.9579,"version":"14.0b/19.0a"},{"town":"小久保二丁目","koaza":"","lat":34.667326,"lng":134.959968,"version":"14.0b/19.0a"},{"town":"西明石西町一丁目","koaza":"","lat":34.666079,"lng":134.956856,"version":"14.0b/19.0a"},{"town":"東藤江二丁目","koaza":"","lat":34.660331,"lng":134.954132,"version":"14.0b/19.0a"},{"town":"東藤江一丁目","koaza":"","lat":34.662802,"lng":134.95532,"version":"14.0b/19.0a"},{"town":"藤が丘二丁目","koaza":"","lat":34.665273,"lng":134.946576,"version":"14.0b/19.0a"},{"town":"藤が丘一丁目","koaza":"","lat":34.667854,"lng":134.947278,"version":"14.0b/19.0a"},{"town":"小久保四丁目","koaza":"","lat":34.673082,"lng":134.9608,"version":"14.0b/19.0a"},{"town":"二見町西二見駅前三丁目","koaza":"","lat":34.705221,"lng":134.874432,"version":"14.0b/19.0a"},{"town":"二見町西二見駅前二丁目","koaza":"","lat":34.703791,"lng":134.87697,"version":"14.0b/19.0a"},{"town":"二見町西二見駅前一丁目","koaza":"","lat":34.705286,"lng":134.878272,"version":"14.0b/19.0a"},{"town":"二見町西二見駅前四丁目","koaza":"","lat":34.70687,"lng":134.875849,"version":"14.0b/19.0a"},{"town":"大久保町山手台四丁目","koaza":"","lat":34.701819,"lng":134.93655,"version":"14.0b/19.0a"},{"town":"大久保町福田二丁目","koaza":"","lat":34.682972,"lng":134.934635,"version":"14.0b/19.0a"},{"town":"大久保町福田三丁目","koaza":"","lat":34.682138,"lng":134.933833,"version":"14.0b/19.0a"},{"town":"大久保町福田一丁目","koaza":"","lat":34.684349,"lng":134.933962,"version":"14.0b/19.0a"},{"town":"大久保町わかば","koaza":"","lat":34.674614,"lng":134.940804,"version":"14.0b/19.0a"},{"town":"魚住町住吉四丁目","koaza":"","lat":34.696256,"lng":134.896398,"version":"14.0b/19.0a"},{"town":"魚住町住吉三丁目","koaza":"","lat":34.692955,"lng":134.898709,"version":"14.0b/19.0a"},{"town":"大久保町ゆりのき通三丁目","koaza":"","lat":34.678043,"lng":134.935735,"version":"14.0b/19.0a"},{"town":"大久保町ゆりのき通一丁目","koaza":"","lat":34.681105,"lng":134.938415,"version":"14.0b/19.0a"},{"town":"明南町二丁目","koaza":"","lat":34.674041,"lng":134.970238,"version":"14.0b/19.0a"},{"town":"小久保六丁目","koaza":"","lat":34.673841,"lng":134.963582,"version":"14.0b/19.0a"},{"town":"沢野一丁目","koaza":"","lat":34.677877,"lng":134.965195,"version":"14.0b/19.0a"},{"town":"沢野二丁目","koaza":"","lat":34.679843,"lng":134.963711,"version":"14.0b/19.0a"},{"town":"明南町三丁目","koaza":"","lat":34.677582,"lng":134.968691,"version":"14.0b/19.0a"},{"town":"大久保町森田","koaza":"","lat":34.675006,"lng":134.955652,"version":"14.0b/19.0a"},{"town":"大久保町大久保町","koaza":"","lat":34.678082,"lng":134.945055,"version":"14.0b/19.0a"},{"town":"鳥羽","koaza":"","lat":34.679232,"lng":134.960098,"version":"14.0b/19.0a"},{"town":"大久保町松陰新田","koaza":"","lat":34.690716,"lng":134.961005,"version":"14.0b/19.0a"},{"town":"大久保町高丘四丁目","koaza":"","lat":34.696654,"lng":134.945977,"version":"14.0b/19.0a"},{"town":"大久保町山手台一丁目","koaza":"","lat":34.698553,"lng":134.93674,"version":"14.0b/19.0a"},{"town":"大久保町ゆりのき通二丁目","koaza":"","lat":34.68024,"lng":134.93583,"version":"14.0b/19.0a"},{"town":"大久保町福田","koaza":"","lat":34.684698,"lng":134.936332,"version":"14.0b/19.0a"},{"town":"大久保町江井島","koaza":"","lat":34.679749,"lng":134.924236,"version":"14.0b/19.0a"},{"town":"大久保町緑が丘","koaza":"","lat":34.696695,"lng":134.932252,"version":"14.0b/19.0a"},{"town":"大久保町山手台三丁目","koaza":"","lat":34.701043,"lng":134.934536,"version":"14.0b/19.0a"},{"town":"大久保町山手台二丁目","koaza":"","lat":34.698695,"lng":134.932853,"version":"14.0b/19.0a"},{"town":"大久保町西脇","koaza":"","lat":34.692637,"lng":134.932151,"version":"14.0b/19.0a"},{"town":"魚住町錦が丘二丁目","koaza":"","lat":34.693688,"lng":134.911978,"version":"14.0b/19.0a"},{"town":"魚住町錦が丘一丁目","koaza":"","lat":34.697032,"lng":134.912412,"version":"14.0b/19.0a"},{"town":"大久保町西島","koaza":"","lat":34.683133,"lng":134.910407,"version":"14.0b/19.0a"},{"town":"魚住町錦が丘三丁目","koaza":"","lat":34.694912,"lng":134.909124,"version":"14.0b/19.0a"},{"town":"魚住町鴨池","koaza":"","lat":34.698286,"lng":134.908334,"version":"14.0b/19.0a"},{"town":"魚住町錦が丘四丁目","koaza":"","lat":34.698208,"lng":134.905255,"version":"14.0b/19.0a"},{"town":"魚住町住吉一丁目","koaza":"","lat":34.691681,"lng":134.904673,"version":"14.0b/19.0a"},{"town":"魚住町住吉二丁目","koaza":"","lat":34.690431,"lng":134.902549,"version":"14.0b/19.0a"},{"town":"魚住町中尾","koaza":"","lat":34.689166,"lng":134.909489,"version":"14.0b/19.0a"},{"town":"大久保町高丘二丁目","koaza":"","lat":34.699631,"lng":134.952275,"version":"14.0b/19.0a"},{"town":"大久保町高丘三丁目","koaza":"","lat":34.699982,"lng":134.94925,"version":"14.0b/19.0a"},{"town":"大久保町高丘一丁目","koaza":"","lat":34.704715,"lng":134.950498,"version":"14.0b/19.0a"},{"town":"大久保町高丘五丁目","koaza":"","lat":34.700425,"lng":134.94637,"version":"14.0b/19.0a"},{"town":"大久保町高丘七丁目","koaza":"","lat":34.703672,"lng":134.940969,"version":"14.0b/19.0a"},{"town":"大久保町高丘六丁目","koaza":"","lat":34.706078,"lng":134.942335,"version":"14.0b/19.0a"},{"town":"大久保町大窪","koaza":"","lat":34.696695,"lng":134.941957,"version":"14.0b/19.0a"},{"town":"魚住町金ケ崎","koaza":"","lat":34.695414,"lng":134.923601,"version":"14.0b/19.0a"},{"town":"魚住町長坂寺","koaza":"","lat":34.697843,"lng":134.916751,"version":"14.0b/19.0a"},{"town":"魚住町西岡","koaza":"","lat":34.699167,"lng":134.899784,"version":"14.0b/19.0a"},{"town":"二見町東二見","koaza":"","lat":34.701289,"lng":134.887663,"version":"14.0b/19.0a"},{"town":"二見町福里","koaza":"","lat":34.713117,"lng":134.894822,"version":"14.0b/19.0a"},{"town":"魚住町清水","koaza":"","lat":34.712146,"lng":134.905459,"version":"14.0b/19.0a"},{"town":"大久保町松陰","koaza":"","lat":34.695561,"lng":134.957193,"version":"14.0b/19.0a"},{"town":"大久保町松陰山手","koaza":"","lat":34.686015,"lng":134.95426,"version":"14.0b/19.0a"},{"town":"西明石東町","koaza":"","lat":34.665065,"lng":134.972464,"version":"14.0b/19.0a"},{"town":"藤江","koaza":"中谷","lat":34.672882,"lng":134.952268,"version":"14.0b/19.0a"},{"town":"沢野三丁目","koaza":"","lat":null,"lng":null,"version":""},{"town":"沢野南町一丁目","koaza":"","lat":null,"lng":null,"version":""},{"town":"沢野南町二丁目","koaza":"","lat":null,"lng":null,"version":""},{"town":"沢野南町三丁目","koaza":"","lat":null,"lng":null,"version":""}]