[{"town":"御影三丁目","koaza":"","lat":34.721931,"lng":135.247407,"version":"13.0b/18.0a"},{"town":"渦森台四丁目","koaza":"","lat":34.740452,"lng":135.246708,"version":"13.0b/18.0a"},{"town":"渦森台三丁目","koaza":"","lat":34.738642,"lng":135.247655,"version":"13.0b/18.0a"},{"town":"御影山手二丁目","koaza":"","lat":34.724623,"lng":135.246466,"version":"13.0b/18.0a"},{"town":"御影山手三丁目","koaza":"","lat":34.729075,"lng":135.246738,"version":"13.0b/18.0a"},{"town":"鴨子ケ原三丁目","koaza":"","lat":34.731524,"lng":135.248402,"version":"13.0b/18.0a"},{"town":"御影山手四丁目","koaza":"","lat":34.727354,"lng":135.245856,"version":"13.0b/18.0a"},{"town":"御影塚町二丁目","koaza":"","lat":34.71232,"lng":135.248452,"version":"13.0b/18.0a"},{"town":"御影塚町三丁目","koaza":"","lat":34.709363,"lng":135.245978,"version":"13.0b/18.0a"},{"town":"御影塚町四丁目","koaza":"","lat":34.71163,"lng":135.245085,"version":"13.0b/18.0a"},{"town":"御影塚町一丁目","koaza":"","lat":34.709448,"lng":135.249388,"version":"13.0b/18.0a"},{"town":"本山町森","koaza":"","lat":34.757463,"lng":135.269564,"version":"13.0b/18.0a"},{"town":"魚崎浜町","koaza":"","lat":34.707036,"lng":135.280371,"version":"13.0b/18.0a"},{"town":"深江浜町","koaza":"","lat":34.711386,"lng":135.298052,"version":"13.0b/18.0a"},{"town":"住吉浜町","koaza":"","lat":34.704145,"lng":135.264167,"version":"13.0b/18.0a"},{"town":"御影浜町","koaza":"","lat":34.704035,"lng":135.257509,"version":"13.0b/18.0a"},{"town":"森北町五丁目","koaza":"","lat":34.734225,"lng":135.29104,"version":"13.0b/18.0a"},{"town":"森北町七丁目","koaza":"","lat":34.73812,"lng":135.290246,"version":"13.0b/18.0a"},{"town":"本山町中野","koaza":"","lat":34.739053,"lng":135.283792,"version":"13.0b/18.0a"},{"town":"森北町六丁目","koaza":"","lat":34.73383,"lng":135.287703,"version":"13.0b/18.0a"},{"town":"甲南台","koaza":"","lat":34.734349,"lng":135.285215,"version":"13.0b/18.0a"},{"town":"本山町田中","koaza":"","lat":34.740741,"lng":135.261804,"version":"13.0b/18.0a"},{"town":"住吉台","koaza":"","lat":34.739622,"lng":135.256869,"version":"13.0b/18.0a"},{"town":"住吉山手七丁目","koaza":"","lat":34.734005,"lng":135.253763,"version":"13.0b/18.0a"},{"town":"住吉山手八丁目","koaza":"","lat":34.737217,"lng":135.253063,"version":"13.0b/18.0a"},{"town":"住吉山手九丁目","koaza":"","lat":34.741948,"lng":135.253199,"version":"13.0b/18.0a"},{"town":"渦森台一丁目","koaza":"","lat":34.738867,"lng":135.251322,"version":"13.0b/18.0a"},{"town":"渦森台二丁目","koaza":"","lat":34.737137,"lng":135.249831,"version":"13.0b/18.0a"},{"town":"深江本町一丁目","koaza":"","lat":34.725112,"lng":135.299412,"version":"13.0b/18.0a"},{"town":"深江北町一丁目","koaza":"","lat":34.726842,"lng":135.298543,"version":"13.0b/18.0a"},{"town":"深江本町二丁目","koaza":"","lat":34.723781,"lng":135.296139,"version":"13.0b/18.0a"},{"town":"森北町二丁目","koaza":"","lat":34.730501,"lng":135.28993,"version":"13.0b/18.0a"},{"town":"本庄町一丁目","koaza":"","lat":34.727736,"lng":135.294186,"version":"13.0b/18.0a"},{"town":"本山南町六丁目","koaza":"","lat":34.725392,"lng":135.287094,"version":"13.0b/18.0a"},{"town":"本山中町二丁目","koaza":"","lat":34.727154,"lng":135.284896,"version":"13.0b/18.0a"},{"town":"深江北町二丁目","koaza":"","lat":34.725376,"lng":135.295398,"version":"13.0b/18.0a"},{"town":"森南町一丁目","koaza":"","lat":34.729839,"lng":135.29352,"version":"13.0b/18.0a"},{"town":"深江北町四丁目","koaza":"","lat":34.72355,"lng":135.290513,"version":"13.0b/18.0a"},{"town":"深江本町三丁目","koaza":"","lat":34.722314,"lng":135.2928,"version":"13.0b/18.0a"},{"town":"深江北町三丁目","koaza":"","lat":34.724367,"lng":135.292696,"version":"13.0b/18.0a"},{"town":"本庄町二丁目","koaza":"","lat":34.726772,"lng":135.291554,"version":"13.0b/18.0a"},{"town":"本庄町三丁目","koaza":"","lat":34.726239,"lng":135.289212,"version":"13.0b/18.0a"},{"town":"本山南町一丁目","koaza":"","lat":34.723493,"lng":135.287953,"version":"13.0b/18.0a"},{"town":"本山南町七丁目","koaza":"","lat":34.724673,"lng":135.284693,"version":"13.0b/18.0a"},{"town":"本山中町三丁目","koaza":"","lat":34.726496,"lng":135.282612,"version":"13.0b/18.0a"},{"town":"本山北町二丁目","koaza":"","lat":34.728658,"lng":135.281903,"version":"13.0b/18.0a"},{"town":"本山南町八丁目","koaza":"","lat":34.724081,"lng":135.282182,"version":"13.0b/18.0a"},{"town":"森北町一丁目","koaza":"","lat":34.731477,"lng":135.292728,"version":"13.0b/18.0a"},{"town":"森南町二丁目","koaza":"","lat":34.729244,"lng":135.29056,"version":"13.0b/18.0a"},{"town":"森南町三丁目","koaza":"","lat":34.728351,"lng":135.288807,"version":"13.0b/18.0a"},{"town":"森北町三丁目","koaza":"","lat":34.729816,"lng":135.287599,"version":"13.0b/18.0a"},{"town":"本山北町四丁目","koaza":"","lat":34.731755,"lng":135.284344,"version":"13.0b/18.0a"},{"town":"森北町四丁目","koaza":"","lat":34.731854,"lng":135.289467,"version":"13.0b/18.0a"},{"town":"本山中町一丁目","koaza":"","lat":34.727877,"lng":135.287139,"version":"13.0b/18.0a"},{"town":"本山北町一丁目","koaza":"","lat":34.729301,"lng":135.284898,"version":"13.0b/18.0a"},{"town":"本山北町五丁目","koaza":"","lat":34.731311,"lng":135.280964,"version":"13.0b/18.0a"},{"town":"本山町野寄","koaza":"","lat":34.734688,"lng":135.262066,"version":"13.0b/18.0a"},{"town":"田中町二丁目","koaza":"","lat":34.724416,"lng":135.274647,"version":"13.0b/18.0a"},{"town":"岡本二丁目","koaza":"","lat":34.727193,"lng":135.273373,"version":"13.0b/18.0a"},{"town":"本山町北畑","koaza":"","lat":34.739042,"lng":135.279735,"version":"13.0b/18.0a"},{"town":"岡本七丁目","koaza":"","lat":34.730794,"lng":135.271278,"version":"13.0b/18.0a"},{"town":"田中町一丁目","koaza":"","lat":34.724898,"lng":135.27701,"version":"13.0b/18.0a"},{"town":"本山中町四丁目","koaza":"","lat":34.725736,"lng":135.279826,"version":"13.0b/18.0a"},{"town":"岡本一丁目","koaza":"","lat":34.727581,"lng":135.275726,"version":"13.0b/18.0a"},{"town":"岡本三丁目","koaza":"","lat":34.726222,"lng":135.271262,"version":"13.0b/18.0a"},{"town":"岡本四丁目","koaza":"","lat":34.726625,"lng":135.268526,"version":"13.0b/18.0a"},{"town":"西岡本一丁目","koaza":"","lat":34.723925,"lng":135.268776,"version":"13.0b/18.0a"},{"town":"西岡本三丁目","koaza":"","lat":34.72557,"lng":135.265596,"version":"13.0b/18.0a"},{"town":"本山北町三丁目","koaza":"","lat":34.728188,"lng":135.278782,"version":"13.0b/18.0a"},{"town":"本山北町六丁目","koaza":"","lat":34.731135,"lng":135.277824,"version":"13.0b/18.0a"},{"town":"本山町田辺","koaza":"","lat":34.738086,"lng":135.275352,"version":"13.0b/18.0a"},{"town":"岡本五丁目","koaza":"","lat":34.730646,"lng":135.275198,"version":"13.0b/18.0a"},{"town":"岡本六丁目","koaza":"","lat":34.732738,"lng":135.273726,"version":"13.0b/18.0a"},{"town":"岡本八丁目","koaza":"","lat":34.729608,"lng":135.269099,"version":"13.0b/18.0a"},{"town":"本山町岡本","koaza":"","lat":34.740978,"lng":135.269441,"version":"13.0b/18.0a"},{"town":"岡本九丁目","koaza":"","lat":34.728861,"lng":135.266537,"version":"13.0b/18.0a"},{"town":"西岡本六丁目","koaza":"","lat":34.729709,"lng":135.262218,"version":"13.0b/18.0a"},{"town":"西岡本四丁目","koaza":"","lat":34.727041,"lng":135.264362,"version":"13.0b/18.0a"},{"town":"住吉山手一丁目","koaza":"","lat":34.726386,"lng":135.259897,"version":"13.0b/18.0a"},{"town":"住吉山手五丁目","koaza":"","lat":34.731071,"lng":135.254619,"version":"13.0b/18.0a"},{"town":"鴨子ケ原一丁目","koaza":"","lat":34.728017,"lng":135.250983,"version":"13.0b/18.0a"},{"town":"西岡本五丁目","koaza":"","lat":34.728277,"lng":135.263312,"version":"13.0b/18.0a"},{"town":"住吉本町三丁目","koaza":"","lat":34.723946,"lng":135.260089,"version":"13.0b/18.0a"},{"town":"御影郡家二丁目","koaza":"","lat":34.723397,"lng":135.254885,"version":"13.0b/18.0a"},{"town":"住吉山手二丁目","koaza":"","lat":34.726111,"lng":135.256331,"version":"13.0b/18.0a"},{"town":"御影二丁目","koaza":"","lat":34.72288,"lng":135.250769,"version":"13.0b/18.0a"},{"town":"御影山手一丁目","koaza":"","lat":34.725762,"lng":135.252019,"version":"13.0b/18.0a"},{"town":"住吉山手六丁目","koaza":"","lat":34.733024,"lng":135.256742,"version":"13.0b/18.0a"},{"town":"西岡本七丁目","koaza":"","lat":34.732096,"lng":135.26112,"version":"13.0b/18.0a"},{"town":"住吉山手三丁目","koaza":"","lat":34.72861,"lng":135.259232,"version":"13.0b/18.0a"},{"town":"住吉山手四丁目","koaza":"","lat":34.728315,"lng":135.255263,"version":"13.0b/18.0a"},{"town":"鴨子ケ原二丁目","koaza":"","lat":34.732869,"lng":135.251195,"version":"13.0b/18.0a"},{"town":"深江南町二丁目","koaza":"","lat":34.721889,"lng":135.298828,"version":"13.0b/18.0a"},{"town":"深江南町三丁目","koaza":"","lat":34.721634,"lng":135.296697,"version":"13.0b/18.0a"},{"town":"深江南町四丁目","koaza":"","lat":34.720747,"lng":135.293989,"version":"13.0b/18.0a"},{"town":"深江南町一丁目","koaza":"","lat":34.722097,"lng":135.301182,"version":"13.0b/18.0a"},{"town":"深江南町五丁目","koaza":"","lat":34.719034,"lng":135.290296,"version":"13.0b/18.0a"},{"town":"本山南町二丁目","koaza":"","lat":34.722764,"lng":135.285559,"version":"13.0b/18.0a"},{"town":"北青木二丁目","koaza":"","lat":34.719982,"lng":135.283605,"version":"13.0b/18.0a"},{"town":"本山南町三丁目","koaza":"","lat":34.72193,"lng":135.282732,"version":"13.0b/18.0a"},{"town":"青木二丁目","koaza":"","lat":34.715755,"lng":135.28512,"version":"13.0b/18.0a"},{"town":"深江本町四丁目","koaza":"","lat":34.721261,"lng":135.290163,"version":"13.0b/18.0a"},{"town":"深江北町五丁目","koaza":"","lat":34.72206,"lng":135.288581,"version":"13.0b/18.0a"},{"town":"青木四丁目","koaza":"","lat":34.719883,"lng":135.287497,"version":"13.0b/18.0a"},{"town":"北青木一丁目","koaza":"","lat":34.721206,"lng":135.286248,"version":"13.0b/18.0a"},{"town":"青木一丁目","koaza":"","lat":34.715814,"lng":135.289415,"version":"13.0b/18.0a"},{"town":"青木五丁目","koaza":"","lat":34.71813,"lng":135.284292,"version":"13.0b/18.0a"},{"town":"青木三丁目","koaza":"","lat":34.714681,"lng":135.281745,"version":"13.0b/18.0a"},{"town":"魚崎南町一丁目","koaza":"","lat":34.712639,"lng":135.279981,"version":"13.0b/18.0a"},{"town":"北青木三丁目","koaza":"","lat":34.718416,"lng":135.281237,"version":"13.0b/18.0a"},{"town":"本山南町四丁目","koaza":"","lat":34.721099,"lng":135.279955,"version":"13.0b/18.0a"},{"town":"青木六丁目","koaza":"","lat":34.71621,"lng":135.281,"version":"13.0b/18.0a"},{"town":"北青木四丁目","koaza":"","lat":34.717872,"lng":135.278815,"version":"13.0b/18.0a"},{"town":"本山南町九丁目","koaza":"","lat":34.723147,"lng":135.279056,"version":"13.0b/18.0a"},{"town":"本山南町五丁目","koaza":"","lat":34.720491,"lng":135.276989,"version":"13.0b/18.0a"},{"town":"甲南町一丁目","koaza":"","lat":34.722306,"lng":135.277489,"version":"13.0b/18.0a"},{"town":"甲南町二丁目","koaza":"","lat":34.721946,"lng":135.275601,"version":"13.0b/18.0a"},{"town":"魚崎南町二丁目","koaza":"","lat":34.711457,"lng":135.277549,"version":"13.0b/18.0a"},{"town":"魚崎南町三丁目","koaza":"","lat":34.710389,"lng":135.274886,"version":"13.0b/18.0a"},{"town":"魚崎南町四丁目","koaza":"","lat":34.709809,"lng":135.272379,"version":"13.0b/18.0a"},{"town":"住吉東町三丁目","koaza":"","lat":34.714923,"lng":135.265896,"version":"13.0b/18.0a"},{"town":"田中町四丁目","koaza":"","lat":34.722706,"lng":135.270304,"version":"13.0b/18.0a"},{"town":"田中町三丁目","koaza":"","lat":34.723461,"lng":135.272516,"version":"13.0b/18.0a"},{"town":"魚崎南町六丁目","koaza":"","lat":34.714795,"lng":135.278807,"version":"13.0b/18.0a"},{"town":"魚崎南町七丁目","koaza":"","lat":34.713365,"lng":135.274474,"version":"13.0b/18.0a"},{"town":"魚崎中町一丁目","koaza":"","lat":34.715795,"lng":135.277463,"version":"13.0b/18.0a"},{"town":"魚崎中町二丁目","koaza":"","lat":34.715219,"lng":135.275029,"version":"13.0b/18.0a"},{"town":"魚崎中町三丁目","koaza":"","lat":34.714674,"lng":135.273103,"version":"13.0b/18.0a"},{"town":"魚崎中町四丁目","koaza":"","lat":34.71409,"lng":135.27061,"version":"13.0b/18.0a"},{"town":"魚崎西町四丁目","koaza":"","lat":34.712814,"lng":135.267031,"version":"13.0b/18.0a"},{"town":"魚崎北町一丁目","koaza":"","lat":34.717779,"lng":135.276317,"version":"13.0b/18.0a"},{"town":"魚崎北町二丁目","koaza":"","lat":34.717284,"lng":135.274065,"version":"13.0b/18.0a"},{"town":"魚崎北町五丁目","koaza":"","lat":34.719793,"lng":135.275373,"version":"13.0b/18.0a"},{"town":"甲南町三丁目","koaza":"","lat":34.721101,"lng":135.273564,"version":"13.0b/18.0a"},{"town":"魚崎北町六丁目","koaza":"","lat":34.719242,"lng":135.27315,"version":"13.0b/18.0a"},{"town":"魚崎北町七丁目","koaza":"","lat":34.718527,"lng":135.271223,"version":"13.0b/18.0a"},{"town":"魚崎北町三丁目","koaza":"","lat":34.716536,"lng":135.272116,"version":"13.0b/18.0a"},{"town":"甲南町四丁目","koaza":"","lat":34.720545,"lng":135.270973,"version":"13.0b/18.0a"},{"town":"魚崎北町四丁目","koaza":"","lat":34.716807,"lng":135.269588,"version":"13.0b/18.0a"},{"town":"魚崎北町八丁目","koaza":"","lat":34.718815,"lng":135.268739,"version":"13.0b/18.0a"},{"town":"甲南町五丁目","koaza":"","lat":34.720219,"lng":135.268121,"version":"13.0b/18.0a"},{"town":"住吉東町一丁目","koaza":"","lat":34.715334,"lng":135.267707,"version":"13.0b/18.0a"},{"town":"住吉東町二丁目","koaza":"","lat":34.718333,"lng":135.266431,"version":"13.0b/18.0a"},{"town":"田中町五丁目","koaza":"","lat":34.721597,"lng":135.268237,"version":"13.0b/18.0a"},{"town":"西岡本二丁目","koaza":"","lat":34.723741,"lng":135.265535,"version":"13.0b/18.0a"},{"town":"住吉東町四丁目","koaza":"","lat":34.717923,"lng":135.264295,"version":"13.0b/18.0a"},{"town":"住吉東町五丁目","koaza":"","lat":34.71995,"lng":135.265002,"version":"13.0b/18.0a"},{"town":"住吉宮町一丁目","koaza":"","lat":34.713037,"lng":135.263537,"version":"13.0b/18.0a"},{"town":"住吉本町一丁目","koaza":"","lat":34.721512,"lng":135.262963,"version":"13.0b/18.0a"},{"town":"御影中町四丁目","koaza":"","lat":34.718107,"lng":135.254252,"version":"13.0b/18.0a"},{"town":"御影一丁目","koaza":"","lat":34.720175,"lng":135.249919,"version":"13.0b/18.0a"},{"town":"住吉宮町二丁目","koaza":"","lat":34.714634,"lng":135.263176,"version":"13.0b/18.0a"},{"town":"住吉宮町五丁目","koaza":"","lat":34.713955,"lng":135.260297,"version":"13.0b/18.0a"},{"town":"御影石町三丁目","koaza":"","lat":34.71485,"lng":135.250817,"version":"13.0b/18.0a"},{"town":"住吉宮町四丁目","koaza":"","lat":34.718869,"lng":135.261866,"version":"13.0b/18.0a"},{"town":"住吉宮町三丁目","koaza":"","lat":34.71702,"lng":135.262225,"version":"13.0b/18.0a"},{"town":"住吉宮町六丁目","koaza":"","lat":34.716384,"lng":135.259327,"version":"13.0b/18.0a"},{"town":"住吉宮町七丁目","koaza":"","lat":34.71831,"lng":135.258801,"version":"13.0b/18.0a"},{"town":"御影郡家一丁目","koaza":"","lat":34.720681,"lng":135.254783,"version":"13.0b/18.0a"},{"town":"住吉本町二丁目","koaza":"","lat":34.720837,"lng":135.258899,"version":"13.0b/18.0a"},{"town":"御影中町一丁目","koaza":"","lat":34.715724,"lng":135.25715,"version":"13.0b/18.0a"},{"town":"御影中町二丁目","koaza":"","lat":34.718263,"lng":135.25613,"version":"13.0b/18.0a"},{"town":"御影中町三丁目","koaza":"","lat":34.716127,"lng":135.255031,"version":"13.0b/18.0a"},{"town":"御影中町五丁目","koaza":"","lat":34.71574,"lng":135.253616,"version":"13.0b/18.0a"},{"town":"御影中町六丁目","koaza":"","lat":34.717967,"lng":135.252725,"version":"13.0b/18.0a"},{"town":"御影中町七丁目","koaza":"","lat":34.715407,"lng":135.252521,"version":"13.0b/18.0a"},{"town":"御影中町八丁目","koaza":"","lat":34.717825,"lng":135.251473,"version":"13.0b/18.0a"},{"town":"御影石町四丁目","koaza":"","lat":34.7174,"lng":135.249881,"version":"13.0b/18.0a"},{"town":"魚崎南町五丁目","koaza":"","lat":34.709016,"lng":135.270079,"version":"13.0b/18.0a"},{"town":"魚崎南町八丁目","koaza":"","lat":34.712427,"lng":135.270991,"version":"13.0b/18.0a"},{"town":"魚崎西町三丁目","koaza":"","lat":34.71187,"lng":135.267768,"version":"13.0b/18.0a"},{"town":"魚崎西町二丁目","koaza":"","lat":34.710405,"lng":135.267347,"version":"13.0b/18.0a"},{"town":"住吉南町一丁目","koaza":"","lat":34.708412,"lng":135.263951,"version":"13.0b/18.0a"},{"town":"魚崎西町一丁目","koaza":"","lat":34.708019,"lng":135.266983,"version":"13.0b/18.0a"},{"town":"御影本町三丁目","koaza":"","lat":34.709434,"lng":135.257226,"version":"13.0b/18.0a"},{"town":"御影本町五丁目","koaza":"","lat":34.70961,"lng":135.2559,"version":"13.0b/18.0a"},{"town":"御影本町八丁目","koaza":"","lat":34.712753,"lng":135.253711,"version":"13.0b/18.0a"},{"town":"御影本町二丁目","koaza":"","lat":34.713066,"lng":135.258072,"version":"13.0b/18.0a"},{"town":"御影本町六丁目","koaza":"","lat":34.712955,"lng":135.25497,"version":"13.0b/18.0a"},{"town":"御影石町二丁目","koaza":"","lat":34.712593,"lng":135.251612,"version":"13.0b/18.0a"},{"town":"住吉南町二丁目","koaza":"","lat":34.710437,"lng":135.264211,"version":"13.0b/18.0a"},{"town":"住吉南町四丁目","koaza":"","lat":34.709381,"lng":135.261421,"version":"13.0b/18.0a"},{"town":"住吉南町三丁目","koaza":"","lat":34.711935,"lng":135.263313,"version":"13.0b/18.0a"},{"town":"住吉南町五丁目","koaza":"","lat":34.712238,"lng":135.260943,"version":"13.0b/18.0a"},{"town":"御影本町一丁目","koaza":"","lat":34.70943,"lng":135.259158,"version":"13.0b/18.0a"},{"town":"御影本町四丁目","koaza":"","lat":34.71327,"lng":135.256073,"version":"13.0b/18.0a"},{"town":"御影本町七丁目","koaza":"","lat":34.709788,"lng":135.254648,"version":"13.0b/18.0a"},{"town":"御影石町一丁目","koaza":"","lat":34.709601,"lng":135.252659,"version":"13.0b/18.0a"},{"town":"向洋町東二丁目","koaza":"","lat":34.694738,"lng":135.2818,"version":"13.0b/18.0a"},{"town":"向洋町東一丁目","koaza":"","lat":34.695777,"lng":135.270832,"version":"13.0b/18.0a"},{"town":"向洋町西一丁目","koaza":"","lat":34.695517,"lng":135.266244,"version":"13.0b/18.0a"},{"town":"向洋町中四丁目","koaza":"","lat":34.684448,"lng":135.273306,"version":"13.0b/18.0a"},{"town":"向洋町中三丁目","koaza":"","lat":34.686637,"lng":135.272952,"version":"13.0b/18.0a"},{"town":"向洋町中八丁目","koaza":"","lat":34.683717,"lng":135.266986,"version":"13.0b/18.0a"},{"town":"向洋町中七丁目","koaza":"","lat":34.685828,"lng":135.266003,"version":"13.0b/18.0a"},{"town":"向洋町東三丁目","koaza":"","lat":34.694079,"lng":135.278714,"version":"13.0b/18.0a"},{"town":"向洋町中二丁目","koaza":"","lat":34.689498,"lng":135.272694,"version":"13.0b/18.0a"},{"town":"向洋町中一丁目","koaza":"","lat":34.692053,"lng":135.272054,"version":"13.0b/18.0a"},{"town":"向洋町中六丁目","koaza":"","lat":34.688439,"lng":135.26621,"version":"13.0b/18.0a"},{"town":"向洋町中五丁目","koaza":"","lat":34.691815,"lng":135.265543,"version":"13.0b/18.0a"},{"town":"向洋町西六丁目","koaza":"","lat":34.683338,"lng":135.258839,"version":"13.0b/18.0a"},{"town":"向洋町西五丁目","koaza":"","lat":34.688985,"lng":135.261889,"version":"13.0b/18.0a"},{"town":"向洋町西三丁目","koaza":"","lat":34.691309,"lng":135.25371,"version":"13.0b/18.0a"},{"town":"向洋町西四丁目","koaza":"","lat":34.689451,"lng":135.257426,"version":"13.0b/18.0a"},{"town":"向洋町西二丁目","koaza":"","lat":34.693759,"lng":135.259536,"version":"13.0b/18.0a"},{"town":"向洋町中九丁目","koaza":"","lat":34.681163,"lng":135.268459,"version":"13.0b/18.0a"},{"town":"向洋町東四丁目","koaza":"","lat":34.68502,"lng":135.283205,"version":"13.0b/18.0a"},{"town":"御影山手五丁目","koaza":"","lat":34.726573,"lng":135.243568,"version":"13.0b/18.0a"},{"town":"御影山手六丁目","koaza":"","lat":34.730575,"lng":135.244114,"version":"13.0b/18.0a"},{"town":"御影三丁目","koaza":"","lat":34.721931,"lng":135.247407,"version":"14.0b/19.0a"},{"town":"渦森台四丁目","koaza":"","lat":34.740452,"lng":135.246708,"version":"14.0b/19.0a"},{"town":"渦森台三丁目","koaza":"","lat":34.738642,"lng":135.247655,"version":"14.0b/19.0a"},{"town":"御影山手二丁目","koaza":"","lat":34.724623,"lng":135.246466,"version":"14.0b/19.0a"},{"town":"御影山手三丁目","koaza":"","lat":34.729075,"lng":135.246738,"version":"14.0b/19.0a"},{"town":"鴨子ケ原三丁目","koaza":"","lat":34.731524,"lng":135.248402,"version":"14.0b/19.0a"},{"town":"御影山手四丁目","koaza":"","lat":34.727354,"lng":135.245856,"version":"14.0b/19.0a"},{"town":"御影塚町二丁目","koaza":"","lat":34.71232,"lng":135.248452,"version":"14.0b/19.0a"},{"town":"御影塚町三丁目","koaza":"","lat":34.709363,"lng":135.245978,"version":"14.0b/19.0a"},{"town":"御影塚町四丁目","koaza":"","lat":34.71163,"lng":135.245085,"version":"14.0b/19.0a"},{"town":"御影塚町一丁目","koaza":"","lat":34.709448,"lng":135.249388,"version":"14.0b/19.0a"},{"town":"本山町森","koaza":"","lat":34.757463,"lng":135.269564,"version":"14.0b/19.0a"},{"town":"魚崎浜町","koaza":"","lat":34.707036,"lng":135.280371,"version":"14.0b/19.0a"},{"town":"深江浜町","koaza":"","lat":34.711386,"lng":135.298052,"version":"14.0b/19.0a"},{"town":"住吉浜町","koaza":"","lat":34.704145,"lng":135.264167,"version":"14.0b/19.0a"},{"town":"御影浜町","koaza":"","lat":34.704035,"lng":135.257509,"version":"14.0b/19.0a"},{"town":"森北町五丁目","koaza":"","lat":34.734225,"lng":135.29104,"version":"14.0b/19.0a"},{"town":"森北町七丁目","koaza":"","lat":34.73812,"lng":135.290246,"version":"14.0b/19.0a"},{"town":"本山町中野","koaza":"","lat":34.739053,"lng":135.283792,"version":"14.0b/19.0a"},{"town":"森北町六丁目","koaza":"","lat":34.73383,"lng":135.287703,"version":"14.0b/19.0a"},{"town":"甲南台","koaza":"","lat":34.734349,"lng":135.285215,"version":"14.0b/19.0a"},{"town":"本山町田中","koaza":"","lat":34.740741,"lng":135.261804,"version":"14.0b/19.0a"},{"town":"住吉台","koaza":"","lat":34.739622,"lng":135.256869,"version":"14.0b/19.0a"},{"town":"住吉山手七丁目","koaza":"","lat":34.734005,"lng":135.253763,"version":"14.0b/19.0a"},{"town":"住吉山手八丁目","koaza":"","lat":34.737217,"lng":135.253063,"version":"14.0b/19.0a"},{"town":"住吉山手九丁目","koaza":"","lat":34.741948,"lng":135.253199,"version":"14.0b/19.0a"},{"town":"渦森台一丁目","koaza":"","lat":34.738867,"lng":135.251322,"version":"14.0b/19.0a"},{"town":"渦森台二丁目","koaza":"","lat":34.737137,"lng":135.249831,"version":"14.0b/19.0a"},{"town":"深江本町一丁目","koaza":"","lat":34.725112,"lng":135.299412,"version":"14.0b/19.0a"},{"town":"深江北町一丁目","koaza":"","lat":34.726842,"lng":135.298543,"version":"14.0b/19.0a"},{"town":"深江本町二丁目","koaza":"","lat":34.723781,"lng":135.296139,"version":"14.0b/19.0a"},{"town":"森北町二丁目","koaza":"","lat":34.730501,"lng":135.28993,"version":"14.0b/19.0a"},{"town":"本庄町一丁目","koaza":"","lat":34.727736,"lng":135.294186,"version":"14.0b/19.0a"},{"town":"本山南町六丁目","koaza":"","lat":34.725392,"lng":135.287094,"version":"14.0b/19.0a"},{"town":"本山中町二丁目","koaza":"","lat":34.727154,"lng":135.284896,"version":"14.0b/19.0a"},{"town":"深江北町二丁目","koaza":"","lat":34.725376,"lng":135.295398,"version":"14.0b/19.0a"},{"town":"森南町一丁目","koaza":"","lat":34.729839,"lng":135.29352,"version":"14.0b/19.0a"},{"town":"深江北町四丁目","koaza":"","lat":34.72355,"lng":135.290513,"version":"14.0b/19.0a"},{"town":"深江本町三丁目","koaza":"","lat":34.722314,"lng":135.2928,"version":"14.0b/19.0a"},{"town":"深江北町三丁目","koaza":"","lat":34.724367,"lng":135.292696,"version":"14.0b/19.0a"},{"town":"本庄町二丁目","koaza":"","lat":34.726772,"lng":135.291554,"version":"14.0b/19.0a"},{"town":"本庄町三丁目","koaza":"","lat":34.726239,"lng":135.289212,"version":"14.0b/19.0a"},{"town":"本山南町一丁目","koaza":"","lat":34.723493,"lng":135.287953,"version":"14.0b/19.0a"},{"town":"本山南町七丁目","koaza":"","lat":34.724673,"lng":135.284693,"version":"14.0b/19.0a"},{"town":"本山中町三丁目","koaza":"","lat":34.726496,"lng":135.282612,"version":"14.0b/19.0a"},{"town":"本山北町二丁目","koaza":"","lat":34.728658,"lng":135.281903,"version":"14.0b/19.0a"},{"town":"本山南町八丁目","koaza":"","lat":34.724081,"lng":135.282182,"version":"14.0b/19.0a"},{"town":"森北町一丁目","koaza":"","lat":34.731477,"lng":135.292728,"version":"14.0b/19.0a"},{"town":"森南町二丁目","koaza":"","lat":34.729244,"lng":135.29056,"version":"14.0b/19.0a"},{"town":"森南町三丁目","koaza":"","lat":34.728351,"lng":135.288807,"version":"14.0b/19.0a"},{"town":"森北町三丁目","koaza":"","lat":34.729816,"lng":135.287599,"version":"14.0b/19.0a"},{"town":"本山北町四丁目","koaza":"","lat":34.731755,"lng":135.284344,"version":"14.0b/19.0a"},{"town":"森北町四丁目","koaza":"","lat":34.731854,"lng":135.289467,"version":"14.0b/19.0a"},{"town":"本山中町一丁目","koaza":"","lat":34.727877,"lng":135.287139,"version":"14.0b/19.0a"},{"town":"本山北町一丁目","koaza":"","lat":34.729301,"lng":135.284898,"version":"14.0b/19.0a"},{"town":"本山北町五丁目","koaza":"","lat":34.731311,"lng":135.280964,"version":"14.0b/19.0a"},{"town":"本山町野寄","koaza":"","lat":34.734688,"lng":135.262066,"version":"14.0b/19.0a"},{"town":"田中町二丁目","koaza":"","lat":34.724416,"lng":135.274647,"version":"14.0b/19.0a"},{"town":"岡本二丁目","koaza":"","lat":34.727193,"lng":135.273373,"version":"14.0b/19.0a"},{"town":"本山町北畑","koaza":"","lat":34.739042,"lng":135.279735,"version":"14.0b/19.0a"},{"town":"岡本七丁目","koaza":"","lat":34.730794,"lng":135.271278,"version":"14.0b/19.0a"},{"town":"田中町一丁目","koaza":"","lat":34.724898,"lng":135.27701,"version":"14.0b/19.0a"},{"town":"本山中町四丁目","koaza":"","lat":34.725736,"lng":135.279826,"version":"14.0b/19.0a"},{"town":"岡本一丁目","koaza":"","lat":34.727581,"lng":135.275726,"version":"14.0b/19.0a"},{"town":"岡本三丁目","koaza":"","lat":34.726222,"lng":135.271262,"version":"14.0b/19.0a"},{"town":"岡本四丁目","koaza":"","lat":34.726625,"lng":135.268526,"version":"14.0b/19.0a"},{"town":"西岡本一丁目","koaza":"","lat":34.723925,"lng":135.268776,"version":"14.0b/19.0a"},{"town":"西岡本三丁目","koaza":"","lat":34.72557,"lng":135.265596,"version":"14.0b/19.0a"},{"town":"本山北町三丁目","koaza":"","lat":34.728188,"lng":135.278782,"version":"14.0b/19.0a"},{"town":"本山北町六丁目","koaza":"","lat":34.731135,"lng":135.277824,"version":"14.0b/19.0a"},{"town":"本山町田辺","koaza":"","lat":34.738086,"lng":135.275352,"version":"14.0b/19.0a"},{"town":"岡本五丁目","koaza":"","lat":34.730646,"lng":135.275198,"version":"14.0b/19.0a"},{"town":"岡本六丁目","koaza":"","lat":34.732738,"lng":135.273726,"version":"14.0b/19.0a"},{"town":"岡本八丁目","koaza":"","lat":34.729608,"lng":135.269099,"version":"14.0b/19.0a"},{"town":"本山町岡本","koaza":"","lat":34.740978,"lng":135.269441,"version":"14.0b/19.0a"},{"town":"岡本九丁目","koaza":"","lat":34.728861,"lng":135.266537,"version":"14.0b/19.0a"},{"town":"西岡本六丁目","koaza":"","lat":34.729709,"lng":135.262218,"version":"14.0b/19.0a"},{"town":"西岡本四丁目","koaza":"","lat":34.727041,"lng":135.264362,"version":"14.0b/19.0a"},{"town":"住吉山手一丁目","koaza":"","lat":34.726386,"lng":135.259897,"version":"14.0b/19.0a"},{"town":"住吉山手五丁目","koaza":"","lat":34.731071,"lng":135.254619,"version":"14.0b/19.0a"},{"town":"鴨子ケ原一丁目","koaza":"","lat":34.728017,"lng":135.250983,"version":"14.0b/19.0a"},{"town":"西岡本五丁目","koaza":"","lat":34.728277,"lng":135.263312,"version":"14.0b/19.0a"},{"town":"住吉本町三丁目","koaza":"","lat":34.723946,"lng":135.260089,"version":"14.0b/19.0a"},{"town":"御影郡家二丁目","koaza":"","lat":34.723397,"lng":135.254885,"version":"14.0b/19.0a"},{"town":"住吉山手二丁目","koaza":"","lat":34.726111,"lng":135.256331,"version":"14.0b/19.0a"},{"town":"御影二丁目","koaza":"","lat":34.72288,"lng":135.250769,"version":"14.0b/19.0a"},{"town":"御影山手一丁目","koaza":"","lat":34.725762,"lng":135.252019,"version":"14.0b/19.0a"},{"town":"住吉山手六丁目","koaza":"","lat":34.733024,"lng":135.256742,"version":"14.0b/19.0a"},{"town":"西岡本七丁目","koaza":"","lat":34.732096,"lng":135.26112,"version":"14.0b/19.0a"},{"town":"住吉山手三丁目","koaza":"","lat":34.72861,"lng":135.259232,"version":"14.0b/19.0a"},{"town":"住吉山手四丁目","koaza":"","lat":34.728315,"lng":135.255263,"version":"14.0b/19.0a"},{"town":"鴨子ケ原二丁目","koaza":"","lat":34.732869,"lng":135.251195,"version":"14.0b/19.0a"},{"town":"深江南町二丁目","koaza":"","lat":34.721889,"lng":135.298828,"version":"14.0b/19.0a"},{"town":"深江南町三丁目","koaza":"","lat":34.721634,"lng":135.296697,"version":"14.0b/19.0a"},{"town":"深江南町四丁目","koaza":"","lat":34.720747,"lng":135.293989,"version":"14.0b/19.0a"},{"town":"深江南町一丁目","koaza":"","lat":34.722097,"lng":135.301182,"version":"14.0b/19.0a"},{"town":"深江南町五丁目","koaza":"","lat":34.719034,"lng":135.290296,"version":"14.0b/19.0a"},{"town":"本山南町二丁目","koaza":"","lat":34.722764,"lng":135.285559,"version":"14.0b/19.0a"},{"town":"北青木二丁目","koaza":"","lat":34.719982,"lng":135.283605,"version":"14.0b/19.0a"},{"town":"本山南町三丁目","koaza":"","lat":34.72193,"lng":135.282732,"version":"14.0b/19.0a"},{"town":"青木二丁目","koaza":"","lat":34.715755,"lng":135.28512,"version":"14.0b/19.0a"},{"town":"深江本町四丁目","koaza":"","lat":34.721261,"lng":135.290163,"version":"14.0b/19.0a"},{"town":"深江北町五丁目","koaza":"","lat":34.72206,"lng":135.288581,"version":"14.0b/19.0a"},{"town":"青木四丁目","koaza":"","lat":34.719883,"lng":135.287497,"version":"14.0b/19.0a"},{"town":"北青木一丁目","koaza":"","lat":34.721206,"lng":135.286248,"version":"14.0b/19.0a"},{"town":"青木一丁目","koaza":"","lat":34.715814,"lng":135.289415,"version":"14.0b/19.0a"},{"town":"青木五丁目","koaza":"","lat":34.71813,"lng":135.284292,"version":"14.0b/19.0a"},{"town":"青木三丁目","koaza":"","lat":34.714681,"lng":135.281745,"version":"14.0b/19.0a"},{"town":"魚崎南町一丁目","koaza":"","lat":34.712639,"lng":135.279981,"version":"14.0b/19.0a"},{"town":"北青木三丁目","koaza":"","lat":34.718416,"lng":135.281237,"version":"14.0b/19.0a"},{"town":"本山南町四丁目","koaza":"","lat":34.721099,"lng":135.279955,"version":"14.0b/19.0a"},{"town":"青木六丁目","koaza":"","lat":34.71621,"lng":135.281,"version":"14.0b/19.0a"},{"town":"北青木四丁目","koaza":"","lat":34.717872,"lng":135.278815,"version":"14.0b/19.0a"},{"town":"本山南町九丁目","koaza":"","lat":34.723147,"lng":135.279056,"version":"14.0b/19.0a"},{"town":"本山南町五丁目","koaza":"","lat":34.720491,"lng":135.276989,"version":"14.0b/19.0a"},{"town":"甲南町一丁目","koaza":"","lat":34.722306,"lng":135.277489,"version":"14.0b/19.0a"},{"town":"甲南町二丁目","koaza":"","lat":34.721946,"lng":135.275601,"version":"14.0b/19.0a"},{"town":"魚崎南町二丁目","koaza":"","lat":34.711457,"lng":135.277549,"version":"14.0b/19.0a"},{"town":"魚崎南町三丁目","koaza":"","lat":34.710389,"lng":135.274886,"version":"14.0b/19.0a"},{"town":"魚崎南町四丁目","koaza":"","lat":34.709809,"lng":135.272379,"version":"14.0b/19.0a"},{"town":"住吉東町三丁目","koaza":"","lat":34.714923,"lng":135.265896,"version":"14.0b/19.0a"},{"town":"田中町四丁目","koaza":"","lat":34.722706,"lng":135.270304,"version":"14.0b/19.0a"},{"town":"田中町三丁目","koaza":"","lat":34.723461,"lng":135.272516,"version":"14.0b/19.0a"},{"town":"魚崎南町六丁目","koaza":"","lat":34.714795,"lng":135.278807,"version":"14.0b/19.0a"},{"town":"魚崎南町七丁目","koaza":"","lat":34.713365,"lng":135.274474,"version":"14.0b/19.0a"},{"town":"魚崎中町一丁目","koaza":"","lat":34.715795,"lng":135.277463,"version":"14.0b/19.0a"},{"town":"魚崎中町二丁目","koaza":"","lat":34.715219,"lng":135.275029,"version":"14.0b/19.0a"},{"town":"魚崎中町三丁目","koaza":"","lat":34.714674,"lng":135.273103,"version":"14.0b/19.0a"},{"town":"魚崎中町四丁目","koaza":"","lat":34.71409,"lng":135.27061,"version":"14.0b/19.0a"},{"town":"魚崎西町四丁目","koaza":"","lat":34.712814,"lng":135.267031,"version":"14.0b/19.0a"},{"town":"魚崎北町一丁目","koaza":"","lat":34.717779,"lng":135.276317,"version":"14.0b/19.0a"},{"town":"魚崎北町二丁目","koaza":"","lat":34.717284,"lng":135.274065,"version":"14.0b/19.0a"},{"town":"魚崎北町五丁目","koaza":"","lat":34.719793,"lng":135.275373,"version":"14.0b/19.0a"},{"town":"甲南町三丁目","koaza":"","lat":34.721101,"lng":135.273564,"version":"14.0b/19.0a"},{"town":"魚崎北町六丁目","koaza":"","lat":34.719242,"lng":135.27315,"version":"14.0b/19.0a"},{"town":"魚崎北町七丁目","koaza":"","lat":34.718527,"lng":135.271223,"version":"14.0b/19.0a"},{"town":"魚崎北町三丁目","koaza":"","lat":34.716536,"lng":135.272116,"version":"14.0b/19.0a"},{"town":"甲南町四丁目","koaza":"","lat":34.720545,"lng":135.270973,"version":"14.0b/19.0a"},{"town":"魚崎北町四丁目","koaza":"","lat":34.716807,"lng":135.269588,"version":"14.0b/19.0a"},{"town":"魚崎北町八丁目","koaza":"","lat":34.718815,"lng":135.268739,"version":"14.0b/19.0a"},{"town":"甲南町五丁目","koaza":"","lat":34.720219,"lng":135.268121,"version":"14.0b/19.0a"},{"town":"住吉東町一丁目","koaza":"","lat":34.715334,"lng":135.267707,"version":"14.0b/19.0a"},{"town":"住吉東町二丁目","koaza":"","lat":34.718333,"lng":135.266431,"version":"14.0b/19.0a"},{"town":"田中町五丁目","koaza":"","lat":34.721597,"lng":135.268237,"version":"14.0b/19.0a"},{"town":"西岡本二丁目","koaza":"","lat":34.723741,"lng":135.265535,"version":"14.0b/19.0a"},{"town":"住吉東町四丁目","koaza":"","lat":34.717923,"lng":135.264295,"version":"14.0b/19.0a"},{"town":"住吉東町五丁目","koaza":"","lat":34.71995,"lng":135.265002,"version":"14.0b/19.0a"},{"town":"住吉宮町一丁目","koaza":"","lat":34.713037,"lng":135.263537,"version":"14.0b/19.0a"},{"town":"住吉本町一丁目","koaza":"","lat":34.721512,"lng":135.262963,"version":"14.0b/19.0a"},{"town":"御影中町四丁目","koaza":"","lat":34.718107,"lng":135.254252,"version":"14.0b/19.0a"},{"town":"御影一丁目","koaza":"","lat":34.720175,"lng":135.249919,"version":"14.0b/19.0a"},{"town":"住吉宮町二丁目","koaza":"","lat":34.714634,"lng":135.263176,"version":"14.0b/19.0a"},{"town":"住吉宮町五丁目","koaza":"","lat":34.713955,"lng":135.260297,"version":"14.0b/19.0a"},{"town":"御影石町三丁目","koaza":"","lat":34.71485,"lng":135.250817,"version":"14.0b/19.0a"},{"town":"住吉宮町四丁目","koaza":"","lat":34.718869,"lng":135.261866,"version":"14.0b/19.0a"},{"town":"住吉宮町三丁目","koaza":"","lat":34.71702,"lng":135.262225,"version":"14.0b/19.0a"},{"town":"住吉宮町六丁目","koaza":"","lat":34.716384,"lng":135.259327,"version":"14.0b/19.0a"},{"town":"住吉宮町七丁目","koaza":"","lat":34.71831,"lng":135.258801,"version":"14.0b/19.0a"},{"town":"御影郡家一丁目","koaza":"","lat":34.720681,"lng":135.254783,"version":"14.0b/19.0a"},{"town":"住吉本町二丁目","koaza":"","lat":34.720837,"lng":135.258899,"version":"14.0b/19.0a"},{"town":"御影中町一丁目","koaza":"","lat":34.715724,"lng":135.25715,"version":"14.0b/19.0a"},{"town":"御影中町二丁目","koaza":"","lat":34.718263,"lng":135.25613,"version":"14.0b/19.0a"},{"town":"御影中町三丁目","koaza":"","lat":34.716127,"lng":135.255031,"version":"14.0b/19.0a"},{"town":"御影中町五丁目","koaza":"","lat":34.71574,"lng":135.253616,"version":"14.0b/19.0a"},{"town":"御影中町六丁目","koaza":"","lat":34.717967,"lng":135.252725,"version":"14.0b/19.0a"},{"town":"御影中町七丁目","koaza":"","lat":34.715407,"lng":135.252521,"version":"14.0b/19.0a"},{"town":"御影中町八丁目","koaza":"","lat":34.717825,"lng":135.251473,"version":"14.0b/19.0a"},{"town":"御影石町四丁目","koaza":"","lat":34.7174,"lng":135.249881,"version":"14.0b/19.0a"},{"town":"魚崎南町五丁目","koaza":"","lat":34.709016,"lng":135.270079,"version":"14.0b/19.0a"},{"town":"魚崎南町八丁目","koaza":"","lat":34.712427,"lng":135.270991,"version":"14.0b/19.0a"},{"town":"魚崎西町三丁目","koaza":"","lat":34.71187,"lng":135.267768,"version":"14.0b/19.0a"},{"town":"魚崎西町二丁目","koaza":"","lat":34.710405,"lng":135.267347,"version":"14.0b/19.0a"},{"town":"住吉南町一丁目","koaza":"","lat":34.708412,"lng":135.263951,"version":"14.0b/19.0a"},{"town":"魚崎西町一丁目","koaza":"","lat":34.708019,"lng":135.266983,"version":"14.0b/19.0a"},{"town":"御影本町三丁目","koaza":"","lat":34.709434,"lng":135.257226,"version":"14.0b/19.0a"},{"town":"御影本町五丁目","koaza":"","lat":34.70961,"lng":135.2559,"version":"14.0b/19.0a"},{"town":"御影本町八丁目","koaza":"","lat":34.712753,"lng":135.253711,"version":"14.0b/19.0a"},{"town":"御影本町二丁目","koaza":"","lat":34.713066,"lng":135.258072,"version":"14.0b/19.0a"},{"town":"御影本町六丁目","koaza":"","lat":34.712955,"lng":135.25497,"version":"14.0b/19.0a"},{"town":"御影石町二丁目","koaza":"","lat":34.712593,"lng":135.251612,"version":"14.0b/19.0a"},{"town":"住吉南町二丁目","koaza":"","lat":34.710437,"lng":135.264211,"version":"14.0b/19.0a"},{"town":"住吉南町四丁目","koaza":"","lat":34.709381,"lng":135.261421,"version":"14.0b/19.0a"},{"town":"住吉南町三丁目","koaza":"","lat":34.711935,"lng":135.263313,"version":"14.0b/19.0a"},{"town":"住吉南町五丁目","koaza":"","lat":34.712238,"lng":135.260943,"version":"14.0b/19.0a"},{"town":"御影本町一丁目","koaza":"","lat":34.70943,"lng":135.259158,"version":"14.0b/19.0a"},{"town":"御影本町四丁目","koaza":"","lat":34.71327,"lng":135.256073,"version":"14.0b/19.0a"},{"town":"御影本町七丁目","koaza":"","lat":34.709788,"lng":135.254648,"version":"14.0b/19.0a"},{"town":"御影石町一丁目","koaza":"","lat":34.709601,"lng":135.252659,"version":"14.0b/19.0a"},{"town":"向洋町東二丁目","koaza":"","lat":34.694738,"lng":135.2818,"version":"14.0b/19.0a"},{"town":"向洋町東一丁目","koaza":"","lat":34.695777,"lng":135.270832,"version":"14.0b/19.0a"},{"town":"向洋町西一丁目","koaza":"","lat":34.695517,"lng":135.266244,"version":"14.0b/19.0a"},{"town":"向洋町中四丁目","koaza":"","lat":34.684448,"lng":135.273306,"version":"14.0b/19.0a"},{"town":"向洋町中三丁目","koaza":"","lat":34.686637,"lng":135.272952,"version":"14.0b/19.0a"},{"town":"向洋町中八丁目","koaza":"","lat":34.683717,"lng":135.266986,"version":"14.0b/19.0a"},{"town":"向洋町中七丁目","koaza":"","lat":34.685828,"lng":135.266003,"version":"14.0b/19.0a"},{"town":"向洋町東三丁目","koaza":"","lat":34.694079,"lng":135.278714,"version":"14.0b/19.0a"},{"town":"向洋町中二丁目","koaza":"","lat":34.689498,"lng":135.272694,"version":"14.0b/19.0a"},{"town":"向洋町中一丁目","koaza":"","lat":34.692053,"lng":135.272054,"version":"14.0b/19.0a"},{"town":"向洋町中六丁目","koaza":"","lat":34.688439,"lng":135.26621,"version":"14.0b/19.0a"},{"town":"向洋町中五丁目","koaza":"","lat":34.691815,"lng":135.265543,"version":"14.0b/19.0a"},{"town":"向洋町西六丁目","koaza":"","lat":34.683338,"lng":135.258839,"version":"14.0b/19.0a"},{"town":"向洋町西五丁目","koaza":"","lat":34.688985,"lng":135.261889,"version":"14.0b/19.0a"},{"town":"向洋町西三丁目","koaza":"","lat":34.691309,"lng":135.25371,"version":"14.0b/19.0a"},{"town":"向洋町西四丁目","koaza":"","lat":34.689451,"lng":135.257426,"version":"14.0b/19.0a"},{"town":"向洋町西二丁目","koaza":"","lat":34.693759,"lng":135.259536,"version":"14.0b/19.0a"},{"town":"向洋町中九丁目","koaza":"","lat":34.681163,"lng":135.268459,"version":"14.0b/19.0a"},{"town":"向洋町東四丁目","koaza":"","lat":34.68502,"lng":135.283205,"version":"14.0b/19.0a"},{"town":"御影山手五丁目","koaza":"","lat":34.726573,"lng":135.243568,"version":"14.0b/19.0a"},{"town":"御影山手六丁目","koaza":"","lat":34.730575,"lng":135.244114,"version":"14.0b/19.0a"}]