[{"town":"港島八丁目","koaza":"","lat":34.665691,"lng":135.228664,"version":"13.0b/18.0a"},{"town":"港島七丁目","koaza":"","lat":34.672655,"lng":135.223518,"version":"13.0b/18.0a"},{"town":"港島一丁目","koaza":"","lat":34.665331,"lng":135.204586,"version":"13.0b/18.0a"},{"town":"港島六丁目","koaza":"","lat":34.670968,"lng":135.217411,"version":"13.0b/18.0a"},{"town":"港島中町二丁目","koaza":"","lat":34.671847,"lng":135.214396,"version":"13.0b/18.0a"},{"town":"港島中町三丁目","koaza":"","lat":34.670765,"lng":135.211547,"version":"13.0b/18.0a"},{"town":"港島中町四丁目","koaza":"","lat":34.670202,"lng":135.2083,"version":"13.0b/18.0a"},{"town":"神戸空港","koaza":"","lat":34.637702,"lng":135.224785,"version":"13.0b/18.0a"},{"town":"港島中町七丁目","koaza":"","lat":34.667534,"lng":135.21703,"version":"13.0b/18.0a"},{"town":"港島中町八丁目","koaza":"","lat":34.661571,"lng":135.212025,"version":"13.0b/18.0a"},{"town":"港島中町六丁目","koaza":"","lat":34.665724,"lng":135.212984,"version":"13.0b/18.0a"},{"town":"港島中町五丁目","koaza":"","lat":34.66374,"lng":135.208568,"version":"13.0b/18.0a"},{"town":"港島九丁目","koaza":"","lat":34.653891,"lng":135.234419,"version":"13.0b/18.0a"},{"town":"港島南町六丁目","koaza":"","lat":34.657299,"lng":135.220303,"version":"13.0b/18.0a"},{"town":"港島南町五丁目","koaza":"","lat":34.655679,"lng":135.216956,"version":"13.0b/18.0a"},{"town":"港島南町七丁目","koaza":"","lat":34.653166,"lng":135.221678,"version":"13.0b/18.0a"},{"town":"港島南町四丁目","koaza":"","lat":34.65469,"lng":135.213271,"version":"13.0b/18.0a"},{"town":"港島南町三丁目","koaza":"","lat":34.657825,"lng":135.210175,"version":"13.0b/18.0a"},{"town":"港島南町一丁目","koaza":"","lat":34.660846,"lng":135.218296,"version":"13.0b/18.0a"},{"town":"港島南町二丁目","koaza":"","lat":34.659412,"lng":135.214831,"version":"13.0b/18.0a"},{"town":"脇浜海岸通","koaza":"","lat":34.701149,"lng":135.215668,"version":"13.0b/18.0a"},{"town":"中島通一丁目","koaza":"","lat":34.71342,"lng":135.209769,"version":"13.0b/18.0a"},{"town":"中島通二丁目","koaza":"","lat":34.713135,"lng":135.209013,"version":"13.0b/18.0a"},{"town":"中島通三丁目","koaza":"","lat":34.712705,"lng":135.208125,"version":"13.0b/18.0a"},{"town":"神仙寺通二丁目","koaza":"","lat":34.714242,"lng":135.208615,"version":"13.0b/18.0a"},{"town":"神仙寺通一丁目","koaza":"","lat":34.715138,"lng":135.208164,"version":"13.0b/18.0a"},{"town":"神仙寺通三丁目","koaza":"","lat":34.713402,"lng":135.206944,"version":"13.0b/18.0a"},{"town":"神仙寺通四丁目","koaza":"","lat":34.713108,"lng":135.20569,"version":"13.0b/18.0a"},{"town":"大日通二丁目","koaza":"","lat":34.706074,"lng":135.212168,"version":"13.0b/18.0a"},{"town":"大日通三丁目","koaza":"","lat":34.705791,"lng":135.210953,"version":"13.0b/18.0a"},{"town":"籠池通二丁目","koaza":"","lat":34.711886,"lng":135.209568,"version":"13.0b/18.0a"},{"town":"坂口通七丁目","koaza":"","lat":34.706637,"lng":135.205361,"version":"13.0b/18.0a"},{"town":"熊内橋通一丁目","koaza":"","lat":34.706084,"lng":135.204153,"version":"13.0b/18.0a"},{"town":"神若通四丁目","koaza":"","lat":34.703233,"lng":135.202266,"version":"13.0b/18.0a"},{"town":"中尾町","koaza":"","lat":34.710262,"lng":135.203139,"version":"13.0b/18.0a"},{"town":"若菜通三丁目","koaza":"","lat":34.702047,"lng":135.203949,"version":"13.0b/18.0a"},{"town":"国香通三丁目","koaza":"","lat":34.702557,"lng":135.203626,"version":"13.0b/18.0a"},{"town":"国香通二丁目","koaza":"","lat":34.703061,"lng":135.204508,"version":"13.0b/18.0a"},{"town":"若菜通一丁目","koaza":"","lat":34.70332,"lng":135.205732,"version":"13.0b/18.0a"},{"town":"中島通四丁目","koaza":"","lat":34.711845,"lng":135.206416,"version":"13.0b/18.0a"},{"town":"籠池通一丁目","koaza":"","lat":34.712047,"lng":135.21049,"version":"13.0b/18.0a"},{"town":"坂口通一丁目","koaza":"","lat":34.708325,"lng":135.212445,"version":"13.0b/18.0a"},{"town":"上筒井通一丁目","koaza":"","lat":34.709257,"lng":135.211894,"version":"13.0b/18.0a"},{"town":"野崎通一丁目","koaza":"","lat":34.710302,"lng":135.210434,"version":"13.0b/18.0a"},{"town":"野崎通二丁目","koaza":"","lat":34.709823,"lng":135.208465,"version":"13.0b/18.0a"},{"town":"籠池通三丁目","koaza":"","lat":34.711292,"lng":135.208701,"version":"13.0b/18.0a"},{"town":"野崎通三丁目","koaza":"","lat":34.709574,"lng":135.207367,"version":"13.0b/18.0a"},{"town":"籠池通四丁目","koaza":"","lat":34.711039,"lng":135.207177,"version":"13.0b/18.0a"},{"town":"上筒井通五丁目","koaza":"","lat":34.708179,"lng":135.207602,"version":"13.0b/18.0a"},{"town":"籠池通五丁目","koaza":"","lat":34.710467,"lng":135.20604,"version":"13.0b/18.0a"},{"town":"野崎通四丁目","koaza":"","lat":34.709239,"lng":135.206462,"version":"13.0b/18.0a"},{"town":"籠池通六丁目","koaza":"","lat":34.710064,"lng":135.205339,"version":"13.0b/18.0a"},{"town":"野崎通五丁目","koaza":"","lat":34.708959,"lng":135.205714,"version":"13.0b/18.0a"},{"town":"野崎通七丁目","koaza":"","lat":34.708437,"lng":135.20411,"version":"13.0b/18.0a"},{"town":"野崎通六丁目","koaza":"","lat":34.708725,"lng":135.204962,"version":"13.0b/18.0a"},{"town":"上筒井通七丁目","koaza":"","lat":34.707554,"lng":135.204864,"version":"13.0b/18.0a"},{"town":"坂口通五丁目","koaza":"","lat":34.707276,"lng":135.208029,"version":"13.0b/18.0a"},{"town":"上筒井通六丁目","koaza":"","lat":34.707879,"lng":135.20615,"version":"13.0b/18.0a"},{"town":"坂口通六丁目","koaza":"","lat":34.706963,"lng":135.206689,"version":"13.0b/18.0a"},{"town":"宮本通六丁目","koaza":"","lat":34.705949,"lng":135.207125,"version":"13.0b/18.0a"},{"town":"宮本通五丁目","koaza":"","lat":34.7064,"lng":135.208241,"version":"13.0b/18.0a"},{"town":"上筒井通四丁目","koaza":"","lat":34.708593,"lng":135.208874,"version":"13.0b/18.0a"},{"town":"坂口通四丁目","koaza":"","lat":34.707551,"lng":135.209275,"version":"13.0b/18.0a"},{"town":"宮本通四丁目","koaza":"","lat":34.706535,"lng":135.209612,"version":"13.0b/18.0a"},{"town":"宮本通三丁目","koaza":"","lat":34.706781,"lng":135.210615,"version":"13.0b/18.0a"},{"town":"上筒井通二丁目","koaza":"","lat":34.708875,"lng":135.210914,"version":"13.0b/18.0a"},{"town":"上筒井通三丁目","koaza":"","lat":34.708653,"lng":135.210009,"version":"13.0b/18.0a"},{"town":"坂口通三丁目","koaza":"","lat":34.707794,"lng":135.210287,"version":"13.0b/18.0a"},{"town":"宮本通一丁目","koaza":"","lat":34.70733,"lng":135.212958,"version":"13.0b/18.0a"},{"town":"坂口通二丁目","koaza":"","lat":34.708043,"lng":135.211275,"version":"13.0b/18.0a"},{"town":"宮本通二丁目","koaza":"","lat":34.707058,"lng":135.21172,"version":"13.0b/18.0a"},{"town":"大日通一丁目","koaza":"","lat":34.706372,"lng":135.213544,"version":"13.0b/18.0a"},{"town":"割塚通一丁目","koaza":"","lat":34.705737,"lng":135.21393,"version":"13.0b/18.0a"},{"town":"割塚通五丁目","koaza":"","lat":34.704612,"lng":135.209106,"version":"13.0b/18.0a"},{"town":"大日通五丁目","koaza":"","lat":34.705202,"lng":135.208631,"version":"13.0b/18.0a"},{"town":"割塚通六丁目","koaza":"","lat":34.704352,"lng":135.20792,"version":"13.0b/18.0a"},{"town":"大日通六丁目","koaza":"","lat":34.704957,"lng":135.207609,"version":"13.0b/18.0a"},{"town":"割塚通七丁目","koaza":"","lat":34.703943,"lng":135.206993,"version":"13.0b/18.0a"},{"town":"神若通一丁目","koaza":"","lat":34.704258,"lng":135.205239,"version":"13.0b/18.0a"},{"town":"国香通一丁目","koaza":"","lat":34.703698,"lng":135.205595,"version":"13.0b/18.0a"},{"town":"大日通七丁目","koaza":"","lat":34.704652,"lng":135.206433,"version":"13.0b/18.0a"},{"town":"旗塚通一丁目","koaza":"","lat":34.705045,"lng":135.204694,"version":"13.0b/18.0a"},{"town":"宮本通七丁目","koaza":"","lat":34.705623,"lng":135.205904,"version":"13.0b/18.0a"},{"town":"国香通四丁目","koaza":"","lat":34.702299,"lng":135.202609,"version":"13.0b/18.0a"},{"town":"国香通五丁目","koaza":"","lat":34.701959,"lng":135.201635,"version":"13.0b/18.0a"},{"town":"割塚通二丁目","koaza":"","lat":34.70536,"lng":135.212502,"version":"13.0b/18.0a"},{"town":"割塚通三丁目","koaza":"","lat":34.705084,"lng":135.211197,"version":"13.0b/18.0a"},{"town":"大日通四丁目","koaza":"","lat":34.705554,"lng":135.209953,"version":"13.0b/18.0a"},{"town":"脇浜町一丁目","koaza":"","lat":34.703584,"lng":135.213039,"version":"13.0b/18.0a"},{"town":"割塚通四丁目","koaza":"","lat":34.704864,"lng":135.210195,"version":"13.0b/18.0a"},{"town":"東雲通一丁目","koaza":"","lat":34.702378,"lng":135.20633,"version":"13.0b/18.0a"},{"town":"東雲通二丁目","koaza":"","lat":34.701831,"lng":135.205236,"version":"13.0b/18.0a"},{"town":"若菜通二丁目","koaza":"","lat":34.702605,"lng":135.20475,"version":"13.0b/18.0a"},{"town":"神若通五丁目","koaza":"","lat":34.703013,"lng":135.20135,"version":"13.0b/18.0a"},{"town":"神若通二丁目","koaza":"","lat":34.703854,"lng":135.204137,"version":"13.0b/18.0a"},{"town":"神若通三丁目","koaza":"","lat":34.703545,"lng":135.203203,"version":"13.0b/18.0a"},{"town":"旗塚通三丁目","koaza":"","lat":34.704511,"lng":135.202742,"version":"13.0b/18.0a"},{"town":"旗塚通四丁目","koaza":"","lat":34.70402,"lng":135.20177,"version":"13.0b/18.0a"},{"town":"熊内橋通三丁目","koaza":"","lat":34.705506,"lng":135.20229,"version":"13.0b/18.0a"},{"town":"旗塚通二丁目","koaza":"","lat":34.704822,"lng":135.203465,"version":"13.0b/18.0a"},{"town":"熊内橋通四丁目","koaza":"","lat":34.705148,"lng":135.201336,"version":"13.0b/18.0a"},{"town":"熊内橋通二丁目","koaza":"","lat":34.705865,"lng":135.203015,"version":"13.0b/18.0a"},{"town":"熊内町一丁目","koaza":"","lat":34.70745,"lng":135.203095,"version":"13.0b/18.0a"},{"town":"中島通五丁目","koaza":"","lat":34.71157,"lng":135.205023,"version":"13.0b/18.0a"},{"town":"籠池通七丁目","koaza":"","lat":34.709429,"lng":135.204418,"version":"13.0b/18.0a"},{"town":"神若通六丁目","koaza":"","lat":34.702523,"lng":135.200117,"version":"13.0b/18.0a"},{"town":"旗塚通五丁目","koaza":"","lat":34.703797,"lng":135.200731,"version":"13.0b/18.0a"},{"town":"葺合町","koaza":"","lat":34.720759,"lng":135.194373,"version":"13.0b/18.0a"},{"town":"生田町三丁目","koaza":"","lat":34.701722,"lng":135.197678,"version":"13.0b/18.0a"},{"town":"旗塚通六丁目","koaza":"","lat":34.70345,"lng":135.199676,"version":"13.0b/18.0a"},{"town":"熊内橋通六丁目","koaza":"","lat":34.70447,"lng":135.19919,"version":"13.0b/18.0a"},{"town":"熊内橋通五丁目","koaza":"","lat":34.704827,"lng":135.200232,"version":"13.0b/18.0a"},{"town":"熊内町二丁目","koaza":"","lat":34.706946,"lng":135.201407,"version":"13.0b/18.0a"},{"town":"熊内町三丁目","koaza":"","lat":34.706513,"lng":135.199961,"version":"13.0b/18.0a"},{"town":"布引町一丁目","koaza":"","lat":34.703413,"lng":135.195584,"version":"13.0b/18.0a"},{"town":"加納町一丁目","koaza":"","lat":34.705242,"lng":135.195102,"version":"13.0b/18.0a"},{"town":"熊内橋通七丁目","koaza":"","lat":34.704122,"lng":135.198089,"version":"13.0b/18.0a"},{"town":"熊内町四丁目","koaza":"","lat":34.705879,"lng":135.198345,"version":"13.0b/18.0a"},{"town":"熊内町七丁目","koaza":"","lat":34.706967,"lng":135.197227,"version":"13.0b/18.0a"},{"town":"生田町一丁目","koaza":"","lat":34.704328,"lng":135.196625,"version":"13.0b/18.0a"},{"town":"熊内町五丁目","koaza":"","lat":34.709805,"lng":135.201123,"version":"13.0b/18.0a"},{"town":"熊内町八丁目","koaza":"","lat":34.710539,"lng":135.198548,"version":"13.0b/18.0a"},{"town":"熊内町六丁目","koaza":"","lat":34.70862,"lng":135.199601,"version":"13.0b/18.0a"},{"town":"熊内町九丁目","koaza":"","lat":34.709754,"lng":135.197649,"version":"13.0b/18.0a"},{"town":"旗塚通七丁目","koaza":"","lat":34.703118,"lng":135.198633,"version":"13.0b/18.0a"},{"town":"生田町二丁目","koaza":"","lat":34.70226,"lng":135.196677,"version":"13.0b/18.0a"},{"town":"脇浜海岸通四丁目","koaza":"","lat":34.694454,"lng":135.207922,"version":"13.0b/18.0a"},{"town":"脇浜海岸通一丁目","koaza":"","lat":34.697438,"lng":135.214328,"version":"13.0b/18.0a"},{"town":"国香通六丁目","koaza":"","lat":34.70163,"lng":135.200549,"version":"13.0b/18.0a"},{"town":"脇浜町二丁目","koaza":"","lat":34.701557,"lng":135.213693,"version":"13.0b/18.0a"},{"town":"脇浜海岸通二丁目","koaza":"","lat":34.699384,"lng":135.21408,"version":"13.0b/18.0a"},{"town":"吾妻通二丁目","koaza":"","lat":34.699172,"lng":135.206863,"version":"13.0b/18.0a"},{"town":"八雲通一丁目","koaza":"","lat":34.701308,"lng":135.20699,"version":"13.0b/18.0a"},{"town":"筒井町一丁目","koaza":"","lat":34.702799,"lng":135.210223,"version":"13.0b/18.0a"},{"town":"筒井町二丁目","koaza":"","lat":34.702529,"lng":135.209085,"version":"13.0b/18.0a"},{"town":"東雲通三丁目","koaza":"","lat":34.701353,"lng":135.204343,"version":"13.0b/18.0a"},{"town":"八雲通三丁目","koaza":"","lat":34.700455,"lng":135.20485,"version":"13.0b/18.0a"},{"town":"若菜通四丁目","koaza":"","lat":34.701554,"lng":135.203096,"version":"13.0b/18.0a"},{"town":"八雲通四丁目","koaza":"","lat":34.700087,"lng":135.20391,"version":"13.0b/18.0a"},{"town":"東雲通四丁目","koaza":"","lat":34.700882,"lng":135.203463,"version":"13.0b/18.0a"},{"town":"東雲通五丁目","koaza":"","lat":34.700333,"lng":135.202454,"version":"13.0b/18.0a"},{"town":"若菜通五丁目","koaza":"","lat":34.701048,"lng":135.202084,"version":"13.0b/18.0a"},{"town":"東雲通六丁目","koaza":"","lat":34.699647,"lng":135.201158,"version":"13.0b/18.0a"},{"town":"八雲通五丁目","koaza":"","lat":34.699666,"lng":135.202832,"version":"13.0b/18.0a"},{"town":"八雲通六丁目","koaza":"","lat":34.699118,"lng":135.201494,"version":"13.0b/18.0a"},{"town":"日暮通六丁目","koaza":"","lat":34.698286,"lng":135.202012,"version":"13.0b/18.0a"},{"town":"雲井通一丁目","koaza":"","lat":34.696886,"lng":135.201584,"version":"13.0b/18.0a"},{"town":"日暮通五丁目","koaza":"","lat":34.698835,"lng":135.203316,"version":"13.0b/18.0a"},{"town":"吾妻通五丁目","koaza":"","lat":34.697861,"lng":135.203887,"version":"13.0b/18.0a"},{"town":"日暮通三丁目","koaza":"","lat":34.699634,"lng":135.205325,"version":"13.0b/18.0a"},{"town":"日暮通四丁目","koaza":"","lat":34.699258,"lng":135.204391,"version":"13.0b/18.0a"},{"town":"八雲通二丁目","koaza":"","lat":34.700841,"lng":135.205825,"version":"13.0b/18.0a"},{"town":"日暮通二丁目","koaza":"","lat":34.700031,"lng":135.206322,"version":"13.0b/18.0a"},{"town":"筒井町三丁目","koaza":"","lat":34.702082,"lng":135.20802,"version":"13.0b/18.0a"},{"town":"日暮通一丁目","koaza":"","lat":34.700499,"lng":135.207494,"version":"13.0b/18.0a"},{"town":"脇浜町三丁目","koaza":"","lat":34.699931,"lng":135.210661,"version":"13.0b/18.0a"},{"town":"北本町通二丁目","koaza":"","lat":34.698344,"lng":135.207356,"version":"13.0b/18.0a"},{"town":"吾妻通一丁目","koaza":"","lat":34.699683,"lng":135.207999,"version":"13.0b/18.0a"},{"town":"北本町通一丁目","koaza":"","lat":34.69874,"lng":135.208584,"version":"13.0b/18.0a"},{"town":"南本町通二丁目","koaza":"","lat":34.697259,"lng":135.208061,"version":"13.0b/18.0a"},{"town":"南本町通一丁目","koaza":"","lat":34.697924,"lng":135.208797,"version":"13.0b/18.0a"},{"town":"南本町通三丁目","koaza":"","lat":34.696854,"lng":135.206954,"version":"13.0b/18.0a"},{"town":"北本町通三丁目","koaza":"","lat":34.697702,"lng":135.206335,"version":"13.0b/18.0a"},{"town":"吾妻通三丁目","koaza":"","lat":34.698726,"lng":135.205846,"version":"13.0b/18.0a"},{"town":"北本町通四丁目","koaza":"","lat":34.697386,"lng":135.205476,"version":"13.0b/18.0a"},{"town":"吾妻通四丁目","koaza":"","lat":34.698302,"lng":135.204949,"version":"13.0b/18.0a"},{"town":"南本町通四丁目","koaza":"","lat":34.696327,"lng":135.206089,"version":"13.0b/18.0a"},{"town":"脇浜海岸通三丁目","koaza":"","lat":34.6955,"lng":135.207234,"version":"13.0b/18.0a"},{"town":"北本町通五丁目","koaza":"","lat":34.696997,"lng":135.204416,"version":"13.0b/18.0a"},{"town":"南本町通五丁目","koaza":"","lat":34.696083,"lng":135.204919,"version":"13.0b/18.0a"},{"town":"北本町通六丁目","koaza":"","lat":34.696416,"lng":135.203226,"version":"13.0b/18.0a"},{"town":"吾妻通六丁目","koaza":"","lat":34.697342,"lng":135.20259,"version":"13.0b/18.0a"},{"town":"真砂通一丁目","koaza":"","lat":34.695282,"lng":135.205167,"version":"13.0b/18.0a"},{"town":"浜辺通一丁目","koaza":"","lat":34.692714,"lng":135.202839,"version":"13.0b/18.0a"},{"town":"南本町通六丁目","koaza":"","lat":34.695551,"lng":135.203661,"version":"13.0b/18.0a"},{"town":"磯上通一丁目","koaza":"","lat":34.694063,"lng":135.203231,"version":"13.0b/18.0a"},{"town":"真砂通二丁目","koaza":"","lat":34.694282,"lng":135.204158,"version":"13.0b/18.0a"},{"town":"小野柄通一丁目","koaza":"","lat":34.695971,"lng":135.2021,"version":"13.0b/18.0a"},{"town":"御幸通一丁目","koaza":"","lat":34.695213,"lng":135.202599,"version":"13.0b/18.0a"},{"town":"小野柄通二丁目","koaza":"","lat":34.695523,"lng":135.201071,"version":"13.0b/18.0a"},{"town":"御幸通二丁目","koaza":"","lat":34.694725,"lng":135.201691,"version":"13.0b/18.0a"},{"town":"磯上通二丁目","koaza":"","lat":34.69366,"lng":135.202331,"version":"13.0b/18.0a"},{"town":"二宮町二丁目","koaza":"","lat":34.699851,"lng":135.197159,"version":"13.0b/18.0a"},{"town":"雲井通二丁目","koaza":"","lat":34.696512,"lng":135.200599,"version":"13.0b/18.0a"},{"town":"雲井通四丁目","koaza":"","lat":34.695457,"lng":135.198538,"version":"13.0b/18.0a"},{"town":"中山手通二丁目","koaza":"","lat":34.695658,"lng":135.188978,"version":"13.0b/18.0a"},{"town":"中山手通一丁目","koaza":"","lat":34.696093,"lng":135.19165,"version":"13.0b/18.0a"},{"town":"北野町一丁目","koaza":"","lat":34.701941,"lng":135.192864,"version":"13.0b/18.0a"},{"town":"北野町三丁目","koaza":"","lat":34.7006,"lng":135.189257,"version":"13.0b/18.0a"},{"town":"山本通三丁目","koaza":"","lat":34.697388,"lng":135.186188,"version":"13.0b/18.0a"},{"town":"雲井通三丁目","koaza":"","lat":34.69599,"lng":135.199696,"version":"13.0b/18.0a"},{"town":"磯上通三丁目","koaza":"","lat":34.693201,"lng":135.20128,"version":"13.0b/18.0a"},{"town":"小野柄通三丁目","koaza":"","lat":34.695166,"lng":135.200064,"version":"13.0b/18.0a"},{"town":"御幸通三丁目","koaza":"","lat":34.694368,"lng":135.200553,"version":"13.0b/18.0a"},{"town":"神若通七丁目","koaza":"","lat":34.701959,"lng":135.199278,"version":"13.0b/18.0a"},{"town":"二宮町一丁目","koaza":"","lat":34.700185,"lng":135.198695,"version":"13.0b/18.0a"},{"town":"布引町二丁目","koaza":"","lat":34.700746,"lng":135.194646,"version":"13.0b/18.0a"},{"town":"生田町四丁目","koaza":"","lat":34.700903,"lng":135.195683,"version":"13.0b/18.0a"},{"town":"国香通七丁目","koaza":"","lat":34.701106,"lng":135.199742,"version":"13.0b/18.0a"},{"town":"若菜通六丁目","koaza":"","lat":34.700492,"lng":135.200651,"version":"13.0b/18.0a"},{"town":"八幡通一丁目","koaza":"","lat":34.691947,"lng":135.200623,"version":"13.0b/18.0a"},{"town":"旭通一丁目","koaza":"","lat":34.698259,"lng":135.200631,"version":"13.0b/18.0a"},{"town":"旭通二丁目","koaza":"","lat":34.697754,"lng":135.199834,"version":"13.0b/18.0a"},{"town":"琴ノ緒町一丁目","koaza":"","lat":34.698453,"lng":135.198469,"version":"13.0b/18.0a"},{"town":"二宮町三丁目","koaza":"","lat":34.699352,"lng":135.196028,"version":"13.0b/18.0a"},{"town":"旭通三丁目","koaza":"","lat":34.697275,"lng":135.19873,"version":"13.0b/18.0a"},{"town":"琴ノ緒町二丁目","koaza":"","lat":34.697669,"lng":135.197377,"version":"13.0b/18.0a"},{"town":"旭通四丁目","koaza":"","lat":34.696573,"lng":135.197849,"version":"13.0b/18.0a"},{"town":"琴ノ緒町四丁目","koaza":"","lat":34.696562,"lng":135.195574,"version":"13.0b/18.0a"},{"town":"琴ノ緒町三丁目","koaza":"","lat":34.697076,"lng":135.196321,"version":"13.0b/18.0a"},{"town":"二宮町四丁目","koaza":"","lat":34.698902,"lng":135.195079,"version":"13.0b/18.0a"},{"town":"御幸通四丁目","koaza":"","lat":34.693824,"lng":135.199512,"version":"13.0b/18.0a"},{"town":"磯上通四丁目","koaza":"","lat":34.692839,"lng":135.200134,"version":"13.0b/18.0a"},{"town":"御幸通五丁目","koaza":"","lat":34.693411,"lng":135.198529,"version":"13.0b/18.0a"},{"town":"小野柄通四丁目","koaza":"","lat":34.694728,"lng":135.199088,"version":"13.0b/18.0a"},{"town":"雲井通五丁目","koaza":"","lat":34.695163,"lng":135.197485,"version":"13.0b/18.0a"},{"town":"磯上通五丁目","koaza":"","lat":34.692643,"lng":135.199002,"version":"13.0b/18.0a"},{"town":"小野柄通五丁目","koaza":"","lat":34.69422,"lng":135.198045,"version":"13.0b/18.0a"},{"town":"小野柄通六丁目","koaza":"","lat":34.693883,"lng":135.197231,"version":"13.0b/18.0a"},{"town":"旭通五丁目","koaza":"","lat":34.695878,"lng":135.196956,"version":"13.0b/18.0a"},{"town":"雲井通六丁目","koaza":"","lat":34.694671,"lng":135.196631,"version":"13.0b/18.0a"},{"town":"雲井通七丁目","koaza":"","lat":34.694518,"lng":135.195992,"version":"13.0b/18.0a"},{"town":"琴ノ緒町五丁目","koaza":"","lat":34.696161,"lng":135.194796,"version":"13.0b/18.0a"},{"town":"御幸通六丁目","koaza":"","lat":34.69307,"lng":135.197717,"version":"13.0b/18.0a"},{"town":"小野柄通七丁目","koaza":"","lat":34.693547,"lng":135.19629,"version":"13.0b/18.0a"},{"town":"小野柄通八丁目","koaza":"","lat":34.693085,"lng":135.195211,"version":"13.0b/18.0a"},{"town":"磯上通六丁目","koaza":"","lat":34.692301,"lng":135.198187,"version":"13.0b/18.0a"},{"town":"御幸通八丁目","koaza":"","lat":34.692148,"lng":135.195714,"version":"13.0b/18.0a"},{"town":"磯上通七丁目","koaza":"","lat":34.691923,"lng":135.197283,"version":"13.0b/18.0a"},{"town":"御幸通七丁目","koaza":"","lat":34.6927,"lng":135.19681,"version":"13.0b/18.0a"},{"town":"加納町五丁目","koaza":"","lat":34.692526,"lng":135.194659,"version":"13.0b/18.0a"},{"town":"雲井通八丁目","koaza":"","lat":34.694071,"lng":135.195138,"version":"13.0b/18.0a"},{"town":"加納町四丁目","koaza":"","lat":34.695075,"lng":135.193287,"version":"13.0b/18.0a"},{"town":"布引町四丁目","koaza":"","lat":34.695275,"lng":135.194047,"version":"13.0b/18.0a"},{"town":"布引町三丁目","koaza":"","lat":34.697691,"lng":135.19412,"version":"13.0b/18.0a"},{"town":"加納町三丁目","koaza":"","lat":34.697736,"lng":135.193053,"version":"13.0b/18.0a"},{"town":"加納町二丁目","koaza":"","lat":34.701177,"lng":135.193979,"version":"13.0b/18.0a"},{"town":"北野町二丁目","koaza":"","lat":34.701556,"lng":135.19103,"version":"13.0b/18.0a"},{"town":"山本通一丁目","koaza":"","lat":34.699199,"lng":135.191881,"version":"13.0b/18.0a"},{"town":"北野町四丁目","koaza":"","lat":34.69943,"lng":135.187502,"version":"13.0b/18.0a"},{"town":"山本通二丁目","koaza":"","lat":34.698101,"lng":135.189548,"version":"13.0b/18.0a"},{"town":"北長狭通一丁目","koaza":"","lat":34.693309,"lng":135.192426,"version":"13.0b/18.0a"},{"town":"下山手通一丁目","koaza":"","lat":34.694506,"lng":135.19081,"version":"13.0b/18.0a"},{"town":"下山手通二丁目","koaza":"","lat":34.693408,"lng":135.189925,"version":"13.0b/18.0a"},{"town":"北長狭通二丁目","koaza":"","lat":34.692139,"lng":135.190537,"version":"13.0b/18.0a"},{"town":"中山手通三丁目","koaza":"","lat":34.694519,"lng":135.187081,"version":"13.0b/18.0a"},{"town":"下山手通三丁目","koaza":"","lat":34.692628,"lng":135.188028,"version":"13.0b/18.0a"},{"town":"山本通四丁目","koaza":"","lat":34.695521,"lng":135.183504,"version":"13.0b/18.0a"},{"town":"諏訪山町","koaza":"","lat":34.695874,"lng":135.179146,"version":"13.0b/18.0a"},{"town":"中山手通四丁目","koaza":"","lat":34.693848,"lng":135.184556,"version":"13.0b/18.0a"},{"town":"再度筋町","koaza":"","lat":34.694445,"lng":135.1773,"version":"13.0b/18.0a"},{"town":"山本通五丁目","koaza":"","lat":34.693178,"lng":135.17966,"version":"13.0b/18.0a"},{"town":"神戸港地方","koaza":"","lat":34.709978,"lng":135.177107,"version":"13.0b/18.0a"},{"town":"浜辺通二丁目","koaza":"","lat":34.691763,"lng":135.201757,"version":"13.0b/18.0a"},{"town":"磯上通八丁目","koaza":"","lat":34.691302,"lng":135.196238,"version":"13.0b/18.0a"},{"town":"八幡通四丁目","koaza":"","lat":34.690024,"lng":135.196779,"version":"13.0b/18.0a"},{"town":"海岸通二丁目","koaza":"","lat":34.686174,"lng":135.187875,"version":"13.0b/18.0a"},{"town":"元町通一丁目","koaza":"","lat":34.689056,"lng":135.188685,"version":"13.0b/18.0a"},{"town":"元町通二丁目","koaza":"","lat":34.68871,"lng":135.187122,"version":"13.0b/18.0a"},{"town":"浜辺通三丁目","koaza":"","lat":34.690186,"lng":135.20107,"version":"13.0b/18.0a"},{"town":"小野浜町","koaza":"","lat":34.689192,"lng":135.209057,"version":"13.0b/18.0a"},{"town":"浜辺通六丁目","koaza":"","lat":34.68736,"lng":135.198782,"version":"13.0b/18.0a"},{"town":"新港町","koaza":"","lat":34.682556,"lng":135.201794,"version":"13.0b/18.0a"},{"town":"海岸通","koaza":"","lat":34.686574,"lng":135.192926,"version":"13.0b/18.0a"},{"town":"前町","koaza":"","lat":34.687188,"lng":135.190349,"version":"13.0b/18.0a"},{"town":"海岸通一丁目","koaza":"","lat":34.686415,"lng":135.189156,"version":"13.0b/18.0a"},{"town":"栄町通一丁目","koaza":"","lat":34.687583,"lng":135.188912,"version":"13.0b/18.0a"},{"town":"栄町通二丁目","koaza":"","lat":34.687263,"lng":135.187504,"version":"13.0b/18.0a"},{"town":"海岸通三丁目","koaza":"","lat":34.685844,"lng":135.186339,"version":"13.0b/18.0a"},{"town":"磯辺通一丁目","koaza":"","lat":34.690991,"lng":135.200396,"version":"13.0b/18.0a"},{"town":"浜辺通四丁目","koaza":"","lat":34.688864,"lng":135.200562,"version":"13.0b/18.0a"},{"town":"磯辺通二丁目","koaza":"","lat":34.689978,"lng":135.199619,"version":"13.0b/18.0a"},{"town":"八幡通二丁目","koaza":"","lat":34.691581,"lng":135.199301,"version":"13.0b/18.0a"},{"town":"浜辺通五丁目","koaza":"","lat":34.688244,"lng":135.199761,"version":"13.0b/18.0a"},{"town":"磯辺通三丁目","koaza":"","lat":34.689451,"lng":135.198677,"version":"13.0b/18.0a"},{"town":"八幡通三丁目","koaza":"","lat":34.690928,"lng":135.197766,"version":"13.0b/18.0a"},{"town":"磯辺通四丁目","koaza":"","lat":34.688834,"lng":135.197651,"version":"13.0b/18.0a"},{"town":"加納町六丁目","koaza":"","lat":34.688801,"lng":135.196121,"version":"13.0b/18.0a"},{"town":"東町","koaza":"","lat":34.688552,"lng":135.195268,"version":"13.0b/18.0a"},{"town":"伊藤町","koaza":"","lat":34.687976,"lng":135.194935,"version":"13.0b/18.0a"},{"town":"江戸町","koaza":"","lat":34.688876,"lng":135.194294,"version":"13.0b/18.0a"},{"town":"京町","koaza":"","lat":34.688797,"lng":135.193369,"version":"13.0b/18.0a"},{"town":"三宮町一丁目","koaza":"","lat":34.691756,"lng":135.1933,"version":"13.0b/18.0a"},{"town":"浪花町","koaza":"","lat":34.688569,"lng":135.19263,"version":"13.0b/18.0a"},{"town":"播磨町","koaza":"","lat":34.688383,"lng":135.191853,"version":"13.0b/18.0a"},{"town":"三宮町二丁目","koaza":"","lat":34.690546,"lng":135.191249,"version":"13.0b/18.0a"},{"town":"明石町","koaza":"","lat":34.688216,"lng":135.190918,"version":"13.0b/18.0a"},{"town":"西町","koaza":"","lat":34.688218,"lng":135.190028,"version":"13.0b/18.0a"},{"town":"三宮町三丁目","koaza":"","lat":34.689889,"lng":135.189823,"version":"13.0b/18.0a"},{"town":"北長狭通三丁目","koaza":"","lat":34.691205,"lng":135.188946,"version":"13.0b/18.0a"},{"town":"北長狭通四丁目","koaza":"","lat":34.690444,"lng":135.186818,"version":"13.0b/18.0a"},{"town":"波止場町","koaza":"","lat":34.68268,"lng":135.187021,"version":"13.0b/18.0a"},{"town":"元町通六丁目","koaza":"","lat":34.683759,"lng":135.180352,"version":"13.0b/18.0a"},{"town":"中山手通五丁目","koaza":"","lat":34.692088,"lng":135.18215,"version":"13.0b/18.0a"},{"town":"花隈町","koaza":"","lat":34.688089,"lng":135.181392,"version":"13.0b/18.0a"},{"town":"多聞通二丁目","koaza":"","lat":34.681612,"lng":135.17715,"version":"13.0b/18.0a"},{"town":"下山手通四丁目","koaza":"","lat":34.691691,"lng":135.185434,"version":"13.0b/18.0a"},{"town":"元町通三丁目","koaza":"","lat":34.687904,"lng":135.185225,"version":"13.0b/18.0a"},{"town":"栄町通三丁目","koaza":"","lat":34.686576,"lng":135.185842,"version":"13.0b/18.0a"},{"town":"海岸通四丁目","koaza":"","lat":34.685273,"lng":135.18458,"version":"13.0b/18.0a"},{"town":"栄町通四丁目","koaza":"","lat":34.685829,"lng":135.183871,"version":"13.0b/18.0a"},{"town":"北長狭通五丁目","koaza":"","lat":34.688981,"lng":135.184075,"version":"13.0b/18.0a"},{"town":"海岸通五丁目","koaza":"","lat":34.684323,"lng":135.183415,"version":"13.0b/18.0a"},{"town":"海岸通六丁目","koaza":"","lat":34.683116,"lng":135.182704,"version":"13.0b/18.0a"},{"town":"元町通四丁目","koaza":"","lat":34.686835,"lng":135.183566,"version":"13.0b/18.0a"},{"town":"弁天町","koaza":"","lat":34.681889,"lng":135.183446,"version":"13.0b/18.0a"},{"town":"栄町通五丁目","koaza":"","lat":34.684616,"lng":135.182748,"version":"13.0b/18.0a"},{"town":"元町通五丁目","koaza":"","lat":34.685318,"lng":135.181901,"version":"13.0b/18.0a"},{"town":"栄町通七丁目","koaza":"","lat":34.681829,"lng":135.181108,"version":"13.0b/18.0a"},{"town":"栄町通六丁目","koaza":"","lat":34.683025,"lng":135.181676,"version":"13.0b/18.0a"},{"town":"北長狭通六丁目","koaza":"","lat":34.68699,"lng":135.181628,"version":"13.0b/18.0a"},{"town":"相生町一丁目","koaza":"","lat":34.681967,"lng":135.179533,"version":"13.0b/18.0a"},{"town":"元町通七丁目","koaza":"","lat":34.682858,"lng":135.179074,"version":"13.0b/18.0a"},{"town":"元町高架通","koaza":"","lat":34.686107,"lng":135.181456,"version":"13.0b/18.0a"},{"town":"北長狭通七丁目","koaza":"","lat":34.684986,"lng":135.179385,"version":"13.0b/18.0a"},{"town":"多聞通一丁目","koaza":"","lat":34.682223,"lng":135.177913,"version":"13.0b/18.0a"},{"town":"北長狭通八丁目","koaza":"","lat":34.683561,"lng":135.178011,"version":"13.0b/18.0a"},{"town":"下山手通八丁目","koaza":"","lat":34.686097,"lng":135.178809,"version":"13.0b/18.0a"},{"town":"橘通一丁目","koaza":"","lat":34.683127,"lng":135.177347,"version":"13.0b/18.0a"},{"town":"橘通二丁目","koaza":"","lat":34.682601,"lng":135.176299,"version":"13.0b/18.0a"},{"town":"楠町一丁目","koaza":"","lat":34.684593,"lng":135.176723,"version":"13.0b/18.0a"},{"town":"下山手通九丁目","koaza":"","lat":34.685953,"lng":135.176615,"version":"13.0b/18.0a"},{"town":"中山手通八丁目","koaza":"","lat":34.687921,"lng":135.174189,"version":"13.0b/18.0a"},{"town":"楠町二丁目","koaza":"","lat":34.683557,"lng":135.175493,"version":"13.0b/18.0a"},{"town":"楠町三丁目","koaza":"","lat":34.684455,"lng":135.17479,"version":"13.0b/18.0a"},{"town":"橘通三丁目","koaza":"","lat":34.681277,"lng":135.174194,"version":"13.0b/18.0a"},{"town":"橘通四丁目","koaza":"","lat":34.68092,"lng":135.173321,"version":"13.0b/18.0a"},{"town":"楠町五丁目","koaza":"","lat":34.682299,"lng":135.173449,"version":"13.0b/18.0a"},{"town":"楠町四丁目","koaza":"","lat":34.683531,"lng":135.17309,"version":"13.0b/18.0a"},{"town":"楠町六丁目","koaza":"","lat":34.682777,"lng":135.171486,"version":"13.0b/18.0a"},{"town":"楠町七丁目","koaza":"","lat":34.686148,"lng":135.172114,"version":"13.0b/18.0a"},{"town":"下山手通五丁目","koaza":"","lat":34.69041,"lng":135.183182,"version":"13.0b/18.0a"},{"town":"中山手通六丁目","koaza":"","lat":34.691216,"lng":135.180169,"version":"13.0b/18.0a"},{"town":"下山手通六丁目","koaza":"","lat":34.689906,"lng":135.180661,"version":"13.0b/18.0a"},{"town":"下山手通七丁目","koaza":"","lat":34.688217,"lng":135.178081,"version":"13.0b/18.0a"},{"town":"中山手通七丁目","koaza":"","lat":34.690481,"lng":135.176515,"version":"13.0b/18.0a"},{"town":"楠町八丁目","koaza":"","lat":34.687387,"lng":135.173421,"version":"13.0b/18.0a"},{"town":"港島五丁目","koaza":"","lat":34.677266,"lng":135.219238,"version":"13.0b/18.0a"},{"town":"港島中町一丁目","koaza":"","lat":34.674989,"lng":135.210669,"version":"13.0b/18.0a"},{"town":"港島四丁目","koaza":"","lat":34.680123,"lng":135.216217,"version":"13.0b/18.0a"},{"town":"港島三丁目","koaza":"","lat":34.677513,"lng":135.210099,"version":"13.0b/18.0a"},{"town":"港島二丁目","koaza":"","lat":34.674679,"lng":135.204825,"version":"13.0b/18.0a"},{"town":"東川崎町二丁目","koaza":"","lat":34.673476,"lng":135.186054,"version":"13.0b/18.0a"},{"town":"多聞通五丁目","koaza":"","lat":34.679988,"lng":135.174261,"version":"13.0b/18.0a"},{"town":"東川崎町七丁目","koaza":"","lat":34.67569,"lng":135.178976,"version":"13.0b/18.0a"},{"town":"東川崎町六丁目","koaza":"","lat":34.675364,"lng":135.180067,"version":"13.0b/18.0a"},{"town":"東川崎町三丁目","koaza":"","lat":34.674814,"lng":135.18258,"version":"13.0b/18.0a"},{"town":"東川崎町四丁目","koaza":"","lat":34.67506,"lng":135.181617,"version":"13.0b/18.0a"},{"town":"東川崎町五丁目","koaza":"","lat":34.67528,"lng":135.180921,"version":"13.0b/18.0a"},{"town":"東川崎町一丁目","koaza":"","lat":34.679078,"lng":135.181963,"version":"13.0b/18.0a"},{"town":"相生町三丁目","koaza":"","lat":34.67964,"lng":135.177507,"version":"13.0b/18.0a"},{"town":"相生町二丁目","koaza":"","lat":34.68108,"lng":135.177958,"version":"13.0b/18.0a"},{"town":"相生町四丁目","koaza":"","lat":34.677719,"lng":135.17712,"version":"13.0b/18.0a"},{"town":"古湊通一丁目","koaza":"","lat":34.678234,"lng":135.175941,"version":"13.0b/18.0a"},{"town":"中町通三丁目","koaza":"","lat":34.679027,"lng":135.175192,"version":"13.0b/18.0a"},{"town":"相生町五丁目","koaza":"","lat":34.676286,"lng":135.177213,"version":"13.0b/18.0a"},{"town":"多聞通三丁目","koaza":"","lat":34.681112,"lng":135.175881,"version":"13.0b/18.0a"},{"town":"中町通二丁目","koaza":"","lat":34.679321,"lng":135.176054,"version":"13.0b/18.0a"},{"town":"多聞通四丁目","koaza":"","lat":34.680307,"lng":135.175135,"version":"13.0b/18.0a"},{"town":"古湊通二丁目","koaza":"","lat":34.67751,"lng":135.175152,"version":"13.0b/18.0a"},{"town":"中町通四丁目","koaza":"","lat":34.678376,"lng":135.174312,"version":"13.0b/18.0a"},{"town":"葺合町","koaza":"寺ヶ谷","lat":34.710231,"lng":135.195123,"version":"13.0b/18.0a"},{"town":"港島八丁目","koaza":"","lat":34.665691,"lng":135.228664,"version":"14.0b/19.0a"},{"town":"港島七丁目","koaza":"","lat":34.672655,"lng":135.223518,"version":"14.0b/19.0a"},{"town":"港島一丁目","koaza":"","lat":34.665331,"lng":135.204586,"version":"14.0b/19.0a"},{"town":"港島六丁目","koaza":"","lat":34.670968,"lng":135.217411,"version":"14.0b/19.0a"},{"town":"港島中町二丁目","koaza":"","lat":34.671847,"lng":135.214396,"version":"14.0b/19.0a"},{"town":"港島中町三丁目","koaza":"","lat":34.670765,"lng":135.211547,"version":"14.0b/19.0a"},{"town":"港島中町四丁目","koaza":"","lat":34.670202,"lng":135.2083,"version":"14.0b/19.0a"},{"town":"神戸空港","koaza":"","lat":34.637702,"lng":135.224785,"version":"14.0b/19.0a"},{"town":"港島中町七丁目","koaza":"","lat":34.667534,"lng":135.21703,"version":"14.0b/19.0a"},{"town":"港島中町八丁目","koaza":"","lat":34.661571,"lng":135.212025,"version":"14.0b/19.0a"},{"town":"港島中町六丁目","koaza":"","lat":34.665724,"lng":135.212984,"version":"14.0b/19.0a"},{"town":"港島中町五丁目","koaza":"","lat":34.66374,"lng":135.208568,"version":"14.0b/19.0a"},{"town":"港島九丁目","koaza":"","lat":34.653891,"lng":135.234419,"version":"14.0b/19.0a"},{"town":"港島南町六丁目","koaza":"","lat":34.657299,"lng":135.220303,"version":"14.0b/19.0a"},{"town":"港島南町五丁目","koaza":"","lat":34.655679,"lng":135.216956,"version":"14.0b/19.0a"},{"town":"港島南町七丁目","koaza":"","lat":34.653166,"lng":135.221678,"version":"14.0b/19.0a"},{"town":"港島南町四丁目","koaza":"","lat":34.65469,"lng":135.213271,"version":"14.0b/19.0a"},{"town":"港島南町三丁目","koaza":"","lat":34.657825,"lng":135.210175,"version":"14.0b/19.0a"},{"town":"港島南町一丁目","koaza":"","lat":34.660846,"lng":135.218296,"version":"14.0b/19.0a"},{"town":"港島南町二丁目","koaza":"","lat":34.659412,"lng":135.214831,"version":"14.0b/19.0a"},{"town":"脇浜海岸通","koaza":"","lat":34.701149,"lng":135.215668,"version":"14.0b/19.0a"},{"town":"中島通一丁目","koaza":"","lat":34.71342,"lng":135.209769,"version":"14.0b/19.0a"},{"town":"中島通二丁目","koaza":"","lat":34.713135,"lng":135.209013,"version":"14.0b/19.0a"},{"town":"中島通三丁目","koaza":"","lat":34.712705,"lng":135.208125,"version":"14.0b/19.0a"},{"town":"神仙寺通二丁目","koaza":"","lat":34.714242,"lng":135.208615,"version":"14.0b/19.0a"},{"town":"神仙寺通一丁目","koaza":"","lat":34.715138,"lng":135.208164,"version":"14.0b/19.0a"},{"town":"神仙寺通三丁目","koaza":"","lat":34.713402,"lng":135.206944,"version":"14.0b/19.0a"},{"town":"神仙寺通四丁目","koaza":"","lat":34.713108,"lng":135.20569,"version":"14.0b/19.0a"},{"town":"大日通二丁目","koaza":"","lat":34.706074,"lng":135.212168,"version":"14.0b/19.0a"},{"town":"大日通三丁目","koaza":"","lat":34.705791,"lng":135.210953,"version":"14.0b/19.0a"},{"town":"籠池通二丁目","koaza":"","lat":34.711886,"lng":135.209568,"version":"14.0b/19.0a"},{"town":"坂口通七丁目","koaza":"","lat":34.706637,"lng":135.205361,"version":"14.0b/19.0a"},{"town":"熊内橋通一丁目","koaza":"","lat":34.706084,"lng":135.204153,"version":"14.0b/19.0a"},{"town":"神若通四丁目","koaza":"","lat":34.703233,"lng":135.202266,"version":"14.0b/19.0a"},{"town":"中尾町","koaza":"","lat":34.710262,"lng":135.203139,"version":"14.0b/19.0a"},{"town":"若菜通三丁目","koaza":"","lat":34.702047,"lng":135.203949,"version":"14.0b/19.0a"},{"town":"国香通三丁目","koaza":"","lat":34.702557,"lng":135.203626,"version":"14.0b/19.0a"},{"town":"国香通二丁目","koaza":"","lat":34.703061,"lng":135.204508,"version":"14.0b/19.0a"},{"town":"若菜通一丁目","koaza":"","lat":34.70332,"lng":135.205732,"version":"14.0b/19.0a"},{"town":"中島通四丁目","koaza":"","lat":34.711845,"lng":135.206416,"version":"14.0b/19.0a"},{"town":"籠池通一丁目","koaza":"","lat":34.712047,"lng":135.21049,"version":"14.0b/19.0a"},{"town":"坂口通一丁目","koaza":"","lat":34.708325,"lng":135.212445,"version":"14.0b/19.0a"},{"town":"上筒井通一丁目","koaza":"","lat":34.709257,"lng":135.211894,"version":"14.0b/19.0a"},{"town":"野崎通一丁目","koaza":"","lat":34.710302,"lng":135.210434,"version":"14.0b/19.0a"},{"town":"野崎通二丁目","koaza":"","lat":34.709823,"lng":135.208465,"version":"14.0b/19.0a"},{"town":"籠池通三丁目","koaza":"","lat":34.711292,"lng":135.208701,"version":"14.0b/19.0a"},{"town":"野崎通三丁目","koaza":"","lat":34.709574,"lng":135.207367,"version":"14.0b/19.0a"},{"town":"籠池通四丁目","koaza":"","lat":34.711039,"lng":135.207177,"version":"14.0b/19.0a"},{"town":"上筒井通五丁目","koaza":"","lat":34.708179,"lng":135.207602,"version":"14.0b/19.0a"},{"town":"籠池通五丁目","koaza":"","lat":34.710467,"lng":135.20604,"version":"14.0b/19.0a"},{"town":"野崎通四丁目","koaza":"","lat":34.709239,"lng":135.206462,"version":"14.0b/19.0a"},{"town":"籠池通六丁目","koaza":"","lat":34.710064,"lng":135.205339,"version":"14.0b/19.0a"},{"town":"野崎通五丁目","koaza":"","lat":34.708959,"lng":135.205714,"version":"14.0b/19.0a"},{"town":"野崎通七丁目","koaza":"","lat":34.708437,"lng":135.20411,"version":"14.0b/19.0a"},{"town":"野崎通六丁目","koaza":"","lat":34.708725,"lng":135.204962,"version":"14.0b/19.0a"},{"town":"上筒井通七丁目","koaza":"","lat":34.707554,"lng":135.204864,"version":"14.0b/19.0a"},{"town":"坂口通五丁目","koaza":"","lat":34.707276,"lng":135.208029,"version":"14.0b/19.0a"},{"town":"上筒井通六丁目","koaza":"","lat":34.707879,"lng":135.20615,"version":"14.0b/19.0a"},{"town":"坂口通六丁目","koaza":"","lat":34.706963,"lng":135.206689,"version":"14.0b/19.0a"},{"town":"宮本通六丁目","koaza":"","lat":34.705949,"lng":135.207125,"version":"14.0b/19.0a"},{"town":"宮本通五丁目","koaza":"","lat":34.7064,"lng":135.208241,"version":"14.0b/19.0a"},{"town":"上筒井通四丁目","koaza":"","lat":34.708593,"lng":135.208874,"version":"14.0b/19.0a"},{"town":"坂口通四丁目","koaza":"","lat":34.707551,"lng":135.209275,"version":"14.0b/19.0a"},{"town":"宮本通四丁目","koaza":"","lat":34.706535,"lng":135.209612,"version":"14.0b/19.0a"},{"town":"宮本通三丁目","koaza":"","lat":34.706781,"lng":135.210615,"version":"14.0b/19.0a"},{"town":"上筒井通二丁目","koaza":"","lat":34.708875,"lng":135.210914,"version":"14.0b/19.0a"},{"town":"上筒井通三丁目","koaza":"","lat":34.708653,"lng":135.210009,"version":"14.0b/19.0a"},{"town":"坂口通三丁目","koaza":"","lat":34.707794,"lng":135.210287,"version":"14.0b/19.0a"},{"town":"宮本通一丁目","koaza":"","lat":34.70733,"lng":135.212958,"version":"14.0b/19.0a"},{"town":"坂口通二丁目","koaza":"","lat":34.708043,"lng":135.211275,"version":"14.0b/19.0a"},{"town":"宮本通二丁目","koaza":"","lat":34.707058,"lng":135.21172,"version":"14.0b/19.0a"},{"town":"大日通一丁目","koaza":"","lat":34.706372,"lng":135.213544,"version":"14.0b/19.0a"},{"town":"割塚通一丁目","koaza":"","lat":34.705737,"lng":135.21393,"version":"14.0b/19.0a"},{"town":"割塚通五丁目","koaza":"","lat":34.704612,"lng":135.209106,"version":"14.0b/19.0a"},{"town":"大日通五丁目","koaza":"","lat":34.705202,"lng":135.208631,"version":"14.0b/19.0a"},{"town":"割塚通六丁目","koaza":"","lat":34.704352,"lng":135.20792,"version":"14.0b/19.0a"},{"town":"大日通六丁目","koaza":"","lat":34.704957,"lng":135.207609,"version":"14.0b/19.0a"},{"town":"割塚通七丁目","koaza":"","lat":34.703943,"lng":135.206993,"version":"14.0b/19.0a"},{"town":"神若通一丁目","koaza":"","lat":34.704258,"lng":135.205239,"version":"14.0b/19.0a"},{"town":"国香通一丁目","koaza":"","lat":34.703698,"lng":135.205595,"version":"14.0b/19.0a"},{"town":"大日通七丁目","koaza":"","lat":34.704652,"lng":135.206433,"version":"14.0b/19.0a"},{"town":"旗塚通一丁目","koaza":"","lat":34.705045,"lng":135.204694,"version":"14.0b/19.0a"},{"town":"宮本通七丁目","koaza":"","lat":34.705623,"lng":135.205904,"version":"14.0b/19.0a"},{"town":"国香通四丁目","koaza":"","lat":34.702299,"lng":135.202609,"version":"14.0b/19.0a"},{"town":"国香通五丁目","koaza":"","lat":34.701959,"lng":135.201635,"version":"14.0b/19.0a"},{"town":"割塚通二丁目","koaza":"","lat":34.70536,"lng":135.212502,"version":"14.0b/19.0a"},{"town":"割塚通三丁目","koaza":"","lat":34.705084,"lng":135.211197,"version":"14.0b/19.0a"},{"town":"大日通四丁目","koaza":"","lat":34.705554,"lng":135.209953,"version":"14.0b/19.0a"},{"town":"脇浜町一丁目","koaza":"","lat":34.703584,"lng":135.213039,"version":"14.0b/19.0a"},{"town":"割塚通四丁目","koaza":"","lat":34.704864,"lng":135.210195,"version":"14.0b/19.0a"},{"town":"東雲通一丁目","koaza":"","lat":34.702378,"lng":135.20633,"version":"14.0b/19.0a"},{"town":"東雲通二丁目","koaza":"","lat":34.701831,"lng":135.205236,"version":"14.0b/19.0a"},{"town":"若菜通二丁目","koaza":"","lat":34.702605,"lng":135.20475,"version":"14.0b/19.0a"},{"town":"神若通五丁目","koaza":"","lat":34.703013,"lng":135.20135,"version":"14.0b/19.0a"},{"town":"神若通二丁目","koaza":"","lat":34.703854,"lng":135.204137,"version":"14.0b/19.0a"},{"town":"神若通三丁目","koaza":"","lat":34.703545,"lng":135.203203,"version":"14.0b/19.0a"},{"town":"旗塚通三丁目","koaza":"","lat":34.704511,"lng":135.202742,"version":"14.0b/19.0a"},{"town":"旗塚通四丁目","koaza":"","lat":34.70402,"lng":135.20177,"version":"14.0b/19.0a"},{"town":"熊内橋通三丁目","koaza":"","lat":34.705506,"lng":135.20229,"version":"14.0b/19.0a"},{"town":"旗塚通二丁目","koaza":"","lat":34.704822,"lng":135.203465,"version":"14.0b/19.0a"},{"town":"熊内橋通四丁目","koaza":"","lat":34.705148,"lng":135.201336,"version":"14.0b/19.0a"},{"town":"熊内橋通二丁目","koaza":"","lat":34.705865,"lng":135.203015,"version":"14.0b/19.0a"},{"town":"熊内町一丁目","koaza":"","lat":34.70745,"lng":135.203095,"version":"14.0b/19.0a"},{"town":"中島通五丁目","koaza":"","lat":34.71157,"lng":135.205023,"version":"14.0b/19.0a"},{"town":"籠池通七丁目","koaza":"","lat":34.709429,"lng":135.204418,"version":"14.0b/19.0a"},{"town":"神若通六丁目","koaza":"","lat":34.702523,"lng":135.200117,"version":"14.0b/19.0a"},{"town":"旗塚通五丁目","koaza":"","lat":34.703797,"lng":135.200731,"version":"14.0b/19.0a"},{"town":"葺合町","koaza":"","lat":34.720759,"lng":135.194373,"version":"14.0b/19.0a"},{"town":"生田町三丁目","koaza":"","lat":34.701722,"lng":135.197678,"version":"14.0b/19.0a"},{"town":"旗塚通六丁目","koaza":"","lat":34.70345,"lng":135.199676,"version":"14.0b/19.0a"},{"town":"熊内橋通六丁目","koaza":"","lat":34.70447,"lng":135.19919,"version":"14.0b/19.0a"},{"town":"熊内橋通五丁目","koaza":"","lat":34.704827,"lng":135.200232,"version":"14.0b/19.0a"},{"town":"熊内町二丁目","koaza":"","lat":34.706946,"lng":135.201407,"version":"14.0b/19.0a"},{"town":"熊内町三丁目","koaza":"","lat":34.706513,"lng":135.199961,"version":"14.0b/19.0a"},{"town":"布引町一丁目","koaza":"","lat":34.703413,"lng":135.195584,"version":"14.0b/19.0a"},{"town":"加納町一丁目","koaza":"","lat":34.705242,"lng":135.195102,"version":"14.0b/19.0a"},{"town":"熊内橋通七丁目","koaza":"","lat":34.704122,"lng":135.198089,"version":"14.0b/19.0a"},{"town":"熊内町四丁目","koaza":"","lat":34.705879,"lng":135.198345,"version":"14.0b/19.0a"},{"town":"熊内町七丁目","koaza":"","lat":34.706967,"lng":135.197227,"version":"14.0b/19.0a"},{"town":"生田町一丁目","koaza":"","lat":34.704328,"lng":135.196625,"version":"14.0b/19.0a"},{"town":"熊内町五丁目","koaza":"","lat":34.709805,"lng":135.201123,"version":"14.0b/19.0a"},{"town":"熊内町八丁目","koaza":"","lat":34.710539,"lng":135.198548,"version":"14.0b/19.0a"},{"town":"熊内町六丁目","koaza":"","lat":34.70862,"lng":135.199601,"version":"14.0b/19.0a"},{"town":"熊内町九丁目","koaza":"","lat":34.709754,"lng":135.197649,"version":"14.0b/19.0a"},{"town":"旗塚通七丁目","koaza":"","lat":34.703118,"lng":135.198633,"version":"14.0b/19.0a"},{"town":"生田町二丁目","koaza":"","lat":34.70226,"lng":135.196677,"version":"14.0b/19.0a"},{"town":"脇浜海岸通四丁目","koaza":"","lat":34.694454,"lng":135.207922,"version":"14.0b/19.0a"},{"town":"脇浜海岸通一丁目","koaza":"","lat":34.697438,"lng":135.214328,"version":"14.0b/19.0a"},{"town":"国香通六丁目","koaza":"","lat":34.70163,"lng":135.200549,"version":"14.0b/19.0a"},{"town":"脇浜町二丁目","koaza":"","lat":34.701557,"lng":135.213693,"version":"14.0b/19.0a"},{"town":"脇浜海岸通二丁目","koaza":"","lat":34.699384,"lng":135.21408,"version":"14.0b/19.0a"},{"town":"吾妻通二丁目","koaza":"","lat":34.699172,"lng":135.206863,"version":"14.0b/19.0a"},{"town":"八雲通一丁目","koaza":"","lat":34.701308,"lng":135.20699,"version":"14.0b/19.0a"},{"town":"筒井町一丁目","koaza":"","lat":34.702799,"lng":135.210223,"version":"14.0b/19.0a"},{"town":"筒井町二丁目","koaza":"","lat":34.702529,"lng":135.209085,"version":"14.0b/19.0a"},{"town":"東雲通三丁目","koaza":"","lat":34.701353,"lng":135.204343,"version":"14.0b/19.0a"},{"town":"八雲通三丁目","koaza":"","lat":34.700455,"lng":135.20485,"version":"14.0b/19.0a"},{"town":"若菜通四丁目","koaza":"","lat":34.701554,"lng":135.203096,"version":"14.0b/19.0a"},{"town":"八雲通四丁目","koaza":"","lat":34.700087,"lng":135.20391,"version":"14.0b/19.0a"},{"town":"東雲通四丁目","koaza":"","lat":34.700882,"lng":135.203463,"version":"14.0b/19.0a"},{"town":"東雲通五丁目","koaza":"","lat":34.700333,"lng":135.202454,"version":"14.0b/19.0a"},{"town":"若菜通五丁目","koaza":"","lat":34.701048,"lng":135.202084,"version":"14.0b/19.0a"},{"town":"東雲通六丁目","koaza":"","lat":34.699647,"lng":135.201158,"version":"14.0b/19.0a"},{"town":"八雲通五丁目","koaza":"","lat":34.699666,"lng":135.202832,"version":"14.0b/19.0a"},{"town":"八雲通六丁目","koaza":"","lat":34.699118,"lng":135.201494,"version":"14.0b/19.0a"},{"town":"日暮通六丁目","koaza":"","lat":34.698286,"lng":135.202012,"version":"14.0b/19.0a"},{"town":"雲井通一丁目","koaza":"","lat":34.696886,"lng":135.201584,"version":"14.0b/19.0a"},{"town":"日暮通五丁目","koaza":"","lat":34.698835,"lng":135.203316,"version":"14.0b/19.0a"},{"town":"吾妻通五丁目","koaza":"","lat":34.697861,"lng":135.203887,"version":"14.0b/19.0a"},{"town":"日暮通三丁目","koaza":"","lat":34.699634,"lng":135.205325,"version":"14.0b/19.0a"},{"town":"日暮通四丁目","koaza":"","lat":34.699258,"lng":135.204391,"version":"14.0b/19.0a"},{"town":"八雲通二丁目","koaza":"","lat":34.700841,"lng":135.205825,"version":"14.0b/19.0a"},{"town":"日暮通二丁目","koaza":"","lat":34.700031,"lng":135.206322,"version":"14.0b/19.0a"},{"town":"筒井町三丁目","koaza":"","lat":34.702082,"lng":135.20802,"version":"14.0b/19.0a"},{"town":"日暮通一丁目","koaza":"","lat":34.700499,"lng":135.207494,"version":"14.0b/19.0a"},{"town":"脇浜町三丁目","koaza":"","lat":34.699931,"lng":135.210661,"version":"14.0b/19.0a"},{"town":"北本町通二丁目","koaza":"","lat":34.698344,"lng":135.207356,"version":"14.0b/19.0a"},{"town":"吾妻通一丁目","koaza":"","lat":34.699683,"lng":135.207999,"version":"14.0b/19.0a"},{"town":"北本町通一丁目","koaza":"","lat":34.69874,"lng":135.208584,"version":"14.0b/19.0a"},{"town":"南本町通二丁目","koaza":"","lat":34.697259,"lng":135.208061,"version":"14.0b/19.0a"},{"town":"南本町通一丁目","koaza":"","lat":34.697924,"lng":135.208797,"version":"14.0b/19.0a"},{"town":"南本町通三丁目","koaza":"","lat":34.696854,"lng":135.206954,"version":"14.0b/19.0a"},{"town":"北本町通三丁目","koaza":"","lat":34.697702,"lng":135.206335,"version":"14.0b/19.0a"},{"town":"吾妻通三丁目","koaza":"","lat":34.698726,"lng":135.205846,"version":"14.0b/19.0a"},{"town":"北本町通四丁目","koaza":"","lat":34.697386,"lng":135.205476,"version":"14.0b/19.0a"},{"town":"吾妻通四丁目","koaza":"","lat":34.698302,"lng":135.204949,"version":"14.0b/19.0a"},{"town":"南本町通四丁目","koaza":"","lat":34.696327,"lng":135.206089,"version":"14.0b/19.0a"},{"town":"脇浜海岸通三丁目","koaza":"","lat":34.6955,"lng":135.207234,"version":"14.0b/19.0a"},{"town":"北本町通五丁目","koaza":"","lat":34.696997,"lng":135.204416,"version":"14.0b/19.0a"},{"town":"南本町通五丁目","koaza":"","lat":34.696083,"lng":135.204919,"version":"14.0b/19.0a"},{"town":"北本町通六丁目","koaza":"","lat":34.696416,"lng":135.203226,"version":"14.0b/19.0a"},{"town":"吾妻通六丁目","koaza":"","lat":34.697342,"lng":135.20259,"version":"14.0b/19.0a"},{"town":"真砂通一丁目","koaza":"","lat":34.695282,"lng":135.205167,"version":"14.0b/19.0a"},{"town":"浜辺通一丁目","koaza":"","lat":34.692714,"lng":135.202839,"version":"14.0b/19.0a"},{"town":"南本町通六丁目","koaza":"","lat":34.695551,"lng":135.203661,"version":"14.0b/19.0a"},{"town":"磯上通一丁目","koaza":"","lat":34.694063,"lng":135.203231,"version":"14.0b/19.0a"},{"town":"真砂通二丁目","koaza":"","lat":34.694282,"lng":135.204158,"version":"14.0b/19.0a"},{"town":"小野柄通一丁目","koaza":"","lat":34.695971,"lng":135.2021,"version":"14.0b/19.0a"},{"town":"御幸通一丁目","koaza":"","lat":34.695213,"lng":135.202599,"version":"14.0b/19.0a"},{"town":"小野柄通二丁目","koaza":"","lat":34.695523,"lng":135.201071,"version":"14.0b/19.0a"},{"town":"御幸通二丁目","koaza":"","lat":34.694725,"lng":135.201691,"version":"14.0b/19.0a"},{"town":"磯上通二丁目","koaza":"","lat":34.69366,"lng":135.202331,"version":"14.0b/19.0a"},{"town":"二宮町二丁目","koaza":"","lat":34.699851,"lng":135.197159,"version":"14.0b/19.0a"},{"town":"雲井通二丁目","koaza":"","lat":34.696512,"lng":135.200599,"version":"14.0b/19.0a"},{"town":"雲井通四丁目","koaza":"","lat":34.695457,"lng":135.198538,"version":"14.0b/19.0a"},{"town":"中山手通二丁目","koaza":"","lat":34.695658,"lng":135.188978,"version":"14.0b/19.0a"},{"town":"中山手通一丁目","koaza":"","lat":34.696093,"lng":135.19165,"version":"14.0b/19.0a"},{"town":"北野町一丁目","koaza":"","lat":34.701941,"lng":135.192864,"version":"14.0b/19.0a"},{"town":"北野町三丁目","koaza":"","lat":34.7006,"lng":135.189257,"version":"14.0b/19.0a"},{"town":"山本通三丁目","koaza":"","lat":34.697388,"lng":135.186188,"version":"14.0b/19.0a"},{"town":"雲井通三丁目","koaza":"","lat":34.69599,"lng":135.199696,"version":"14.0b/19.0a"},{"town":"磯上通三丁目","koaza":"","lat":34.693201,"lng":135.20128,"version":"14.0b/19.0a"},{"town":"小野柄通三丁目","koaza":"","lat":34.695166,"lng":135.200064,"version":"14.0b/19.0a"},{"town":"御幸通三丁目","koaza":"","lat":34.694368,"lng":135.200553,"version":"14.0b/19.0a"},{"town":"神若通七丁目","koaza":"","lat":34.701959,"lng":135.199278,"version":"14.0b/19.0a"},{"town":"二宮町一丁目","koaza":"","lat":34.700185,"lng":135.198695,"version":"14.0b/19.0a"},{"town":"布引町二丁目","koaza":"","lat":34.700746,"lng":135.194646,"version":"14.0b/19.0a"},{"town":"生田町四丁目","koaza":"","lat":34.700903,"lng":135.195683,"version":"14.0b/19.0a"},{"town":"国香通七丁目","koaza":"","lat":34.701106,"lng":135.199742,"version":"14.0b/19.0a"},{"town":"若菜通六丁目","koaza":"","lat":34.700492,"lng":135.200651,"version":"14.0b/19.0a"},{"town":"八幡通一丁目","koaza":"","lat":34.691947,"lng":135.200623,"version":"14.0b/19.0a"},{"town":"旭通一丁目","koaza":"","lat":34.698259,"lng":135.200631,"version":"14.0b/19.0a"},{"town":"旭通二丁目","koaza":"","lat":34.697754,"lng":135.199834,"version":"14.0b/19.0a"},{"town":"琴ノ緒町一丁目","koaza":"","lat":34.698453,"lng":135.198469,"version":"14.0b/19.0a"},{"town":"二宮町三丁目","koaza":"","lat":34.699352,"lng":135.196028,"version":"14.0b/19.0a"},{"town":"旭通三丁目","koaza":"","lat":34.697275,"lng":135.19873,"version":"14.0b/19.0a"},{"town":"琴ノ緒町二丁目","koaza":"","lat":34.697669,"lng":135.197377,"version":"14.0b/19.0a"},{"town":"旭通四丁目","koaza":"","lat":34.696573,"lng":135.197849,"version":"14.0b/19.0a"},{"town":"琴ノ緒町四丁目","koaza":"","lat":34.696562,"lng":135.195574,"version":"14.0b/19.0a"},{"town":"琴ノ緒町三丁目","koaza":"","lat":34.697076,"lng":135.196321,"version":"14.0b/19.0a"},{"town":"二宮町四丁目","koaza":"","lat":34.698902,"lng":135.195079,"version":"14.0b/19.0a"},{"town":"御幸通四丁目","koaza":"","lat":34.693824,"lng":135.199512,"version":"14.0b/19.0a"},{"town":"磯上通四丁目","koaza":"","lat":34.692839,"lng":135.200134,"version":"14.0b/19.0a"},{"town":"御幸通五丁目","koaza":"","lat":34.693411,"lng":135.198529,"version":"14.0b/19.0a"},{"town":"小野柄通四丁目","koaza":"","lat":34.694728,"lng":135.199088,"version":"14.0b/19.0a"},{"town":"雲井通五丁目","koaza":"","lat":34.695163,"lng":135.197485,"version":"14.0b/19.0a"},{"town":"磯上通五丁目","koaza":"","lat":34.692643,"lng":135.199002,"version":"14.0b/19.0a"},{"town":"小野柄通五丁目","koaza":"","lat":34.69422,"lng":135.198045,"version":"14.0b/19.0a"},{"town":"小野柄通六丁目","koaza":"","lat":34.693883,"lng":135.197231,"version":"14.0b/19.0a"},{"town":"旭通五丁目","koaza":"","lat":34.695878,"lng":135.196956,"version":"14.0b/19.0a"},{"town":"雲井通六丁目","koaza":"","lat":34.694671,"lng":135.196631,"version":"14.0b/19.0a"},{"town":"雲井通七丁目","koaza":"","lat":34.694518,"lng":135.195992,"version":"14.0b/19.0a"},{"town":"琴ノ緒町五丁目","koaza":"","lat":34.696161,"lng":135.194796,"version":"14.0b/19.0a"},{"town":"御幸通六丁目","koaza":"","lat":34.69307,"lng":135.197717,"version":"14.0b/19.0a"},{"town":"小野柄通七丁目","koaza":"","lat":34.693547,"lng":135.19629,"version":"14.0b/19.0a"},{"town":"小野柄通八丁目","koaza":"","lat":34.693085,"lng":135.195211,"version":"14.0b/19.0a"},{"town":"磯上通六丁目","koaza":"","lat":34.692301,"lng":135.198187,"version":"14.0b/19.0a"},{"town":"御幸通八丁目","koaza":"","lat":34.692148,"lng":135.195714,"version":"14.0b/19.0a"},{"town":"磯上通七丁目","koaza":"","lat":34.691923,"lng":135.197283,"version":"14.0b/19.0a"},{"town":"御幸通七丁目","koaza":"","lat":34.6927,"lng":135.19681,"version":"14.0b/19.0a"},{"town":"加納町五丁目","koaza":"","lat":34.692526,"lng":135.194659,"version":"14.0b/19.0a"},{"town":"雲井通八丁目","koaza":"","lat":34.694071,"lng":135.195138,"version":"14.0b/19.0a"},{"town":"加納町四丁目","koaza":"","lat":34.695075,"lng":135.193287,"version":"14.0b/19.0a"},{"town":"布引町四丁目","koaza":"","lat":34.695275,"lng":135.194047,"version":"14.0b/19.0a"},{"town":"布引町三丁目","koaza":"","lat":34.697691,"lng":135.19412,"version":"14.0b/19.0a"},{"town":"加納町三丁目","koaza":"","lat":34.697736,"lng":135.193053,"version":"14.0b/19.0a"},{"town":"加納町二丁目","koaza":"","lat":34.701177,"lng":135.193979,"version":"14.0b/19.0a"},{"town":"北野町二丁目","koaza":"","lat":34.701556,"lng":135.19103,"version":"14.0b/19.0a"},{"town":"山本通一丁目","koaza":"","lat":34.699199,"lng":135.191881,"version":"14.0b/19.0a"},{"town":"北野町四丁目","koaza":"","lat":34.69943,"lng":135.187502,"version":"14.0b/19.0a"},{"town":"山本通二丁目","koaza":"","lat":34.698101,"lng":135.189548,"version":"14.0b/19.0a"},{"town":"北長狭通一丁目","koaza":"","lat":34.693309,"lng":135.192426,"version":"14.0b/19.0a"},{"town":"下山手通一丁目","koaza":"","lat":34.694506,"lng":135.19081,"version":"14.0b/19.0a"},{"town":"下山手通二丁目","koaza":"","lat":34.693408,"lng":135.189925,"version":"14.0b/19.0a"},{"town":"北長狭通二丁目","koaza":"","lat":34.692139,"lng":135.190537,"version":"14.0b/19.0a"},{"town":"中山手通三丁目","koaza":"","lat":34.694519,"lng":135.187081,"version":"14.0b/19.0a"},{"town":"下山手通三丁目","koaza":"","lat":34.692628,"lng":135.188028,"version":"14.0b/19.0a"},{"town":"山本通四丁目","koaza":"","lat":34.695521,"lng":135.183504,"version":"14.0b/19.0a"},{"town":"諏訪山町","koaza":"","lat":34.695874,"lng":135.179146,"version":"14.0b/19.0a"},{"town":"中山手通四丁目","koaza":"","lat":34.693848,"lng":135.184556,"version":"14.0b/19.0a"},{"town":"再度筋町","koaza":"","lat":34.694445,"lng":135.1773,"version":"14.0b/19.0a"},{"town":"山本通五丁目","koaza":"","lat":34.693178,"lng":135.17966,"version":"14.0b/19.0a"},{"town":"神戸港地方","koaza":"","lat":34.709978,"lng":135.177107,"version":"14.0b/19.0a"},{"town":"浜辺通二丁目","koaza":"","lat":34.691763,"lng":135.201757,"version":"14.0b/19.0a"},{"town":"磯上通八丁目","koaza":"","lat":34.691302,"lng":135.196238,"version":"14.0b/19.0a"},{"town":"八幡通四丁目","koaza":"","lat":34.690024,"lng":135.196779,"version":"14.0b/19.0a"},{"town":"海岸通二丁目","koaza":"","lat":34.686174,"lng":135.187875,"version":"14.0b/19.0a"},{"town":"元町通一丁目","koaza":"","lat":34.689056,"lng":135.188685,"version":"14.0b/19.0a"},{"town":"元町通二丁目","koaza":"","lat":34.68871,"lng":135.187122,"version":"14.0b/19.0a"},{"town":"浜辺通三丁目","koaza":"","lat":34.690186,"lng":135.20107,"version":"14.0b/19.0a"},{"town":"小野浜町","koaza":"","lat":34.689192,"lng":135.209057,"version":"14.0b/19.0a"},{"town":"浜辺通六丁目","koaza":"","lat":34.68736,"lng":135.198782,"version":"14.0b/19.0a"},{"town":"新港町","koaza":"","lat":34.682556,"lng":135.201794,"version":"14.0b/19.0a"},{"town":"海岸通","koaza":"","lat":34.686574,"lng":135.192926,"version":"14.0b/19.0a"},{"town":"前町","koaza":"","lat":34.687188,"lng":135.190349,"version":"14.0b/19.0a"},{"town":"海岸通一丁目","koaza":"","lat":34.686415,"lng":135.189156,"version":"14.0b/19.0a"},{"town":"栄町通一丁目","koaza":"","lat":34.687583,"lng":135.188912,"version":"14.0b/19.0a"},{"town":"栄町通二丁目","koaza":"","lat":34.687263,"lng":135.187504,"version":"14.0b/19.0a"},{"town":"海岸通三丁目","koaza":"","lat":34.685844,"lng":135.186339,"version":"14.0b/19.0a"},{"town":"磯辺通一丁目","koaza":"","lat":34.690991,"lng":135.200396,"version":"14.0b/19.0a"},{"town":"浜辺通四丁目","koaza":"","lat":34.688864,"lng":135.200562,"version":"14.0b/19.0a"},{"town":"磯辺通二丁目","koaza":"","lat":34.689978,"lng":135.199619,"version":"14.0b/19.0a"},{"town":"八幡通二丁目","koaza":"","lat":34.691581,"lng":135.199301,"version":"14.0b/19.0a"},{"town":"浜辺通五丁目","koaza":"","lat":34.688244,"lng":135.199761,"version":"14.0b/19.0a"},{"town":"磯辺通三丁目","koaza":"","lat":34.689451,"lng":135.198677,"version":"14.0b/19.0a"},{"town":"八幡通三丁目","koaza":"","lat":34.690928,"lng":135.197766,"version":"14.0b/19.0a"},{"town":"磯辺通四丁目","koaza":"","lat":34.688834,"lng":135.197651,"version":"14.0b/19.0a"},{"town":"加納町六丁目","koaza":"","lat":34.688801,"lng":135.196121,"version":"14.0b/19.0a"},{"town":"東町","koaza":"","lat":34.688552,"lng":135.195268,"version":"14.0b/19.0a"},{"town":"伊藤町","koaza":"","lat":34.687976,"lng":135.194935,"version":"14.0b/19.0a"},{"town":"江戸町","koaza":"","lat":34.688876,"lng":135.194294,"version":"14.0b/19.0a"},{"town":"京町","koaza":"","lat":34.688797,"lng":135.193369,"version":"14.0b/19.0a"},{"town":"三宮町一丁目","koaza":"","lat":34.691756,"lng":135.1933,"version":"14.0b/19.0a"},{"town":"浪花町","koaza":"","lat":34.688569,"lng":135.19263,"version":"14.0b/19.0a"},{"town":"播磨町","koaza":"","lat":34.688383,"lng":135.191853,"version":"14.0b/19.0a"},{"town":"三宮町二丁目","koaza":"","lat":34.690546,"lng":135.191249,"version":"14.0b/19.0a"},{"town":"明石町","koaza":"","lat":34.688216,"lng":135.190918,"version":"14.0b/19.0a"},{"town":"西町","koaza":"","lat":34.688218,"lng":135.190028,"version":"14.0b/19.0a"},{"town":"三宮町三丁目","koaza":"","lat":34.689889,"lng":135.189823,"version":"14.0b/19.0a"},{"town":"北長狭通三丁目","koaza":"","lat":34.691205,"lng":135.188946,"version":"14.0b/19.0a"},{"town":"北長狭通四丁目","koaza":"","lat":34.690444,"lng":135.186818,"version":"14.0b/19.0a"},{"town":"波止場町","koaza":"","lat":34.68268,"lng":135.187021,"version":"14.0b/19.0a"},{"town":"元町通六丁目","koaza":"","lat":34.683759,"lng":135.180352,"version":"14.0b/19.0a"},{"town":"中山手通五丁目","koaza":"","lat":34.692088,"lng":135.18215,"version":"14.0b/19.0a"},{"town":"花隈町","koaza":"","lat":34.688089,"lng":135.181392,"version":"14.0b/19.0a"},{"town":"多聞通二丁目","koaza":"","lat":34.681612,"lng":135.17715,"version":"14.0b/19.0a"},{"town":"下山手通四丁目","koaza":"","lat":34.691691,"lng":135.185434,"version":"14.0b/19.0a"},{"town":"元町通三丁目","koaza":"","lat":34.687904,"lng":135.185225,"version":"14.0b/19.0a"},{"town":"栄町通三丁目","koaza":"","lat":34.686576,"lng":135.185842,"version":"14.0b/19.0a"},{"town":"海岸通四丁目","koaza":"","lat":34.685273,"lng":135.18458,"version":"14.0b/19.0a"},{"town":"栄町通四丁目","koaza":"","lat":34.685829,"lng":135.183871,"version":"14.0b/19.0a"},{"town":"北長狭通五丁目","koaza":"","lat":34.688981,"lng":135.184075,"version":"14.0b/19.0a"},{"town":"海岸通五丁目","koaza":"","lat":34.684323,"lng":135.183415,"version":"14.0b/19.0a"},{"town":"海岸通六丁目","koaza":"","lat":34.683116,"lng":135.182704,"version":"14.0b/19.0a"},{"town":"元町通四丁目","koaza":"","lat":34.686835,"lng":135.183566,"version":"14.0b/19.0a"},{"town":"弁天町","koaza":"","lat":34.681889,"lng":135.183446,"version":"14.0b/19.0a"},{"town":"栄町通五丁目","koaza":"","lat":34.684616,"lng":135.182748,"version":"14.0b/19.0a"},{"town":"元町通五丁目","koaza":"","lat":34.685318,"lng":135.181901,"version":"14.0b/19.0a"},{"town":"栄町通七丁目","koaza":"","lat":34.681829,"lng":135.181108,"version":"14.0b/19.0a"},{"town":"栄町通六丁目","koaza":"","lat":34.683025,"lng":135.181676,"version":"14.0b/19.0a"},{"town":"北長狭通六丁目","koaza":"","lat":34.68699,"lng":135.181628,"version":"14.0b/19.0a"},{"town":"相生町一丁目","koaza":"","lat":34.681967,"lng":135.179533,"version":"14.0b/19.0a"},{"town":"元町通七丁目","koaza":"","lat":34.682858,"lng":135.179074,"version":"14.0b/19.0a"},{"town":"元町高架通","koaza":"","lat":34.686107,"lng":135.181456,"version":"14.0b/19.0a"},{"town":"北長狭通七丁目","koaza":"","lat":34.684986,"lng":135.179385,"version":"14.0b/19.0a"},{"town":"多聞通一丁目","koaza":"","lat":34.682223,"lng":135.177913,"version":"14.0b/19.0a"},{"town":"北長狭通八丁目","koaza":"","lat":34.683561,"lng":135.178011,"version":"14.0b/19.0a"},{"town":"下山手通八丁目","koaza":"","lat":34.686097,"lng":135.178809,"version":"14.0b/19.0a"},{"town":"橘通一丁目","koaza":"","lat":34.683127,"lng":135.177347,"version":"14.0b/19.0a"},{"town":"橘通二丁目","koaza":"","lat":34.682601,"lng":135.176299,"version":"14.0b/19.0a"},{"town":"楠町一丁目","koaza":"","lat":34.684593,"lng":135.176723,"version":"14.0b/19.0a"},{"town":"下山手通九丁目","koaza":"","lat":34.685953,"lng":135.176615,"version":"14.0b/19.0a"},{"town":"中山手通八丁目","koaza":"","lat":34.687921,"lng":135.174189,"version":"14.0b/19.0a"},{"town":"楠町二丁目","koaza":"","lat":34.683557,"lng":135.175493,"version":"14.0b/19.0a"},{"town":"楠町三丁目","koaza":"","lat":34.684455,"lng":135.17479,"version":"14.0b/19.0a"},{"town":"橘通三丁目","koaza":"","lat":34.681277,"lng":135.174194,"version":"14.0b/19.0a"},{"town":"橘通四丁目","koaza":"","lat":34.68092,"lng":135.173321,"version":"14.0b/19.0a"},{"town":"楠町五丁目","koaza":"","lat":34.682299,"lng":135.173449,"version":"14.0b/19.0a"},{"town":"楠町四丁目","koaza":"","lat":34.683531,"lng":135.17309,"version":"14.0b/19.0a"},{"town":"楠町六丁目","koaza":"","lat":34.682777,"lng":135.171486,"version":"14.0b/19.0a"},{"town":"楠町七丁目","koaza":"","lat":34.686148,"lng":135.172114,"version":"14.0b/19.0a"},{"town":"下山手通五丁目","koaza":"","lat":34.69041,"lng":135.183182,"version":"14.0b/19.0a"},{"town":"中山手通六丁目","koaza":"","lat":34.691216,"lng":135.180169,"version":"14.0b/19.0a"},{"town":"下山手通六丁目","koaza":"","lat":34.689906,"lng":135.180661,"version":"14.0b/19.0a"},{"town":"下山手通七丁目","koaza":"","lat":34.688217,"lng":135.178081,"version":"14.0b/19.0a"},{"town":"中山手通七丁目","koaza":"","lat":34.690481,"lng":135.176515,"version":"14.0b/19.0a"},{"town":"楠町八丁目","koaza":"","lat":34.687387,"lng":135.173421,"version":"14.0b/19.0a"},{"town":"港島五丁目","koaza":"","lat":34.677266,"lng":135.219238,"version":"14.0b/19.0a"},{"town":"港島中町一丁目","koaza":"","lat":34.674989,"lng":135.210669,"version":"14.0b/19.0a"},{"town":"港島四丁目","koaza":"","lat":34.680123,"lng":135.216217,"version":"14.0b/19.0a"},{"town":"港島三丁目","koaza":"","lat":34.677513,"lng":135.210099,"version":"14.0b/19.0a"},{"town":"港島二丁目","koaza":"","lat":34.674679,"lng":135.204825,"version":"14.0b/19.0a"},{"town":"東川崎町二丁目","koaza":"","lat":34.673476,"lng":135.186054,"version":"14.0b/19.0a"},{"town":"多聞通五丁目","koaza":"","lat":34.679988,"lng":135.174261,"version":"14.0b/19.0a"},{"town":"東川崎町七丁目","koaza":"","lat":34.67569,"lng":135.178976,"version":"14.0b/19.0a"},{"town":"東川崎町六丁目","koaza":"","lat":34.675364,"lng":135.180067,"version":"14.0b/19.0a"},{"town":"東川崎町三丁目","koaza":"","lat":34.674814,"lng":135.18258,"version":"14.0b/19.0a"},{"town":"東川崎町四丁目","koaza":"","lat":34.67506,"lng":135.181617,"version":"14.0b/19.0a"},{"town":"東川崎町五丁目","koaza":"","lat":34.67528,"lng":135.180921,"version":"14.0b/19.0a"},{"town":"東川崎町一丁目","koaza":"","lat":34.679078,"lng":135.181963,"version":"14.0b/19.0a"},{"town":"相生町三丁目","koaza":"","lat":34.67964,"lng":135.177507,"version":"14.0b/19.0a"},{"town":"相生町二丁目","koaza":"","lat":34.68108,"lng":135.177958,"version":"14.0b/19.0a"},{"town":"相生町四丁目","koaza":"","lat":34.677719,"lng":135.17712,"version":"14.0b/19.0a"},{"town":"古湊通一丁目","koaza":"","lat":34.678234,"lng":135.175941,"version":"14.0b/19.0a"},{"town":"中町通三丁目","koaza":"","lat":34.679027,"lng":135.175192,"version":"14.0b/19.0a"},{"town":"相生町五丁目","koaza":"","lat":34.676286,"lng":135.177213,"version":"14.0b/19.0a"},{"town":"多聞通三丁目","koaza":"","lat":34.681112,"lng":135.175881,"version":"14.0b/19.0a"},{"town":"中町通二丁目","koaza":"","lat":34.679321,"lng":135.176054,"version":"14.0b/19.0a"},{"town":"多聞通四丁目","koaza":"","lat":34.680307,"lng":135.175135,"version":"14.0b/19.0a"},{"town":"古湊通二丁目","koaza":"","lat":34.67751,"lng":135.175152,"version":"14.0b/19.0a"},{"town":"中町通四丁目","koaza":"","lat":34.678376,"lng":135.174312,"version":"14.0b/19.0a"},{"town":"葺合町","koaza":"寺ヶ谷","lat":34.710231,"lng":135.195123,"version":"14.0b/19.0a"}]