[{"town":"大字赤嶺","koaza":"","lat":27.373161,"lng":128.604713,"version":"13.0b/18.0a"},{"town":"大字芦清良","koaza":"","lat":27.351009,"lng":128.591192,"version":"13.0b/18.0a"},{"town":"大字余多","koaza":"","lat":27.361215,"lng":128.610284,"version":"13.0b/18.0a"},{"town":"大字大津勘","koaza":"","lat":27.348341,"lng":128.546989,"version":"13.0b/18.0a"},{"town":"大字上城","koaza":"","lat":27.384129,"lng":128.572123,"version":"13.0b/18.0a"},{"town":"大字上平川","koaza":"","lat":27.369398,"lng":128.580676,"version":"13.0b/18.0a"},{"town":"大字久志検","koaza":"","lat":27.371373,"lng":128.597142,"version":"13.0b/18.0a"},{"town":"大字黒貫","koaza":"","lat":27.346158,"lng":128.586939,"version":"13.0b/18.0a"},{"town":"大字竿津","koaza":"","lat":27.369517,"lng":128.611981,"version":"13.0b/18.0a"},{"town":"大字下城","koaza":"","lat":27.382735,"lng":128.562389,"version":"13.0b/18.0a"},{"town":"大字下平川","koaza":"","lat":27.35896,"lng":128.601188,"version":"13.0b/18.0a"},{"town":"大字新城","koaza":"","lat":27.393812,"lng":128.570031,"version":"13.0b/18.0a"},{"town":"大字住吉","koaza":"","lat":27.365055,"lng":128.533191,"version":"13.0b/18.0a"},{"town":"大字瀬利覚","koaza":"","lat":27.338612,"lng":128.579971,"version":"13.0b/18.0a"},{"town":"大字田皆","koaza":"","lat":27.3877,"lng":128.538924,"version":"13.0b/18.0a"},{"town":"大字知名","koaza":"","lat":27.334355,"lng":128.567498,"version":"13.0b/18.0a"},{"town":"大字徳時","koaza":"","lat":27.353564,"lng":128.539921,"version":"13.0b/18.0a"},{"town":"大字正名","koaza":"","lat":27.370487,"lng":128.532294,"version":"13.0b/18.0a"},{"town":"大字屋子母","koaza":"","lat":27.339297,"lng":128.551529,"version":"13.0b/18.0a"},{"town":"大字屋者","koaza":"","lat":27.355916,"lng":128.601721,"version":"13.0b/18.0a"},{"town":"大字赤嶺","koaza":"","lat":27.373161,"lng":128.604713,"version":"14.0b/19.0a"},{"town":"大字芦清良","koaza":"","lat":27.351009,"lng":128.591192,"version":"14.0b/19.0a"},{"town":"大字余多","koaza":"","lat":27.361215,"lng":128.610284,"version":"14.0b/19.0a"},{"town":"大字大津勘","koaza":"","lat":27.348341,"lng":128.546989,"version":"14.0b/19.0a"},{"town":"大字上城","koaza":"","lat":27.384129,"lng":128.572123,"version":"14.0b/19.0a"},{"town":"大字上平川","koaza":"","lat":27.369398,"lng":128.580676,"version":"14.0b/19.0a"},{"town":"大字久志検","koaza":"","lat":27.371373,"lng":128.597142,"version":"14.0b/19.0a"},{"town":"大字黒貫","koaza":"","lat":27.346158,"lng":128.586939,"version":"14.0b/19.0a"},{"town":"大字竿津","koaza":"","lat":27.369517,"lng":128.611981,"version":"14.0b/19.0a"},{"town":"大字下城","koaza":"","lat":27.382735,"lng":128.562389,"version":"14.0b/19.0a"},{"town":"大字下平川","koaza":"","lat":27.35896,"lng":128.601188,"version":"14.0b/19.0a"},{"town":"大字新城","koaza":"","lat":27.393812,"lng":128.570031,"version":"14.0b/19.0a"},{"town":"大字住吉","koaza":"","lat":27.365055,"lng":128.533191,"version":"14.0b/19.0a"},{"town":"大字瀬利覚","koaza":"","lat":27.338612,"lng":128.579971,"version":"14.0b/19.0a"},{"town":"大字田皆","koaza":"","lat":27.3877,"lng":128.538924,"version":"14.0b/19.0a"},{"town":"大字知名","koaza":"","lat":27.334355,"lng":128.567498,"version":"14.0b/19.0a"},{"town":"大字徳時","koaza":"","lat":27.353564,"lng":128.539921,"version":"14.0b/19.0a"},{"town":"大字正名","koaza":"","lat":27.370487,"lng":128.532294,"version":"14.0b/19.0a"},{"town":"大字屋子母","koaza":"","lat":27.339297,"lng":128.551529,"version":"14.0b/19.0a"},{"town":"大字屋者","koaza":"","lat":27.355916,"lng":128.601721,"version":"14.0b/19.0a"}]