[{"town":"池島町","koaza":"","lat":31.717551,"lng":130.614762,"version":"13.0b/18.0a"},{"town":"大山","koaza":"","lat":31.765215,"lng":130.626532,"version":"13.0b/18.0a"},{"town":"加治木町朝日町","koaza":"","lat":31.734945,"lng":130.668879,"version":"13.0b/18.0a"},{"town":"加治木町仮屋町","koaza":"","lat":31.74117,"lng":130.664827,"version":"13.0b/18.0a"},{"town":"加治木町木田","koaza":"","lat":31.74001,"lng":130.645416,"version":"13.0b/18.0a"},{"town":"加治木町錦江町","koaza":"","lat":31.735334,"lng":130.661147,"version":"13.0b/18.0a"},{"town":"加治木町小山田","koaza":"","lat":31.77697,"lng":130.67756,"version":"13.0b/18.0a"},{"town":"加治木町新生町","koaza":"","lat":31.739198,"lng":130.655412,"version":"13.0b/18.0a"},{"town":"加治木町新富町","koaza":"","lat":31.741435,"lng":130.66918,"version":"13.0b/18.0a"},{"town":"加治木町諏訪町","koaza":"","lat":31.737656,"lng":130.669699,"version":"13.0b/18.0a"},{"town":"加治木町反土","koaza":"","lat":31.741457,"lng":130.659847,"version":"13.0b/18.0a"},{"town":"加治木町西別府","koaza":"","lat":31.788185,"lng":130.640065,"version":"13.0b/18.0a"},{"town":"加治木町日木山","koaza":"","lat":31.745601,"lng":130.677473,"version":"13.0b/18.0a"},{"town":"加治木町辺川","koaza":"","lat":31.791633,"lng":130.655472,"version":"13.0b/18.0a"},{"town":"加治木町港町","koaza":"","lat":31.731935,"lng":130.664407,"version":"13.0b/18.0a"},{"town":"加治木町本町","koaza":"","lat":31.737402,"lng":130.664589,"version":"13.0b/18.0a"},{"town":"上名","koaza":"","lat":31.808459,"lng":130.624599,"version":"13.0b/18.0a"},{"town":"蒲生町漆","koaza":"","lat":31.832088,"lng":130.549712,"version":"13.0b/18.0a"},{"town":"蒲生町上久徳","koaza":"","lat":31.766546,"lng":130.578594,"version":"13.0b/18.0a"},{"town":"蒲生町北","koaza":"","lat":31.777521,"lng":130.547721,"version":"13.0b/18.0a"},{"town":"蒲生町下久徳","koaza":"","lat":31.751609,"lng":130.585811,"version":"13.0b/18.0a"},{"town":"蒲生町白男","koaza":"","lat":31.760454,"lng":130.510485,"version":"13.0b/18.0a"},{"town":"蒲生町西浦","koaza":"","lat":31.809056,"lng":130.537748,"version":"13.0b/18.0a"},{"town":"蒲生町久末","koaza":"","lat":31.754698,"lng":130.540992,"version":"13.0b/18.0a"},{"town":"蒲生町米丸","koaza":"","lat":31.787738,"lng":130.570608,"version":"13.0b/18.0a"},{"town":"北山","koaza":"","lat":31.838625,"lng":130.603191,"version":"13.0b/18.0a"},{"town":"木津志","koaza":"","lat":31.822693,"lng":130.582699,"version":"13.0b/18.0a"},{"town":"三拾町","koaza":"","lat":31.750483,"lng":130.621851,"version":"13.0b/18.0a"},{"town":"下名","koaza":"","lat":31.768008,"lng":130.613033,"version":"13.0b/18.0a"},{"town":"住吉","koaza":"","lat":31.765586,"lng":130.592304,"version":"13.0b/18.0a"},{"town":"寺師","koaza":"","lat":31.779134,"lng":130.594723,"version":"13.0b/18.0a"},{"town":"豊留","koaza":"","lat":31.75506,"lng":130.613662,"version":"13.0b/18.0a"},{"town":"永池町","koaza":"","lat":31.716028,"lng":130.61185,"version":"13.0b/18.0a"},{"town":"永瀬","koaza":"","lat":31.757379,"lng":130.597611,"version":"13.0b/18.0a"},{"town":"中津野","koaza":"","lat":31.751901,"lng":130.609264,"version":"13.0b/18.0a"},{"town":"鍋倉","koaza":"","lat":31.748078,"lng":130.632447,"version":"13.0b/18.0a"},{"town":"西姶良一丁目","koaza":"","lat":31.729201,"lng":130.604102,"version":"13.0b/18.0a"},{"town":"西姶良二丁目","koaza":"","lat":31.731805,"lng":130.603415,"version":"13.0b/18.0a"},{"town":"西姶良三丁目","koaza":"","lat":31.731128,"lng":130.598345,"version":"13.0b/18.0a"},{"town":"西姶良四丁目","koaza":"","lat":31.734223,"lng":130.600329,"version":"13.0b/18.0a"},{"town":"西宮島町","koaza":"","lat":31.725194,"lng":130.621419,"version":"13.0b/18.0a"},{"town":"西餅田","koaza":"","lat":31.727597,"lng":130.617151,"version":"13.0b/18.0a"},{"town":"東餅田","koaza":"","lat":31.726143,"lng":130.635031,"version":"13.0b/18.0a"},{"town":"平松","koaza":"","lat":31.713483,"lng":130.588212,"version":"13.0b/18.0a"},{"town":"深水","koaza":"","lat":31.758644,"lng":130.619428,"version":"13.0b/18.0a"},{"town":"船津","koaza":"","lat":31.743272,"lng":130.602235,"version":"13.0b/18.0a"},{"town":"増田","koaza":"","lat":31.754602,"lng":130.603037,"version":"13.0b/18.0a"},{"town":"松原町一丁目","koaza":"","lat":31.719189,"lng":130.63044,"version":"13.0b/18.0a"},{"town":"松原町二丁目","koaza":"","lat":31.721842,"lng":130.63248,"version":"13.0b/18.0a"},{"town":"松原町三丁目","koaza":"","lat":31.723883,"lng":130.634011,"version":"13.0b/18.0a"},{"town":"宮島町","koaza":"","lat":31.726787,"lng":130.62662,"version":"13.0b/18.0a"},{"town":"脇元","koaza":"","lat":31.693821,"lng":130.610326,"version":"13.0b/18.0a"},{"town":"脇元","koaza":"橋ノ口","lat":31.706365,"lng":130.615396,"version":"13.0b/18.0a"},{"town":"西餅田","koaza":"上椨木","lat":31.737789,"lng":130.624225,"version":"13.0b/18.0a"},{"town":"加治木町木田","koaza":"松原添","lat":31.750607,"lng":130.664082,"version":"13.0b/18.0a"},{"town":"池島町","koaza":"","lat":31.717551,"lng":130.614762,"version":"14.0b/19.0a"},{"town":"大山","koaza":"","lat":31.765215,"lng":130.626532,"version":"14.0b/19.0a"},{"town":"加治木町朝日町","koaza":"","lat":31.734945,"lng":130.668879,"version":"14.0b/19.0a"},{"town":"加治木町仮屋町","koaza":"","lat":31.74117,"lng":130.664827,"version":"14.0b/19.0a"},{"town":"加治木町木田","koaza":"","lat":31.74001,"lng":130.645416,"version":"14.0b/19.0a"},{"town":"加治木町錦江町","koaza":"","lat":31.735334,"lng":130.661147,"version":"14.0b/19.0a"},{"town":"加治木町小山田","koaza":"","lat":31.77697,"lng":130.67756,"version":"14.0b/19.0a"},{"town":"加治木町新生町","koaza":"","lat":31.739198,"lng":130.655412,"version":"14.0b/19.0a"},{"town":"加治木町新富町","koaza":"","lat":31.741435,"lng":130.66918,"version":"14.0b/19.0a"},{"town":"加治木町諏訪町","koaza":"","lat":31.737656,"lng":130.669699,"version":"14.0b/19.0a"},{"town":"加治木町反土","koaza":"","lat":31.741457,"lng":130.659847,"version":"14.0b/19.0a"},{"town":"加治木町西別府","koaza":"","lat":31.788185,"lng":130.640065,"version":"14.0b/19.0a"},{"town":"加治木町日木山","koaza":"","lat":31.745601,"lng":130.677473,"version":"14.0b/19.0a"},{"town":"加治木町辺川","koaza":"","lat":31.791633,"lng":130.655472,"version":"14.0b/19.0a"},{"town":"加治木町港町","koaza":"","lat":31.731935,"lng":130.664407,"version":"14.0b/19.0a"},{"town":"加治木町本町","koaza":"","lat":31.737402,"lng":130.664589,"version":"14.0b/19.0a"},{"town":"上名","koaza":"","lat":31.808459,"lng":130.624599,"version":"14.0b/19.0a"},{"town":"蒲生町漆","koaza":"","lat":31.832088,"lng":130.549712,"version":"14.0b/19.0a"},{"town":"蒲生町上久徳","koaza":"","lat":31.766546,"lng":130.578594,"version":"14.0b/19.0a"},{"town":"蒲生町北","koaza":"","lat":31.777521,"lng":130.547721,"version":"14.0b/19.0a"},{"town":"蒲生町下久徳","koaza":"","lat":31.751609,"lng":130.585811,"version":"14.0b/19.0a"},{"town":"蒲生町白男","koaza":"","lat":31.760454,"lng":130.510485,"version":"14.0b/19.0a"},{"town":"蒲生町西浦","koaza":"","lat":31.809056,"lng":130.537748,"version":"14.0b/19.0a"},{"town":"蒲生町久末","koaza":"","lat":31.754698,"lng":130.540992,"version":"14.0b/19.0a"},{"town":"蒲生町米丸","koaza":"","lat":31.787738,"lng":130.570608,"version":"14.0b/19.0a"},{"town":"北山","koaza":"","lat":31.838625,"lng":130.603191,"version":"14.0b/19.0a"},{"town":"木津志","koaza":"","lat":31.822693,"lng":130.582699,"version":"14.0b/19.0a"},{"town":"三拾町","koaza":"","lat":31.750483,"lng":130.621851,"version":"14.0b/19.0a"},{"town":"下名","koaza":"","lat":31.768008,"lng":130.613033,"version":"14.0b/19.0a"},{"town":"住吉","koaza":"","lat":31.765586,"lng":130.592304,"version":"14.0b/19.0a"},{"town":"寺師","koaza":"","lat":31.779134,"lng":130.594723,"version":"14.0b/19.0a"},{"town":"豊留","koaza":"","lat":31.75506,"lng":130.613662,"version":"14.0b/19.0a"},{"town":"永池町","koaza":"","lat":31.716028,"lng":130.61185,"version":"14.0b/19.0a"},{"town":"永瀬","koaza":"","lat":31.757379,"lng":130.597611,"version":"14.0b/19.0a"},{"town":"中津野","koaza":"","lat":31.751901,"lng":130.609264,"version":"14.0b/19.0a"},{"town":"鍋倉","koaza":"","lat":31.748078,"lng":130.632447,"version":"14.0b/19.0a"},{"town":"西姶良一丁目","koaza":"","lat":31.729201,"lng":130.604102,"version":"14.0b/19.0a"},{"town":"西姶良二丁目","koaza":"","lat":31.731805,"lng":130.603415,"version":"14.0b/19.0a"},{"town":"西姶良三丁目","koaza":"","lat":31.731128,"lng":130.598345,"version":"14.0b/19.0a"},{"town":"西姶良四丁目","koaza":"","lat":31.734223,"lng":130.600329,"version":"14.0b/19.0a"},{"town":"西宮島町","koaza":"","lat":31.725194,"lng":130.621419,"version":"14.0b/19.0a"},{"town":"西餅田","koaza":"","lat":31.727597,"lng":130.617151,"version":"14.0b/19.0a"},{"town":"東餅田","koaza":"","lat":31.726143,"lng":130.635031,"version":"14.0b/19.0a"},{"town":"平松","koaza":"","lat":31.713483,"lng":130.588212,"version":"14.0b/19.0a"},{"town":"深水","koaza":"","lat":31.758644,"lng":130.619428,"version":"14.0b/19.0a"},{"town":"船津","koaza":"","lat":31.743272,"lng":130.602235,"version":"14.0b/19.0a"},{"town":"増田","koaza":"","lat":31.754602,"lng":130.603037,"version":"14.0b/19.0a"},{"town":"松原町一丁目","koaza":"","lat":31.719189,"lng":130.63044,"version":"14.0b/19.0a"},{"town":"松原町二丁目","koaza":"","lat":31.721842,"lng":130.63248,"version":"14.0b/19.0a"},{"town":"松原町三丁目","koaza":"","lat":31.723883,"lng":130.634011,"version":"14.0b/19.0a"},{"town":"宮島町","koaza":"","lat":31.726787,"lng":130.62662,"version":"14.0b/19.0a"},{"town":"脇元","koaza":"","lat":31.693821,"lng":130.610326,"version":"14.0b/19.0a"},{"town":"脇元","koaza":"橋ノ口","lat":31.706365,"lng":130.615396,"version":"14.0b/19.0a"},{"town":"西餅田","koaza":"上椨木","lat":31.737789,"lng":130.624225,"version":"14.0b/19.0a"},{"town":"加治木町木田","koaza":"松原添","lat":31.750607,"lng":130.664082,"version":"14.0b/19.0a"}]