[{"town":"あけぼの町","koaza":"","lat":31.264994,"lng":130.359852,"version":"13.0b/18.0a"},{"town":"旭町","koaza":"","lat":31.265717,"lng":130.300901,"version":"13.0b/18.0a"},{"town":"泉町","koaza":"","lat":31.267132,"lng":130.302417,"version":"13.0b/18.0a"},{"town":"板敷西町","koaza":"","lat":31.265647,"lng":130.323232,"version":"13.0b/18.0a"},{"town":"板敷本町","koaza":"","lat":31.267439,"lng":130.33608,"version":"13.0b/18.0a"},{"town":"板敷南町","koaza":"","lat":31.258813,"lng":130.3272,"version":"13.0b/18.0a"},{"town":"岩崎町","koaza":"","lat":31.280351,"lng":130.287395,"version":"13.0b/18.0a"},{"town":"岩戸町","koaza":"","lat":31.263393,"lng":130.313919,"version":"13.0b/18.0a"},{"town":"恵比須町","koaza":"","lat":31.262644,"lng":130.296923,"version":"13.0b/18.0a"},{"town":"大塚北町","koaza":"","lat":31.275334,"lng":130.270915,"version":"13.0b/18.0a"},{"town":"大塚中町","koaza":"","lat":31.269777,"lng":130.269021,"version":"13.0b/18.0a"},{"town":"大塚西町","koaza":"","lat":31.277187,"lng":130.254256,"version":"13.0b/18.0a"},{"town":"大塚南町","koaza":"","lat":31.266311,"lng":130.27112,"version":"13.0b/18.0a"},{"town":"折口町","koaza":"","lat":31.268692,"lng":130.296776,"version":"13.0b/18.0a"},{"town":"鹿篭麓町","koaza":"","lat":31.287712,"lng":130.289582,"version":"13.0b/18.0a"},{"town":"春日町","koaza":"","lat":31.270298,"lng":130.25835,"version":"13.0b/18.0a"},{"town":"茅野町","koaza":"","lat":31.30029,"lng":130.34629,"version":"13.0b/18.0a"},{"town":"木原町","koaza":"","lat":31.272832,"lng":130.312272,"version":"13.0b/18.0a"},{"town":"清水町","koaza":"","lat":31.304294,"lng":130.315073,"version":"13.0b/18.0a"},{"town":"金山町","koaza":"","lat":31.310932,"lng":130.289253,"version":"13.0b/18.0a"},{"town":"金山西町","koaza":"","lat":31.311403,"lng":130.278093,"version":"13.0b/18.0a"},{"town":"国見町","koaza":"","lat":31.285834,"lng":130.344552,"version":"13.0b/18.0a"},{"town":"小塚町","koaza":"","lat":31.30717,"lng":130.340717,"version":"13.0b/18.0a"},{"town":"寿町","koaza":"","lat":31.286398,"lng":130.295603,"version":"13.0b/18.0a"},{"town":"木場町","koaza":"","lat":31.282564,"lng":130.283121,"version":"13.0b/18.0a"},{"town":"駒水町","koaza":"","lat":31.308164,"lng":130.37166,"version":"13.0b/18.0a"},{"town":"栄中町","koaza":"","lat":31.275879,"lng":130.308201,"version":"13.0b/18.0a"},{"town":"栄本町","koaza":"","lat":31.27155,"lng":130.307043,"version":"13.0b/18.0a"},{"town":"桜木町","koaza":"","lat":31.275126,"lng":130.290867,"version":"13.0b/18.0a"},{"town":"桜山上町","koaza":"","lat":31.307234,"lng":130.262341,"version":"13.0b/18.0a"},{"town":"桜山町","koaza":"","lat":31.293756,"lng":130.286832,"version":"13.0b/18.0a"},{"town":"桜山西町","koaza":"","lat":31.291742,"lng":130.282359,"version":"13.0b/18.0a"},{"town":"桜山東町","koaza":"","lat":31.298862,"lng":130.306413,"version":"13.0b/18.0a"},{"town":"桜山本町","koaza":"","lat":31.297213,"lng":130.297209,"version":"13.0b/18.0a"},{"town":"里町","koaza":"","lat":31.282605,"lng":130.362178,"version":"13.0b/18.0a"},{"town":"汐見町","koaza":"","lat":31.270054,"lng":130.292947,"version":"13.0b/18.0a"},{"town":"塩屋北町","koaza":"","lat":31.265346,"lng":130.278391,"version":"13.0b/18.0a"},{"town":"塩屋南町","koaza":"","lat":31.261425,"lng":130.277957,"version":"13.0b/18.0a"},{"town":"下松町","koaza":"","lat":31.303815,"lng":130.356166,"version":"13.0b/18.0a"},{"town":"白沢北町","koaza":"","lat":31.264126,"lng":130.347482,"version":"13.0b/18.0a"},{"town":"白沢西町","koaza":"","lat":31.254715,"lng":130.35469,"version":"13.0b/18.0a"},{"town":"白沢東町","koaza":"","lat":31.255335,"lng":130.364411,"version":"13.0b/18.0a"},{"town":"新町","koaza":"","lat":31.266758,"lng":130.30463,"version":"13.0b/18.0a"},{"town":"住吉町","koaza":"","lat":31.271959,"lng":130.296589,"version":"13.0b/18.0a"},{"town":"瀬戸町","koaza":"","lat":31.284113,"lng":130.336617,"version":"13.0b/18.0a"},{"town":"園見西町","koaza":"","lat":31.280429,"lng":130.265295,"version":"13.0b/18.0a"},{"town":"園見本町","koaza":"","lat":31.281299,"lng":130.275205,"version":"13.0b/18.0a"},{"town":"高見町","koaza":"","lat":31.27121,"lng":130.293313,"version":"13.0b/18.0a"},{"town":"立神北町","koaza":"","lat":31.276437,"lng":130.277367,"version":"13.0b/18.0a"},{"town":"立神本町","koaza":"","lat":31.269537,"lng":130.282196,"version":"13.0b/18.0a"},{"town":"田布川町","koaza":"","lat":31.316331,"lng":130.28612,"version":"13.0b/18.0a"},{"town":"中央町","koaza":"","lat":31.275069,"lng":130.284676,"version":"13.0b/18.0a"},{"town":"千代田町","koaza":"","lat":31.274263,"lng":130.296938,"version":"13.0b/18.0a"},{"town":"豊留町","koaza":"","lat":31.271908,"lng":130.335029,"version":"13.0b/18.0a"},{"town":"中町","koaza":"","lat":31.267886,"lng":130.300527,"version":"13.0b/18.0a"},{"town":"西鹿篭","koaza":"","lat":31.297007,"lng":130.266182,"version":"13.0b/18.0a"},{"town":"西本町","koaza":"","lat":31.2704,"lng":130.297077,"version":"13.0b/18.0a"},{"town":"仁田浦町","koaza":"","lat":31.258289,"lng":130.3421,"version":"13.0b/18.0a"},{"town":"東鹿篭","koaza":"","lat":31.31187,"lng":130.31707,"version":"13.0b/18.0a"},{"town":"東本町","koaza":"","lat":31.271776,"lng":130.299224,"version":"13.0b/18.0a"},{"town":"火之神北町","koaza":"","lat":31.260649,"lng":130.268845,"version":"13.0b/18.0a"},{"town":"火之神町","koaza":"","lat":31.255289,"lng":130.278184,"version":"13.0b/18.0a"},{"town":"火之神岬町","koaza":"","lat":31.253236,"lng":130.271956,"version":"13.0b/18.0a"},{"town":"日之出町","koaza":"","lat":31.272228,"lng":130.303487,"version":"13.0b/18.0a"},{"town":"平田町","koaza":"","lat":31.280151,"lng":130.292468,"version":"13.0b/18.0a"},{"town":"別府","koaza":"","lat":31.289397,"lng":130.352722,"version":"13.0b/18.0a"},{"town":"別府西町","koaza":"","lat":31.275686,"lng":130.342416,"version":"13.0b/18.0a"},{"town":"別府東町","koaza":"","lat":31.275746,"lng":130.350934,"version":"13.0b/18.0a"},{"town":"まかや町","koaza":"","lat":31.295051,"lng":130.357353,"version":"13.0b/18.0a"},{"town":"枕崎","koaza":"","lat":31.279195,"lng":130.326629,"version":"13.0b/18.0a"},{"town":"松之尾町","koaza":"","lat":31.266578,"lng":130.289806,"version":"13.0b/18.0a"},{"town":"道野町","koaza":"","lat":31.301441,"lng":130.275475,"version":"13.0b/18.0a"},{"town":"緑町","koaza":"","lat":31.276165,"lng":130.294866,"version":"13.0b/18.0a"},{"town":"港町","koaza":"","lat":31.267686,"lng":130.298344,"version":"13.0b/18.0a"},{"town":"美原町","koaza":"","lat":31.2809,"lng":130.311662,"version":"13.0b/18.0a"},{"town":"宮田町","koaza":"","lat":31.27809,"lng":130.298865,"version":"13.0b/18.0a"},{"town":"宮前町","koaza":"","lat":31.269694,"lng":130.303832,"version":"13.0b/18.0a"},{"town":"美山町","koaza":"","lat":31.313626,"lng":130.307725,"version":"13.0b/18.0a"},{"town":"妙見町","koaza":"","lat":31.28782,"lng":130.302826,"version":"13.0b/18.0a"},{"town":"明和町","koaza":"","lat":31.279058,"lng":130.29631,"version":"13.0b/18.0a"},{"town":"山手町","koaza":"","lat":31.272221,"lng":130.300771,"version":"13.0b/18.0a"},{"town":"若葉町","koaza":"","lat":31.277597,"lng":130.301096,"version":"13.0b/18.0a"},{"town":"あけぼの町","koaza":"","lat":31.264994,"lng":130.359852,"version":"14.0b/19.0a"},{"town":"旭町","koaza":"","lat":31.265717,"lng":130.300901,"version":"14.0b/19.0a"},{"town":"泉町","koaza":"","lat":31.267132,"lng":130.302417,"version":"14.0b/19.0a"},{"town":"板敷西町","koaza":"","lat":31.265647,"lng":130.323232,"version":"14.0b/19.0a"},{"town":"板敷本町","koaza":"","lat":31.267439,"lng":130.33608,"version":"14.0b/19.0a"},{"town":"板敷南町","koaza":"","lat":31.258813,"lng":130.3272,"version":"14.0b/19.0a"},{"town":"岩崎町","koaza":"","lat":31.280351,"lng":130.287395,"version":"14.0b/19.0a"},{"town":"岩戸町","koaza":"","lat":31.263393,"lng":130.313919,"version":"14.0b/19.0a"},{"town":"恵比須町","koaza":"","lat":31.262644,"lng":130.296923,"version":"14.0b/19.0a"},{"town":"大塚北町","koaza":"","lat":31.275334,"lng":130.270915,"version":"14.0b/19.0a"},{"town":"大塚中町","koaza":"","lat":31.269777,"lng":130.269021,"version":"14.0b/19.0a"},{"town":"大塚西町","koaza":"","lat":31.277187,"lng":130.254256,"version":"14.0b/19.0a"},{"town":"大塚南町","koaza":"","lat":31.266311,"lng":130.27112,"version":"14.0b/19.0a"},{"town":"折口町","koaza":"","lat":31.268692,"lng":130.296776,"version":"14.0b/19.0a"},{"town":"鹿篭麓町","koaza":"","lat":31.287712,"lng":130.289582,"version":"14.0b/19.0a"},{"town":"春日町","koaza":"","lat":31.270298,"lng":130.25835,"version":"14.0b/19.0a"},{"town":"茅野町","koaza":"","lat":31.30029,"lng":130.34629,"version":"14.0b/19.0a"},{"town":"木原町","koaza":"","lat":31.272832,"lng":130.312272,"version":"14.0b/19.0a"},{"town":"清水町","koaza":"","lat":31.304294,"lng":130.315073,"version":"14.0b/19.0a"},{"town":"金山町","koaza":"","lat":31.310932,"lng":130.289253,"version":"14.0b/19.0a"},{"town":"金山西町","koaza":"","lat":31.311403,"lng":130.278093,"version":"14.0b/19.0a"},{"town":"国見町","koaza":"","lat":31.285834,"lng":130.344552,"version":"14.0b/19.0a"},{"town":"小塚町","koaza":"","lat":31.30717,"lng":130.340717,"version":"14.0b/19.0a"},{"town":"寿町","koaza":"","lat":31.286398,"lng":130.295603,"version":"14.0b/19.0a"},{"town":"木場町","koaza":"","lat":31.282564,"lng":130.283121,"version":"14.0b/19.0a"},{"town":"駒水町","koaza":"","lat":31.308164,"lng":130.37166,"version":"14.0b/19.0a"},{"town":"栄中町","koaza":"","lat":31.275879,"lng":130.308201,"version":"14.0b/19.0a"},{"town":"栄本町","koaza":"","lat":31.27155,"lng":130.307043,"version":"14.0b/19.0a"},{"town":"桜木町","koaza":"","lat":31.275126,"lng":130.290867,"version":"14.0b/19.0a"},{"town":"桜山上町","koaza":"","lat":31.307234,"lng":130.262341,"version":"14.0b/19.0a"},{"town":"桜山町","koaza":"","lat":31.293756,"lng":130.286832,"version":"14.0b/19.0a"},{"town":"桜山西町","koaza":"","lat":31.291742,"lng":130.282359,"version":"14.0b/19.0a"},{"town":"桜山東町","koaza":"","lat":31.298862,"lng":130.306413,"version":"14.0b/19.0a"},{"town":"桜山本町","koaza":"","lat":31.297213,"lng":130.297209,"version":"14.0b/19.0a"},{"town":"里町","koaza":"","lat":31.282605,"lng":130.362178,"version":"14.0b/19.0a"},{"town":"汐見町","koaza":"","lat":31.270054,"lng":130.292947,"version":"14.0b/19.0a"},{"town":"塩屋北町","koaza":"","lat":31.265346,"lng":130.278391,"version":"14.0b/19.0a"},{"town":"塩屋南町","koaza":"","lat":31.261425,"lng":130.277957,"version":"14.0b/19.0a"},{"town":"下松町","koaza":"","lat":31.303815,"lng":130.356166,"version":"14.0b/19.0a"},{"town":"白沢北町","koaza":"","lat":31.264126,"lng":130.347482,"version":"14.0b/19.0a"},{"town":"白沢西町","koaza":"","lat":31.254715,"lng":130.35469,"version":"14.0b/19.0a"},{"town":"白沢東町","koaza":"","lat":31.255335,"lng":130.364411,"version":"14.0b/19.0a"},{"town":"新町","koaza":"","lat":31.266758,"lng":130.30463,"version":"14.0b/19.0a"},{"town":"住吉町","koaza":"","lat":31.271959,"lng":130.296589,"version":"14.0b/19.0a"},{"town":"瀬戸町","koaza":"","lat":31.284113,"lng":130.336617,"version":"14.0b/19.0a"},{"town":"園見西町","koaza":"","lat":31.280429,"lng":130.265295,"version":"14.0b/19.0a"},{"town":"園見本町","koaza":"","lat":31.281299,"lng":130.275205,"version":"14.0b/19.0a"},{"town":"高見町","koaza":"","lat":31.27121,"lng":130.293313,"version":"14.0b/19.0a"},{"town":"立神北町","koaza":"","lat":31.276437,"lng":130.277367,"version":"14.0b/19.0a"},{"town":"立神本町","koaza":"","lat":31.269537,"lng":130.282196,"version":"14.0b/19.0a"},{"town":"田布川町","koaza":"","lat":31.316331,"lng":130.28612,"version":"14.0b/19.0a"},{"town":"中央町","koaza":"","lat":31.275069,"lng":130.284676,"version":"14.0b/19.0a"},{"town":"千代田町","koaza":"","lat":31.274263,"lng":130.296938,"version":"14.0b/19.0a"},{"town":"豊留町","koaza":"","lat":31.271908,"lng":130.335029,"version":"14.0b/19.0a"},{"town":"中町","koaza":"","lat":31.267886,"lng":130.300527,"version":"14.0b/19.0a"},{"town":"西鹿篭","koaza":"","lat":31.297007,"lng":130.266182,"version":"14.0b/19.0a"},{"town":"西本町","koaza":"","lat":31.2704,"lng":130.297077,"version":"14.0b/19.0a"},{"town":"仁田浦町","koaza":"","lat":31.258289,"lng":130.3421,"version":"14.0b/19.0a"},{"town":"東鹿篭","koaza":"","lat":31.31187,"lng":130.31707,"version":"14.0b/19.0a"},{"town":"東本町","koaza":"","lat":31.271776,"lng":130.299224,"version":"14.0b/19.0a"},{"town":"火之神北町","koaza":"","lat":31.260649,"lng":130.268845,"version":"14.0b/19.0a"},{"town":"火之神町","koaza":"","lat":31.255289,"lng":130.278184,"version":"14.0b/19.0a"},{"town":"火之神岬町","koaza":"","lat":31.253236,"lng":130.271956,"version":"14.0b/19.0a"},{"town":"日之出町","koaza":"","lat":31.272228,"lng":130.303487,"version":"14.0b/19.0a"},{"town":"平田町","koaza":"","lat":31.280151,"lng":130.292468,"version":"14.0b/19.0a"},{"town":"別府","koaza":"","lat":31.289397,"lng":130.352722,"version":"14.0b/19.0a"},{"town":"別府西町","koaza":"","lat":31.275686,"lng":130.342416,"version":"14.0b/19.0a"},{"town":"別府東町","koaza":"","lat":31.275746,"lng":130.350934,"version":"14.0b/19.0a"},{"town":"まかや町","koaza":"","lat":31.295051,"lng":130.357353,"version":"14.0b/19.0a"},{"town":"枕崎","koaza":"","lat":31.279195,"lng":130.326629,"version":"14.0b/19.0a"},{"town":"松之尾町","koaza":"","lat":31.266578,"lng":130.289806,"version":"14.0b/19.0a"},{"town":"道野町","koaza":"","lat":31.301441,"lng":130.275475,"version":"14.0b/19.0a"},{"town":"緑町","koaza":"","lat":31.276165,"lng":130.294866,"version":"14.0b/19.0a"},{"town":"港町","koaza":"","lat":31.267686,"lng":130.298344,"version":"14.0b/19.0a"},{"town":"美原町","koaza":"","lat":31.2809,"lng":130.311662,"version":"14.0b/19.0a"},{"town":"宮田町","koaza":"","lat":31.27809,"lng":130.298865,"version":"14.0b/19.0a"},{"town":"宮前町","koaza":"","lat":31.269694,"lng":130.303832,"version":"14.0b/19.0a"},{"town":"美山町","koaza":"","lat":31.313626,"lng":130.307725,"version":"14.0b/19.0a"},{"town":"妙見町","koaza":"","lat":31.28782,"lng":130.302826,"version":"14.0b/19.0a"},{"town":"明和町","koaza":"","lat":31.279058,"lng":130.29631,"version":"14.0b/19.0a"},{"town":"山手町","koaza":"","lat":31.272221,"lng":130.300771,"version":"14.0b/19.0a"},{"town":"若葉町","koaza":"","lat":31.277597,"lng":130.301096,"version":"14.0b/19.0a"}]