[{"town":"赤瀬川","koaza":"","lat":32.035026,"lng":130.208909,"version":"13.0b/18.0a"},{"town":"大川","koaza":"","lat":31.955115,"lng":130.241358,"version":"13.0b/18.0a"},{"town":"大丸町","koaza":"","lat":32.015805,"lng":130.196911,"version":"13.0b/18.0a"},{"town":"折口","koaza":"","lat":32.060287,"lng":130.216888,"version":"13.0b/18.0a"},{"town":"琴平町","koaza":"","lat":32.021213,"lng":130.194896,"version":"13.0b/18.0a"},{"town":"栄町","koaza":"","lat":32.0211,"lng":130.196807,"version":"13.0b/18.0a"},{"town":"塩鶴町一丁目","koaza":"","lat":32.009369,"lng":130.196003,"version":"13.0b/18.0a"},{"town":"塩鶴町二丁目","koaza":"","lat":32.009778,"lng":130.193982,"version":"13.0b/18.0a"},{"town":"塩浜町一丁目","koaza":"","lat":32.004064,"lng":130.195246,"version":"13.0b/18.0a"},{"town":"塩浜町二丁目","koaza":"","lat":32.003981,"lng":130.19306,"version":"13.0b/18.0a"},{"town":"新町","koaza":"","lat":32.024182,"lng":130.195481,"version":"13.0b/18.0a"},{"town":"高松町","koaza":"","lat":32.018218,"lng":130.19822,"version":"13.0b/18.0a"},{"town":"多田","koaza":"","lat":32.053927,"lng":130.236771,"version":"13.0b/18.0a"},{"town":"鶴川内","koaza":"","lat":31.999444,"lng":130.278452,"version":"13.0b/18.0a"},{"town":"鶴見町","koaza":"","lat":32.013834,"lng":130.195036,"version":"13.0b/18.0a"},{"town":"西目","koaza":"","lat":31.989157,"lng":130.210809,"version":"13.0b/18.0a"},{"town":"浜町","koaza":"","lat":32.019132,"lng":130.193606,"version":"13.0b/18.0a"},{"town":"波留","koaza":"","lat":32.010145,"lng":130.204615,"version":"13.0b/18.0a"},{"town":"晴海町","koaza":"","lat":32.024797,"lng":130.19366,"version":"13.0b/18.0a"},{"town":"本町","koaza":"","lat":32.018435,"lng":130.195255,"version":"13.0b/18.0a"},{"town":"丸尾町","koaza":"","lat":32.024415,"lng":130.196532,"version":"13.0b/18.0a"},{"town":"港町","koaza":"","lat":32.017194,"lng":130.193683,"version":"13.0b/18.0a"},{"town":"山下","koaza":"","lat":31.995193,"lng":130.240315,"version":"13.0b/18.0a"},{"town":"脇本","koaza":"","lat":32.095394,"lng":130.202959,"version":"13.0b/18.0a"},{"town":"赤瀬川","koaza":"","lat":32.035026,"lng":130.208909,"version":"14.0b/19.0a"},{"town":"大川","koaza":"","lat":31.955115,"lng":130.241358,"version":"14.0b/19.0a"},{"town":"大丸町","koaza":"","lat":32.015805,"lng":130.196911,"version":"14.0b/19.0a"},{"town":"折口","koaza":"","lat":32.060287,"lng":130.216888,"version":"14.0b/19.0a"},{"town":"琴平町","koaza":"","lat":32.021213,"lng":130.194896,"version":"14.0b/19.0a"},{"town":"栄町","koaza":"","lat":32.0211,"lng":130.196807,"version":"14.0b/19.0a"},{"town":"塩鶴町一丁目","koaza":"","lat":32.009369,"lng":130.196003,"version":"14.0b/19.0a"},{"town":"塩鶴町二丁目","koaza":"","lat":32.009778,"lng":130.193982,"version":"14.0b/19.0a"},{"town":"塩浜町一丁目","koaza":"","lat":32.004064,"lng":130.195246,"version":"14.0b/19.0a"},{"town":"塩浜町二丁目","koaza":"","lat":32.003981,"lng":130.19306,"version":"14.0b/19.0a"},{"town":"新町","koaza":"","lat":32.024182,"lng":130.195481,"version":"14.0b/19.0a"},{"town":"高松町","koaza":"","lat":32.018218,"lng":130.19822,"version":"14.0b/19.0a"},{"town":"多田","koaza":"","lat":32.053927,"lng":130.236771,"version":"14.0b/19.0a"},{"town":"鶴川内","koaza":"","lat":31.999444,"lng":130.278452,"version":"14.0b/19.0a"},{"town":"鶴見町","koaza":"","lat":32.013834,"lng":130.195036,"version":"14.0b/19.0a"},{"town":"西目","koaza":"","lat":31.989157,"lng":130.210809,"version":"14.0b/19.0a"},{"town":"浜町","koaza":"","lat":32.019132,"lng":130.193606,"version":"14.0b/19.0a"},{"town":"波留","koaza":"","lat":32.010145,"lng":130.204615,"version":"14.0b/19.0a"},{"town":"晴海町","koaza":"","lat":32.024797,"lng":130.19366,"version":"14.0b/19.0a"},{"town":"本町","koaza":"","lat":32.018435,"lng":130.195255,"version":"14.0b/19.0a"},{"town":"丸尾町","koaza":"","lat":32.024415,"lng":130.196532,"version":"14.0b/19.0a"},{"town":"港町","koaza":"","lat":32.017194,"lng":130.193683,"version":"14.0b/19.0a"},{"town":"山下","koaza":"","lat":31.995193,"lng":130.240315,"version":"14.0b/19.0a"},{"town":"脇本","koaza":"","lat":32.095394,"lng":130.202959,"version":"14.0b/19.0a"}]