[{"town":"宇津貫町","koaza":"","lat":35.617579,"lng":139.335315,"version":"13.0b/18.0a"},{"town":"兵衛二丁目","koaza":"","lat":35.623214,"lng":139.334553,"version":"13.0b/18.0a"},{"town":"上柚木","koaza":"","lat":35.623189,"lng":139.36888,"version":"13.0b/18.0a"},{"town":"上柚木二丁目","koaza":"","lat":35.61954,"lng":139.370093,"version":"13.0b/18.0a"},{"town":"南大沢五丁目","koaza":"","lat":35.611379,"lng":139.371016,"version":"13.0b/18.0a"},{"town":"上柚木三丁目","koaza":"","lat":35.61689,"lng":139.371494,"version":"13.0b/18.0a"},{"town":"南陽台二丁目","koaza":"","lat":35.63314,"lng":139.37755,"version":"13.0b/18.0a"},{"town":"下柚木","koaza":"","lat":35.630028,"lng":139.374757,"version":"13.0b/18.0a"},{"town":"南陽台一丁目","koaza":"","lat":35.633801,"lng":139.37287,"version":"13.0b/18.0a"},{"town":"長沼町","koaza":"","lat":35.642169,"lng":139.367759,"version":"13.0b/18.0a"},{"town":"高倉町","koaza":"","lat":35.666115,"lng":139.366721,"version":"13.0b/18.0a"},{"town":"南大沢四丁目","koaza":"","lat":35.607974,"lng":139.374672,"version":"13.0b/18.0a"},{"town":"下恩方町","koaza":"","lat":35.665693,"lng":139.251052,"version":"13.0b/18.0a"},{"town":"元八王子町三丁目","koaza":"","lat":35.652095,"lng":139.265749,"version":"13.0b/18.0a"},{"town":"裏高尾町","koaza":"","lat":35.642825,"lng":139.242472,"version":"13.0b/18.0a"},{"town":"南浅川町","koaza":"","lat":35.618761,"lng":139.249251,"version":"13.0b/18.0a"},{"town":"高尾町","koaza":"","lat":35.633017,"lng":139.257985,"version":"13.0b/18.0a"},{"town":"大谷町","koaza":"","lat":35.672824,"lng":139.348836,"version":"13.0b/18.0a"},{"town":"暁町二丁目","koaza":"","lat":35.671856,"lng":139.336478,"version":"13.0b/18.0a"},{"town":"中野上町四丁目","koaza":"","lat":35.670398,"lng":139.315478,"version":"13.0b/18.0a"},{"town":"叶谷町","koaza":"","lat":35.670881,"lng":139.303222,"version":"13.0b/18.0a"},{"town":"横川町","koaza":"","lat":35.665159,"lng":139.302223,"version":"13.0b/18.0a"},{"town":"石川町","koaza":"","lat":35.675451,"lng":139.36569,"version":"13.0b/18.0a"},{"town":"清川町","koaza":"","lat":35.671757,"lng":139.310527,"version":"13.0b/18.0a"},{"town":"楢原町","koaza":"","lat":35.679812,"lng":139.307428,"version":"13.0b/18.0a"},{"town":"西寺方町","koaza":"","lat":35.680159,"lng":139.272892,"version":"13.0b/18.0a"},{"town":"川町","koaza":"","lat":35.66833,"lng":139.270574,"version":"13.0b/18.0a"},{"town":"小宮町","koaza":"","lat":35.688344,"lng":139.371055,"version":"13.0b/18.0a"},{"town":"暁町一丁目","koaza":"","lat":35.668622,"lng":139.335707,"version":"13.0b/18.0a"},{"town":"中野山王一丁目","koaza":"","lat":35.671279,"lng":139.328208,"version":"13.0b/18.0a"},{"town":"大和田町七丁目","koaza":"","lat":35.666963,"lng":139.34237,"version":"13.0b/18.0a"},{"town":"中野上町二丁目","koaza":"","lat":35.67001,"lng":139.323855,"version":"13.0b/18.0a"},{"town":"大楽寺町","koaza":"","lat":35.675643,"lng":139.286864,"version":"13.0b/18.0a"},{"town":"富士見町","koaza":"","lat":35.668506,"lng":139.348456,"version":"13.0b/18.0a"},{"town":"泉町","koaza":"","lat":35.674282,"lng":139.302061,"version":"13.0b/18.0a"},{"town":"弐分方町","koaza":"","lat":35.673971,"lng":139.284393,"version":"13.0b/18.0a"},{"town":"上恩方町","koaza":"","lat":35.66718,"lng":139.201773,"version":"13.0b/18.0a"},{"town":"小津町","koaza":"","lat":35.685523,"lng":139.219097,"version":"13.0b/18.0a"},{"town":"美山町","koaza":"","lat":35.694163,"lng":139.24059,"version":"13.0b/18.0a"},{"town":"上川町","koaza":"","lat":35.704985,"lng":139.248045,"version":"13.0b/18.0a"},{"town":"堀之内二丁目","koaza":"","lat":35.629711,"lng":139.402195,"version":"13.0b/18.0a"},{"town":"堀之内三丁目","koaza":"","lat":35.627213,"lng":139.402637,"version":"13.0b/18.0a"},{"town":"下柚木三丁目","koaza":"","lat":35.620924,"lng":139.379129,"version":"13.0b/18.0a"},{"town":"別所一丁目","koaza":"","lat":35.615534,"lng":139.389021,"version":"13.0b/18.0a"},{"town":"南大沢一丁目","koaza":"","lat":35.619096,"lng":139.383851,"version":"13.0b/18.0a"},{"town":"越野","koaza":"","lat":35.630231,"lng":139.388327,"version":"13.0b/18.0a"},{"town":"南大沢二丁目","koaza":"","lat":35.61045,"lng":139.385206,"version":"13.0b/18.0a"},{"town":"松木","koaza":"","lat":35.622375,"lng":139.39283,"version":"13.0b/18.0a"},{"town":"下柚木二丁目","koaza":"","lat":35.625348,"lng":139.380483,"version":"13.0b/18.0a"},{"town":"別所二丁目","koaza":"","lat":35.615856,"lng":139.397489,"version":"13.0b/18.0a"},{"town":"南大沢三丁目","koaza":"","lat":35.604492,"lng":139.382612,"version":"13.0b/18.0a"},{"town":"鹿島","koaza":"","lat":35.633224,"lng":139.425657,"version":"13.0b/18.0a"},{"town":"松が谷","koaza":"","lat":35.630088,"lng":139.417244,"version":"13.0b/18.0a"},{"town":"大塚","koaza":"","lat":35.639524,"lng":139.418698,"version":"13.0b/18.0a"},{"town":"堀之内","koaza":"","lat":35.634728,"lng":139.390403,"version":"13.0b/18.0a"},{"town":"南陽台三丁目","koaza":"","lat":35.635304,"lng":139.378006,"version":"13.0b/18.0a"},{"town":"東中野","koaza":"","lat":35.637016,"lng":139.406284,"version":"13.0b/18.0a"},{"town":"七国二丁目","koaza":"","lat":35.620413,"lng":139.325219,"version":"13.0b/18.0a"},{"town":"西片倉一丁目","koaza":"","lat":35.635712,"lng":139.335213,"version":"13.0b/18.0a"},{"town":"七国一丁目","koaza":"","lat":35.620808,"lng":139.330029,"version":"13.0b/18.0a"},{"town":"七国四丁目","koaza":"","lat":35.621518,"lng":139.316922,"version":"13.0b/18.0a"},{"town":"七国五丁目","koaza":"","lat":35.622133,"lng":139.319517,"version":"13.0b/18.0a"},{"town":"七国六丁目","koaza":"","lat":35.62297,"lng":139.323515,"version":"13.0b/18.0a"},{"town":"みなみ野四丁目","koaza":"","lat":35.627299,"lng":139.323433,"version":"13.0b/18.0a"},{"town":"みなみ野五丁目","koaza":"","lat":35.629209,"lng":139.318609,"version":"13.0b/18.0a"},{"town":"西片倉二丁目","koaza":"","lat":35.63585,"lng":139.332065,"version":"13.0b/18.0a"},{"town":"西片倉三丁目","koaza":"","lat":35.635984,"lng":139.327769,"version":"13.0b/18.0a"},{"town":"みなみ野六丁目","koaza":"","lat":35.632893,"lng":139.322529,"version":"13.0b/18.0a"},{"town":"みなみ野三丁目","koaza":"","lat":35.629582,"lng":139.324875,"version":"13.0b/18.0a"},{"town":"みなみ野二丁目","koaza":"","lat":35.628121,"lng":139.328323,"version":"13.0b/18.0a"},{"town":"みなみ野一丁目","koaza":"","lat":35.632271,"lng":139.328061,"version":"13.0b/18.0a"},{"town":"兵衛一丁目","koaza":"","lat":35.629698,"lng":139.331255,"version":"13.0b/18.0a"},{"town":"城山手二丁目","koaza":"","lat":35.653702,"lng":139.283996,"version":"13.0b/18.0a"},{"town":"城山手一丁目","koaza":"","lat":35.654488,"lng":139.287393,"version":"13.0b/18.0a"},{"town":"鑓水二丁目","koaza":"","lat":35.611221,"lng":139.356372,"version":"13.0b/18.0a"},{"town":"北野台二丁目","koaza":"","lat":35.626409,"lng":139.355286,"version":"13.0b/18.0a"},{"town":"北野台五丁目","koaza":"","lat":35.631965,"lng":139.351825,"version":"13.0b/18.0a"},{"town":"北野台四丁目","koaza":"","lat":35.629686,"lng":139.352318,"version":"13.0b/18.0a"},{"town":"七国三丁目","koaza":"","lat":35.617137,"lng":139.323201,"version":"13.0b/18.0a"},{"town":"北野台一丁目","koaza":"","lat":35.632282,"lng":139.356765,"version":"13.0b/18.0a"},{"town":"大船町","koaza":"","lat":35.622814,"lng":139.313606,"version":"13.0b/18.0a"},{"town":"台町二丁目","koaza":"","lat":35.651314,"lng":139.321535,"version":"13.0b/18.0a"},{"town":"狭間町","koaza":"","lat":35.63541,"lng":139.284069,"version":"13.0b/18.0a"},{"town":"鑓水","koaza":"","lat":35.61891,"lng":139.349939,"version":"13.0b/18.0a"},{"town":"中山","koaza":"","lat":35.627221,"lng":139.362132,"version":"13.0b/18.0a"},{"town":"北野台三丁目","koaza":"","lat":35.625847,"lng":139.352103,"version":"13.0b/18.0a"},{"town":"絹ケ丘三丁目","koaza":"","lat":35.63321,"lng":139.361525,"version":"13.0b/18.0a"},{"town":"絹ケ丘一丁目","koaza":"","lat":35.637706,"lng":139.362682,"version":"13.0b/18.0a"},{"town":"絹ケ丘二丁目","koaza":"","lat":35.636538,"lng":139.359386,"version":"13.0b/18.0a"},{"town":"打越町","koaza":"","lat":35.640548,"lng":139.351751,"version":"13.0b/18.0a"},{"town":"片倉町","koaza":"","lat":35.634195,"lng":139.341159,"version":"13.0b/18.0a"},{"town":"緑町","koaza":"","lat":35.647626,"lng":139.325741,"version":"13.0b/18.0a"},{"town":"小比企町","koaza":"","lat":35.639657,"lng":139.323427,"version":"13.0b/18.0a"},{"town":"館町","koaza":"","lat":35.624843,"lng":139.288208,"version":"13.0b/18.0a"},{"town":"山田町","koaza":"","lat":35.644213,"lng":139.315443,"version":"13.0b/18.0a"},{"town":"椚田町","koaza":"","lat":35.636289,"lng":139.308945,"version":"13.0b/18.0a"},{"town":"めじろ台二丁目","koaza":"","lat":35.641614,"lng":139.310786,"version":"13.0b/18.0a"},{"town":"めじろ台三丁目","koaza":"","lat":35.641282,"lng":139.304441,"version":"13.0b/18.0a"},{"town":"散田町二丁目","koaza":"","lat":35.649957,"lng":139.314886,"version":"13.0b/18.0a"},{"town":"めじろ台四丁目","koaza":"","lat":35.643721,"lng":139.303384,"version":"13.0b/18.0a"},{"town":"めじろ台一丁目","koaza":"","lat":35.646098,"lng":139.308985,"version":"13.0b/18.0a"},{"town":"散田町四丁目","koaza":"","lat":35.650995,"lng":139.307106,"version":"13.0b/18.0a"},{"town":"寺田町","koaza":"","lat":35.624167,"lng":139.305783,"version":"13.0b/18.0a"},{"town":"初沢町","koaza":"","lat":35.629477,"lng":139.275167,"version":"13.0b/18.0a"},{"town":"西浅川町","koaza":"","lat":35.64246,"lng":139.272134,"version":"13.0b/18.0a"},{"town":"明神町一丁目","koaza":"","lat":35.658368,"lng":139.349333,"version":"13.0b/18.0a"},{"town":"子安町一丁目","koaza":"","lat":35.652336,"lng":139.343187,"version":"13.0b/18.0a"},{"town":"明神町二丁目","koaza":"","lat":35.656912,"lng":139.346722,"version":"13.0b/18.0a"},{"town":"明神町三丁目","koaza":"","lat":35.656119,"lng":139.343511,"version":"13.0b/18.0a"},{"town":"大和田町五丁目","koaza":"","lat":35.665378,"lng":139.351478,"version":"13.0b/18.0a"},{"town":"大和田町四丁目","koaza":"","lat":35.665477,"lng":139.3556,"version":"13.0b/18.0a"},{"town":"大和田町六丁目","koaza":"","lat":35.664803,"lng":139.346534,"version":"13.0b/18.0a"},{"town":"大和田町三丁目","koaza":"","lat":35.660039,"lng":139.353073,"version":"13.0b/18.0a"},{"town":"大和田町二丁目","koaza":"","lat":35.663686,"lng":139.358409,"version":"13.0b/18.0a"},{"town":"大和田町一丁目","koaza":"","lat":35.655395,"lng":139.356566,"version":"13.0b/18.0a"},{"town":"明神町四丁目","koaza":"","lat":35.659993,"lng":139.344081,"version":"13.0b/18.0a"},{"town":"子安町三丁目","koaza":"","lat":35.64941,"lng":139.337351,"version":"13.0b/18.0a"},{"town":"万町","koaza":"","lat":35.652071,"lng":139.332716,"version":"13.0b/18.0a"},{"town":"子安町四丁目","koaza":"","lat":35.653866,"lng":139.33672,"version":"13.0b/18.0a"},{"town":"東町","koaza":"","lat":35.658276,"lng":139.339595,"version":"13.0b/18.0a"},{"town":"田町","koaza":"","lat":35.665704,"lng":139.335742,"version":"13.0b/18.0a"},{"town":"中町","koaza":"","lat":35.65838,"lng":139.336097,"version":"13.0b/18.0a"},{"town":"新町","koaza":"","lat":35.661324,"lng":139.340789,"version":"13.0b/18.0a"},{"town":"元横山町一丁目","koaza":"","lat":35.66403,"lng":139.339439,"version":"13.0b/18.0a"},{"town":"南新町","koaza":"","lat":35.658767,"lng":139.330012,"version":"13.0b/18.0a"},{"town":"元横山町二丁目","koaza":"","lat":35.662042,"lng":139.337677,"version":"13.0b/18.0a"},{"town":"元横山町三丁目","koaza":"","lat":35.665154,"lng":139.333256,"version":"13.0b/18.0a"},{"town":"北野町","koaza":"","lat":35.650139,"lng":139.354715,"version":"13.0b/18.0a"},{"town":"子安町二丁目","koaza":"","lat":35.648944,"lng":139.34146,"version":"13.0b/18.0a"},{"town":"旭町","koaza":"","lat":35.655908,"lng":139.338169,"version":"13.0b/18.0a"},{"town":"三崎町","koaza":"","lat":35.657133,"lng":139.336208,"version":"13.0b/18.0a"},{"town":"天神町","koaza":"","lat":35.657417,"lng":139.33013,"version":"13.0b/18.0a"},{"town":"寺町","koaza":"","lat":35.656331,"lng":139.3329,"version":"13.0b/18.0a"},{"town":"南町","koaza":"","lat":35.65851,"lng":139.333014,"version":"13.0b/18.0a"},{"town":"横山町","koaza":"","lat":35.659807,"lng":139.336954,"version":"13.0b/18.0a"},{"town":"八日町","koaza":"","lat":35.660057,"lng":139.33115,"version":"13.0b/18.0a"},{"town":"平岡町","koaza":"","lat":35.664392,"lng":139.32517,"version":"13.0b/18.0a"},{"town":"八幡町","koaza":"","lat":35.660623,"lng":139.32605,"version":"13.0b/18.0a"},{"town":"本郷町","koaza":"","lat":35.661867,"lng":139.325744,"version":"13.0b/18.0a"},{"town":"中野上町一丁目","koaza":"","lat":35.667665,"lng":139.327642,"version":"13.0b/18.0a"},{"town":"元本郷町一丁目","koaza":"","lat":35.664474,"lng":139.321523,"version":"13.0b/18.0a"},{"town":"本町","koaza":"","lat":35.662726,"lng":139.33181,"version":"13.0b/18.0a"},{"town":"大横町","koaza":"","lat":35.663749,"lng":139.329526,"version":"13.0b/18.0a"},{"town":"台町三丁目","koaza":"","lat":35.654659,"lng":139.320466,"version":"13.0b/18.0a"},{"town":"追分町","koaza":"","lat":35.660687,"lng":139.318146,"version":"13.0b/18.0a"},{"town":"小門町","koaza":"","lat":35.658809,"lng":139.324898,"version":"13.0b/18.0a"},{"town":"八木町","koaza":"","lat":35.661071,"lng":139.321762,"version":"13.0b/18.0a"},{"town":"千人町二丁目","koaza":"","lat":35.659024,"lng":139.311954,"version":"13.0b/18.0a"},{"town":"千人町一丁目","koaza":"","lat":35.65912,"lng":139.315654,"version":"13.0b/18.0a"},{"town":"散田町一丁目","koaza":"","lat":35.653867,"lng":139.315653,"version":"13.0b/18.0a"},{"town":"台町四丁目","koaza":"","lat":35.657563,"lng":139.319599,"version":"13.0b/18.0a"},{"town":"元本郷町三丁目","koaza":"","lat":35.664808,"lng":139.315964,"version":"13.0b/18.0a"},{"town":"日吉町","koaza":"","lat":35.661383,"lng":139.313625,"version":"13.0b/18.0a"},{"town":"元本郷町四丁目","koaza":"","lat":35.665301,"lng":139.313082,"version":"13.0b/18.0a"},{"town":"元本郷町二丁目","koaza":"","lat":35.664518,"lng":139.318497,"version":"13.0b/18.0a"},{"town":"台町一丁目","koaza":"","lat":35.650673,"lng":139.32809,"version":"13.0b/18.0a"},{"town":"上野町","koaza":"","lat":35.655149,"lng":139.327196,"version":"13.0b/18.0a"},{"town":"並木町","koaza":"","lat":35.65321,"lng":139.303219,"version":"13.0b/18.0a"},{"town":"千人町四丁目","koaza":"","lat":35.656337,"lng":139.306919,"version":"13.0b/18.0a"},{"town":"散田町三丁目","koaza":"","lat":35.652892,"lng":139.311124,"version":"13.0b/18.0a"},{"town":"千人町三丁目","koaza":"","lat":35.657889,"lng":139.309223,"version":"13.0b/18.0a"},{"town":"東浅川町","koaza":"","lat":35.645253,"lng":139.292331,"version":"13.0b/18.0a"},{"town":"散田町五丁目","koaza":"","lat":35.647977,"lng":139.301624,"version":"13.0b/18.0a"},{"town":"元八王子町一丁目","koaza":"","lat":35.664796,"lng":139.287922,"version":"13.0b/18.0a"},{"town":"廿里町","koaza":"","lat":35.646792,"lng":139.274956,"version":"13.0b/18.0a"},{"town":"長房町","koaza":"","lat":35.654616,"lng":139.29532,"version":"13.0b/18.0a"},{"town":"元八王子町二丁目","koaza":"","lat":35.659649,"lng":139.280972,"version":"13.0b/18.0a"},{"town":"みつい台一丁目","koaza":"","lat":35.681245,"lng":139.32885,"version":"13.0b/18.0a"},{"town":"久保山町一丁目","koaza":"","lat":35.685766,"lng":139.36078,"version":"13.0b/18.0a"},{"town":"久保山町二丁目","koaza":"","lat":35.686413,"lng":139.355518,"version":"13.0b/18.0a"},{"town":"みつい台二丁目","koaza":"","lat":35.682287,"lng":139.325052,"version":"13.0b/18.0a"},{"town":"滝山町二丁目","koaza":"","lat":35.692245,"lng":139.336148,"version":"13.0b/18.0a"},{"town":"丹木町一丁目","koaza":"","lat":35.692316,"lng":139.330777,"version":"13.0b/18.0a"},{"town":"川口町","koaza":"","lat":35.695799,"lng":139.277573,"version":"13.0b/18.0a"},{"town":"尾崎町","koaza":"","lat":35.679547,"lng":139.34446,"version":"13.0b/18.0a"},{"town":"宇津木町","koaza":"","lat":35.68172,"lng":139.352609,"version":"13.0b/18.0a"},{"town":"中野山王二丁目","koaza":"","lat":35.67461,"lng":139.330428,"version":"13.0b/18.0a"},{"town":"中野上町五丁目","koaza":"","lat":35.674254,"lng":139.316192,"version":"13.0b/18.0a"},{"town":"四谷町","koaza":"","lat":35.677224,"lng":139.296971,"version":"13.0b/18.0a"},{"town":"暁町三丁目","koaza":"","lat":35.675318,"lng":139.335553,"version":"13.0b/18.0a"},{"town":"中野町","koaza":"","lat":35.680598,"lng":139.320487,"version":"13.0b/18.0a"},{"town":"中野上町三丁目","koaza":"","lat":35.672913,"lng":139.320932,"version":"13.0b/18.0a"},{"town":"中野山王三丁目","koaza":"","lat":35.675285,"lng":139.321385,"version":"13.0b/18.0a"},{"town":"諏訪町","koaza":"","lat":35.678929,"lng":139.292294,"version":"13.0b/18.0a"},{"town":"上壱分方町","koaza":"","lat":35.681592,"lng":139.284711,"version":"13.0b/18.0a"},{"town":"丸山町","koaza":"","lat":35.690346,"lng":139.350753,"version":"13.0b/18.0a"},{"town":"加住町二丁目","koaza":"","lat":35.694297,"lng":139.315035,"version":"13.0b/18.0a"},{"town":"平町","koaza":"","lat":35.691867,"lng":139.35896,"version":"13.0b/18.0a"},{"town":"谷野町","koaza":"","lat":35.685416,"lng":139.325083,"version":"13.0b/18.0a"},{"town":"丹木町二丁目","koaza":"","lat":35.694931,"lng":139.32771,"version":"13.0b/18.0a"},{"town":"犬目町","koaza":"","lat":35.689661,"lng":139.30773,"version":"13.0b/18.0a"},{"town":"戸吹町","koaza":"","lat":35.707137,"lng":139.289199,"version":"13.0b/18.0a"},{"town":"丹木町三丁目","koaza":"","lat":35.694854,"lng":139.323643,"version":"13.0b/18.0a"},{"town":"加住町一丁目","koaza":"","lat":35.701817,"lng":139.320504,"version":"13.0b/18.0a"},{"town":"宮下町","koaza":"","lat":35.705277,"lng":139.310485,"version":"13.0b/18.0a"},{"town":"高月町","koaza":"","lat":35.707514,"lng":139.32551,"version":"13.0b/18.0a"},{"town":"梅坪町","koaza":"","lat":35.686065,"lng":139.335755,"version":"13.0b/18.0a"},{"town":"左入町","koaza":"","lat":35.683015,"lng":139.344775,"version":"13.0b/18.0a"},{"town":"滝山町一丁目","koaza":"","lat":35.684899,"lng":139.341468,"version":"13.0b/18.0a"},{"town":"宇津貫町","koaza":"","lat":35.617579,"lng":139.335315,"version":"14.0b/19.0a"},{"town":"兵衛二丁目","koaza":"","lat":35.623214,"lng":139.334553,"version":"14.0b/19.0a"},{"town":"上柚木","koaza":"","lat":35.623189,"lng":139.36888,"version":"14.0b/19.0a"},{"town":"上柚木二丁目","koaza":"","lat":35.61954,"lng":139.370093,"version":"14.0b/19.0a"},{"town":"南大沢五丁目","koaza":"","lat":35.611379,"lng":139.371016,"version":"14.0b/19.0a"},{"town":"上柚木三丁目","koaza":"","lat":35.61689,"lng":139.371494,"version":"14.0b/19.0a"},{"town":"南陽台二丁目","koaza":"","lat":35.63314,"lng":139.37755,"version":"14.0b/19.0a"},{"town":"下柚木","koaza":"","lat":35.630028,"lng":139.374757,"version":"14.0b/19.0a"},{"town":"南陽台一丁目","koaza":"","lat":35.633801,"lng":139.37287,"version":"14.0b/19.0a"},{"town":"長沼町","koaza":"","lat":35.642169,"lng":139.367759,"version":"14.0b/19.0a"},{"town":"高倉町","koaza":"","lat":35.666115,"lng":139.366721,"version":"14.0b/19.0a"},{"town":"南大沢四丁目","koaza":"","lat":35.607974,"lng":139.374672,"version":"14.0b/19.0a"},{"town":"下恩方町","koaza":"","lat":35.665693,"lng":139.251052,"version":"14.0b/19.0a"},{"town":"元八王子町三丁目","koaza":"","lat":35.652095,"lng":139.265749,"version":"14.0b/19.0a"},{"town":"裏高尾町","koaza":"","lat":35.642825,"lng":139.242472,"version":"14.0b/19.0a"},{"town":"南浅川町","koaza":"","lat":35.618761,"lng":139.249251,"version":"14.0b/19.0a"},{"town":"高尾町","koaza":"","lat":35.633017,"lng":139.257985,"version":"14.0b/19.0a"},{"town":"大谷町","koaza":"","lat":35.672824,"lng":139.348836,"version":"14.0b/19.0a"},{"town":"暁町二丁目","koaza":"","lat":35.671856,"lng":139.336478,"version":"14.0b/19.0a"},{"town":"中野上町四丁目","koaza":"","lat":35.670398,"lng":139.315478,"version":"14.0b/19.0a"},{"town":"叶谷町","koaza":"","lat":35.670881,"lng":139.303222,"version":"14.0b/19.0a"},{"town":"横川町","koaza":"","lat":35.665159,"lng":139.302223,"version":"14.0b/19.0a"},{"town":"石川町","koaza":"","lat":35.675451,"lng":139.36569,"version":"14.0b/19.0a"},{"town":"清川町","koaza":"","lat":35.671757,"lng":139.310527,"version":"14.0b/19.0a"},{"town":"楢原町","koaza":"","lat":35.679812,"lng":139.307428,"version":"14.0b/19.0a"},{"town":"西寺方町","koaza":"","lat":35.680159,"lng":139.272892,"version":"14.0b/19.0a"},{"town":"川町","koaza":"","lat":35.66833,"lng":139.270574,"version":"14.0b/19.0a"},{"town":"小宮町","koaza":"","lat":35.688344,"lng":139.371055,"version":"14.0b/19.0a"},{"town":"暁町一丁目","koaza":"","lat":35.668622,"lng":139.335707,"version":"14.0b/19.0a"},{"town":"中野山王一丁目","koaza":"","lat":35.671279,"lng":139.328208,"version":"14.0b/19.0a"},{"town":"大和田町七丁目","koaza":"","lat":35.666963,"lng":139.34237,"version":"14.0b/19.0a"},{"town":"中野上町二丁目","koaza":"","lat":35.67001,"lng":139.323855,"version":"14.0b/19.0a"},{"town":"大楽寺町","koaza":"","lat":35.675643,"lng":139.286864,"version":"14.0b/19.0a"},{"town":"富士見町","koaza":"","lat":35.668506,"lng":139.348456,"version":"14.0b/19.0a"},{"town":"泉町","koaza":"","lat":35.674282,"lng":139.302061,"version":"14.0b/19.0a"},{"town":"弐分方町","koaza":"","lat":35.673971,"lng":139.284393,"version":"14.0b/19.0a"},{"town":"上恩方町","koaza":"","lat":35.66718,"lng":139.201773,"version":"14.0b/19.0a"},{"town":"小津町","koaza":"","lat":35.685523,"lng":139.219097,"version":"14.0b/19.0a"},{"town":"美山町","koaza":"","lat":35.694163,"lng":139.24059,"version":"14.0b/19.0a"},{"town":"上川町","koaza":"","lat":35.704985,"lng":139.248045,"version":"14.0b/19.0a"},{"town":"堀之内二丁目","koaza":"","lat":35.629711,"lng":139.402195,"version":"14.0b/19.0a"},{"town":"堀之内三丁目","koaza":"","lat":35.627213,"lng":139.402637,"version":"14.0b/19.0a"},{"town":"下柚木三丁目","koaza":"","lat":35.620924,"lng":139.379129,"version":"14.0b/19.0a"},{"town":"別所一丁目","koaza":"","lat":35.615534,"lng":139.389021,"version":"14.0b/19.0a"},{"town":"南大沢一丁目","koaza":"","lat":35.619096,"lng":139.383851,"version":"14.0b/19.0a"},{"town":"越野","koaza":"","lat":35.630231,"lng":139.388327,"version":"14.0b/19.0a"},{"town":"南大沢二丁目","koaza":"","lat":35.61045,"lng":139.385206,"version":"14.0b/19.0a"},{"town":"松木","koaza":"","lat":35.622375,"lng":139.39283,"version":"14.0b/19.0a"},{"town":"下柚木二丁目","koaza":"","lat":35.625348,"lng":139.380483,"version":"14.0b/19.0a"},{"town":"別所二丁目","koaza":"","lat":35.615856,"lng":139.397489,"version":"14.0b/19.0a"},{"town":"南大沢三丁目","koaza":"","lat":35.604492,"lng":139.382612,"version":"14.0b/19.0a"},{"town":"鹿島","koaza":"","lat":35.633224,"lng":139.425657,"version":"14.0b/19.0a"},{"town":"松が谷","koaza":"","lat":35.630088,"lng":139.417244,"version":"14.0b/19.0a"},{"town":"大塚","koaza":"","lat":35.639524,"lng":139.418698,"version":"14.0b/19.0a"},{"town":"堀之内","koaza":"","lat":35.634728,"lng":139.390403,"version":"14.0b/19.0a"},{"town":"南陽台三丁目","koaza":"","lat":35.635304,"lng":139.378006,"version":"14.0b/19.0a"},{"town":"東中野","koaza":"","lat":35.637016,"lng":139.406284,"version":"14.0b/19.0a"},{"town":"七国二丁目","koaza":"","lat":35.620413,"lng":139.325219,"version":"14.0b/19.0a"},{"town":"西片倉一丁目","koaza":"","lat":35.635712,"lng":139.335213,"version":"14.0b/19.0a"},{"town":"七国一丁目","koaza":"","lat":35.620808,"lng":139.330029,"version":"14.0b/19.0a"},{"town":"七国四丁目","koaza":"","lat":35.621518,"lng":139.316922,"version":"14.0b/19.0a"},{"town":"七国五丁目","koaza":"","lat":35.622133,"lng":139.319517,"version":"14.0b/19.0a"},{"town":"七国六丁目","koaza":"","lat":35.62297,"lng":139.323515,"version":"14.0b/19.0a"},{"town":"みなみ野四丁目","koaza":"","lat":35.627299,"lng":139.323433,"version":"14.0b/19.0a"},{"town":"みなみ野五丁目","koaza":"","lat":35.629209,"lng":139.318609,"version":"14.0b/19.0a"},{"town":"西片倉二丁目","koaza":"","lat":35.63585,"lng":139.332065,"version":"14.0b/19.0a"},{"town":"西片倉三丁目","koaza":"","lat":35.635984,"lng":139.327769,"version":"14.0b/19.0a"},{"town":"みなみ野六丁目","koaza":"","lat":35.632893,"lng":139.322529,"version":"14.0b/19.0a"},{"town":"みなみ野三丁目","koaza":"","lat":35.629582,"lng":139.324875,"version":"14.0b/19.0a"},{"town":"みなみ野二丁目","koaza":"","lat":35.628121,"lng":139.328323,"version":"14.0b/19.0a"},{"town":"みなみ野一丁目","koaza":"","lat":35.632271,"lng":139.328061,"version":"14.0b/19.0a"},{"town":"兵衛一丁目","koaza":"","lat":35.629698,"lng":139.331255,"version":"14.0b/19.0a"},{"town":"城山手二丁目","koaza":"","lat":35.653702,"lng":139.283996,"version":"14.0b/19.0a"},{"town":"城山手一丁目","koaza":"","lat":35.654488,"lng":139.287393,"version":"14.0b/19.0a"},{"town":"鑓水二丁目","koaza":"","lat":35.611221,"lng":139.356372,"version":"14.0b/19.0a"},{"town":"北野台二丁目","koaza":"","lat":35.626409,"lng":139.355286,"version":"14.0b/19.0a"},{"town":"北野台五丁目","koaza":"","lat":35.631965,"lng":139.351825,"version":"14.0b/19.0a"},{"town":"北野台四丁目","koaza":"","lat":35.629686,"lng":139.352318,"version":"14.0b/19.0a"},{"town":"七国三丁目","koaza":"","lat":35.617137,"lng":139.323201,"version":"14.0b/19.0a"},{"town":"北野台一丁目","koaza":"","lat":35.632282,"lng":139.356765,"version":"14.0b/19.0a"},{"town":"大船町","koaza":"","lat":35.622814,"lng":139.313606,"version":"14.0b/19.0a"},{"town":"台町二丁目","koaza":"","lat":35.651314,"lng":139.321535,"version":"14.0b/19.0a"},{"town":"狭間町","koaza":"","lat":35.63541,"lng":139.284069,"version":"14.0b/19.0a"},{"town":"鑓水","koaza":"","lat":35.61891,"lng":139.349939,"version":"14.0b/19.0a"},{"town":"中山","koaza":"","lat":35.627221,"lng":139.362132,"version":"14.0b/19.0a"},{"town":"北野台三丁目","koaza":"","lat":35.625847,"lng":139.352103,"version":"14.0b/19.0a"},{"town":"絹ケ丘三丁目","koaza":"","lat":35.63321,"lng":139.361525,"version":"14.0b/19.0a"},{"town":"絹ケ丘一丁目","koaza":"","lat":35.637706,"lng":139.362682,"version":"14.0b/19.0a"},{"town":"絹ケ丘二丁目","koaza":"","lat":35.636538,"lng":139.359386,"version":"14.0b/19.0a"},{"town":"打越町","koaza":"","lat":35.640548,"lng":139.351751,"version":"14.0b/19.0a"},{"town":"片倉町","koaza":"","lat":35.634195,"lng":139.341159,"version":"14.0b/19.0a"},{"town":"緑町","koaza":"","lat":35.647626,"lng":139.325741,"version":"14.0b/19.0a"},{"town":"小比企町","koaza":"","lat":35.639657,"lng":139.323427,"version":"14.0b/19.0a"},{"town":"館町","koaza":"","lat":35.624843,"lng":139.288208,"version":"14.0b/19.0a"},{"town":"山田町","koaza":"","lat":35.644213,"lng":139.315443,"version":"14.0b/19.0a"},{"town":"椚田町","koaza":"","lat":35.636289,"lng":139.308945,"version":"14.0b/19.0a"},{"town":"めじろ台二丁目","koaza":"","lat":35.641614,"lng":139.310786,"version":"14.0b/19.0a"},{"town":"めじろ台三丁目","koaza":"","lat":35.641282,"lng":139.304441,"version":"14.0b/19.0a"},{"town":"散田町二丁目","koaza":"","lat":35.649957,"lng":139.314886,"version":"14.0b/19.0a"},{"town":"めじろ台四丁目","koaza":"","lat":35.643721,"lng":139.303384,"version":"14.0b/19.0a"},{"town":"めじろ台一丁目","koaza":"","lat":35.646098,"lng":139.308985,"version":"14.0b/19.0a"},{"town":"散田町四丁目","koaza":"","lat":35.650995,"lng":139.307106,"version":"14.0b/19.0a"},{"town":"寺田町","koaza":"","lat":35.624167,"lng":139.305783,"version":"14.0b/19.0a"},{"town":"初沢町","koaza":"","lat":35.629477,"lng":139.275167,"version":"14.0b/19.0a"},{"town":"西浅川町","koaza":"","lat":35.64246,"lng":139.272134,"version":"14.0b/19.0a"},{"town":"明神町一丁目","koaza":"","lat":35.658368,"lng":139.349333,"version":"14.0b/19.0a"},{"town":"子安町一丁目","koaza":"","lat":35.652336,"lng":139.343187,"version":"14.0b/19.0a"},{"town":"明神町二丁目","koaza":"","lat":35.656912,"lng":139.346722,"version":"14.0b/19.0a"},{"town":"明神町三丁目","koaza":"","lat":35.656119,"lng":139.343511,"version":"14.0b/19.0a"},{"town":"大和田町五丁目","koaza":"","lat":35.665378,"lng":139.351478,"version":"14.0b/19.0a"},{"town":"大和田町四丁目","koaza":"","lat":35.665477,"lng":139.3556,"version":"14.0b/19.0a"},{"town":"大和田町六丁目","koaza":"","lat":35.664803,"lng":139.346534,"version":"14.0b/19.0a"},{"town":"大和田町三丁目","koaza":"","lat":35.660039,"lng":139.353073,"version":"14.0b/19.0a"},{"town":"大和田町二丁目","koaza":"","lat":35.663686,"lng":139.358409,"version":"14.0b/19.0a"},{"town":"大和田町一丁目","koaza":"","lat":35.655395,"lng":139.356566,"version":"14.0b/19.0a"},{"town":"明神町四丁目","koaza":"","lat":35.659993,"lng":139.344081,"version":"14.0b/19.0a"},{"town":"子安町三丁目","koaza":"","lat":35.64941,"lng":139.337351,"version":"14.0b/19.0a"},{"town":"万町","koaza":"","lat":35.652071,"lng":139.332716,"version":"14.0b/19.0a"},{"town":"子安町四丁目","koaza":"","lat":35.653866,"lng":139.33672,"version":"14.0b/19.0a"},{"town":"東町","koaza":"","lat":35.658276,"lng":139.339595,"version":"14.0b/19.0a"},{"town":"田町","koaza":"","lat":35.665704,"lng":139.335742,"version":"14.0b/19.0a"},{"town":"中町","koaza":"","lat":35.65838,"lng":139.336097,"version":"14.0b/19.0a"},{"town":"新町","koaza":"","lat":35.661324,"lng":139.340789,"version":"14.0b/19.0a"},{"town":"元横山町一丁目","koaza":"","lat":35.66403,"lng":139.339439,"version":"14.0b/19.0a"},{"town":"南新町","koaza":"","lat":35.658767,"lng":139.330012,"version":"14.0b/19.0a"},{"town":"元横山町二丁目","koaza":"","lat":35.662042,"lng":139.337677,"version":"14.0b/19.0a"},{"town":"元横山町三丁目","koaza":"","lat":35.665154,"lng":139.333256,"version":"14.0b/19.0a"},{"town":"北野町","koaza":"","lat":35.650139,"lng":139.354715,"version":"14.0b/19.0a"},{"town":"子安町二丁目","koaza":"","lat":35.648944,"lng":139.34146,"version":"14.0b/19.0a"},{"town":"旭町","koaza":"","lat":35.655908,"lng":139.338169,"version":"14.0b/19.0a"},{"town":"三崎町","koaza":"","lat":35.657133,"lng":139.336208,"version":"14.0b/19.0a"},{"town":"天神町","koaza":"","lat":35.657417,"lng":139.33013,"version":"14.0b/19.0a"},{"town":"寺町","koaza":"","lat":35.656331,"lng":139.3329,"version":"14.0b/19.0a"},{"town":"南町","koaza":"","lat":35.65851,"lng":139.333014,"version":"14.0b/19.0a"},{"town":"横山町","koaza":"","lat":35.659807,"lng":139.336954,"version":"14.0b/19.0a"},{"town":"八日町","koaza":"","lat":35.660057,"lng":139.33115,"version":"14.0b/19.0a"},{"town":"平岡町","koaza":"","lat":35.664392,"lng":139.32517,"version":"14.0b/19.0a"},{"town":"八幡町","koaza":"","lat":35.660623,"lng":139.32605,"version":"14.0b/19.0a"},{"town":"本郷町","koaza":"","lat":35.661867,"lng":139.325744,"version":"14.0b/19.0a"},{"town":"中野上町一丁目","koaza":"","lat":35.667665,"lng":139.327642,"version":"14.0b/19.0a"},{"town":"元本郷町一丁目","koaza":"","lat":35.664474,"lng":139.321523,"version":"14.0b/19.0a"},{"town":"本町","koaza":"","lat":35.662726,"lng":139.33181,"version":"14.0b/19.0a"},{"town":"大横町","koaza":"","lat":35.663749,"lng":139.329526,"version":"14.0b/19.0a"},{"town":"台町三丁目","koaza":"","lat":35.654659,"lng":139.320466,"version":"14.0b/19.0a"},{"town":"追分町","koaza":"","lat":35.660687,"lng":139.318146,"version":"14.0b/19.0a"},{"town":"小門町","koaza":"","lat":35.658809,"lng":139.324898,"version":"14.0b/19.0a"},{"town":"八木町","koaza":"","lat":35.661071,"lng":139.321762,"version":"14.0b/19.0a"},{"town":"千人町二丁目","koaza":"","lat":35.659024,"lng":139.311954,"version":"14.0b/19.0a"},{"town":"千人町一丁目","koaza":"","lat":35.65912,"lng":139.315654,"version":"14.0b/19.0a"},{"town":"散田町一丁目","koaza":"","lat":35.653867,"lng":139.315653,"version":"14.0b/19.0a"},{"town":"台町四丁目","koaza":"","lat":35.657563,"lng":139.319599,"version":"14.0b/19.0a"},{"town":"元本郷町三丁目","koaza":"","lat":35.664808,"lng":139.315964,"version":"14.0b/19.0a"},{"town":"日吉町","koaza":"","lat":35.661383,"lng":139.313625,"version":"14.0b/19.0a"},{"town":"元本郷町四丁目","koaza":"","lat":35.665301,"lng":139.313082,"version":"14.0b/19.0a"},{"town":"元本郷町二丁目","koaza":"","lat":35.664518,"lng":139.318497,"version":"14.0b/19.0a"},{"town":"台町一丁目","koaza":"","lat":35.650673,"lng":139.32809,"version":"14.0b/19.0a"},{"town":"上野町","koaza":"","lat":35.655149,"lng":139.327196,"version":"14.0b/19.0a"},{"town":"並木町","koaza":"","lat":35.65321,"lng":139.303219,"version":"14.0b/19.0a"},{"town":"千人町四丁目","koaza":"","lat":35.656337,"lng":139.306919,"version":"14.0b/19.0a"},{"town":"散田町三丁目","koaza":"","lat":35.652892,"lng":139.311124,"version":"14.0b/19.0a"},{"town":"千人町三丁目","koaza":"","lat":35.657889,"lng":139.309223,"version":"14.0b/19.0a"},{"town":"東浅川町","koaza":"","lat":35.645253,"lng":139.292331,"version":"14.0b/19.0a"},{"town":"散田町五丁目","koaza":"","lat":35.647977,"lng":139.301624,"version":"14.0b/19.0a"},{"town":"元八王子町一丁目","koaza":"","lat":35.664796,"lng":139.287922,"version":"14.0b/19.0a"},{"town":"廿里町","koaza":"","lat":35.646792,"lng":139.274956,"version":"14.0b/19.0a"},{"town":"長房町","koaza":"","lat":35.654616,"lng":139.29532,"version":"14.0b/19.0a"},{"town":"元八王子町二丁目","koaza":"","lat":35.659649,"lng":139.280972,"version":"14.0b/19.0a"},{"town":"みつい台一丁目","koaza":"","lat":35.681245,"lng":139.32885,"version":"14.0b/19.0a"},{"town":"久保山町一丁目","koaza":"","lat":35.685766,"lng":139.36078,"version":"14.0b/19.0a"},{"town":"久保山町二丁目","koaza":"","lat":35.686413,"lng":139.355518,"version":"14.0b/19.0a"},{"town":"みつい台二丁目","koaza":"","lat":35.682287,"lng":139.325052,"version":"14.0b/19.0a"},{"town":"滝山町二丁目","koaza":"","lat":35.692245,"lng":139.336148,"version":"14.0b/19.0a"},{"town":"丹木町一丁目","koaza":"","lat":35.692316,"lng":139.330777,"version":"14.0b/19.0a"},{"town":"川口町","koaza":"","lat":35.695799,"lng":139.277573,"version":"14.0b/19.0a"},{"town":"尾崎町","koaza":"","lat":35.679547,"lng":139.34446,"version":"14.0b/19.0a"},{"town":"宇津木町","koaza":"","lat":35.68172,"lng":139.352609,"version":"14.0b/19.0a"},{"town":"中野山王二丁目","koaza":"","lat":35.67461,"lng":139.330428,"version":"14.0b/19.0a"},{"town":"中野上町五丁目","koaza":"","lat":35.674254,"lng":139.316192,"version":"14.0b/19.0a"},{"town":"四谷町","koaza":"","lat":35.677224,"lng":139.296971,"version":"14.0b/19.0a"},{"town":"暁町三丁目","koaza":"","lat":35.675318,"lng":139.335553,"version":"14.0b/19.0a"},{"town":"中野町","koaza":"","lat":35.680598,"lng":139.320487,"version":"14.0b/19.0a"},{"town":"中野上町三丁目","koaza":"","lat":35.672913,"lng":139.320932,"version":"14.0b/19.0a"},{"town":"中野山王三丁目","koaza":"","lat":35.675285,"lng":139.321385,"version":"14.0b/19.0a"},{"town":"諏訪町","koaza":"","lat":35.678929,"lng":139.292294,"version":"14.0b/19.0a"},{"town":"上壱分方町","koaza":"","lat":35.681592,"lng":139.284711,"version":"14.0b/19.0a"},{"town":"丸山町","koaza":"","lat":35.690346,"lng":139.350753,"version":"14.0b/19.0a"},{"town":"加住町二丁目","koaza":"","lat":35.694297,"lng":139.315035,"version":"14.0b/19.0a"},{"town":"平町","koaza":"","lat":35.691867,"lng":139.35896,"version":"14.0b/19.0a"},{"town":"谷野町","koaza":"","lat":35.685416,"lng":139.325083,"version":"14.0b/19.0a"},{"town":"丹木町二丁目","koaza":"","lat":35.694931,"lng":139.32771,"version":"14.0b/19.0a"},{"town":"犬目町","koaza":"","lat":35.689661,"lng":139.30773,"version":"14.0b/19.0a"},{"town":"戸吹町","koaza":"","lat":35.707137,"lng":139.289199,"version":"14.0b/19.0a"},{"town":"丹木町三丁目","koaza":"","lat":35.694854,"lng":139.323643,"version":"14.0b/19.0a"},{"town":"加住町一丁目","koaza":"","lat":35.701817,"lng":139.320504,"version":"14.0b/19.0a"},{"town":"宮下町","koaza":"","lat":35.705277,"lng":139.310485,"version":"14.0b/19.0a"},{"town":"高月町","koaza":"","lat":35.707514,"lng":139.32551,"version":"14.0b/19.0a"},{"town":"梅坪町","koaza":"","lat":35.686065,"lng":139.335755,"version":"14.0b/19.0a"},{"town":"左入町","koaza":"","lat":35.683015,"lng":139.344775,"version":"14.0b/19.0a"},{"town":"滝山町一丁目","koaza":"","lat":35.684899,"lng":139.341468,"version":"14.0b/19.0a"}]