[{"town":"天神町四丁目","koaza":"","lat":35.728845,"lng":139.49856,"version":"13.0b/18.0a"},{"town":"天神町三丁目","koaza":"","lat":35.731606,"lng":139.498699,"version":"13.0b/18.0a"},{"town":"天神町一丁目","koaza":"","lat":35.728754,"lng":139.493869,"version":"13.0b/18.0a"},{"town":"天神町二丁目","koaza":"","lat":35.732421,"lng":139.494036,"version":"13.0b/18.0a"},{"town":"花小金井八丁目","koaza":"","lat":35.733213,"lng":139.503854,"version":"13.0b/18.0a"},{"town":"花小金井七丁目","koaza":"","lat":35.728594,"lng":139.503333,"version":"13.0b/18.0a"},{"town":"大沼町七丁目","koaza":"","lat":35.735257,"lng":139.497602,"version":"13.0b/18.0a"},{"town":"大沼町六丁目","koaza":"","lat":35.734248,"lng":139.500826,"version":"13.0b/18.0a"},{"town":"大沼町五丁目","koaza":"","lat":35.73884,"lng":139.502291,"version":"13.0b/18.0a"},{"town":"大沼町四丁目","koaza":"","lat":35.742955,"lng":139.500337,"version":"13.0b/18.0a"},{"town":"大沼町三丁目","koaza":"","lat":35.739584,"lng":139.498709,"version":"13.0b/18.0a"},{"town":"大沼町一丁目","koaza":"","lat":35.736041,"lng":139.494306,"version":"13.0b/18.0a"},{"town":"大沼町二丁目","koaza":"","lat":35.740341,"lng":139.494729,"version":"13.0b/18.0a"},{"town":"花小金井六丁目","koaza":"","lat":35.728851,"lng":139.508736,"version":"13.0b/18.0a"},{"town":"花小金井五丁目","koaza":"","lat":35.732894,"lng":139.509486,"version":"13.0b/18.0a"},{"town":"回田町","koaza":"","lat":35.717369,"lng":139.495336,"version":"13.0b/18.0a"},{"town":"鈴木町一丁目","koaza":"","lat":35.722492,"lng":139.496996,"version":"13.0b/18.0a"},{"town":"鈴木町二丁目","koaza":"","lat":35.722296,"lng":139.506279,"version":"13.0b/18.0a"},{"town":"御幸町","koaza":"","lat":35.716175,"lng":139.503869,"version":"13.0b/18.0a"},{"town":"花小金井南町一丁目","koaza":"","lat":35.721784,"lng":139.511784,"version":"13.0b/18.0a"},{"town":"花小金井南町二丁目","koaza":"","lat":35.722721,"lng":139.515692,"version":"13.0b/18.0a"},{"town":"花小金井南町三丁目","koaza":"","lat":35.7217,"lng":139.520868,"version":"13.0b/18.0a"},{"town":"花小金井一丁目","koaza":"","lat":35.72772,"lng":139.514471,"version":"13.0b/18.0a"},{"town":"花小金井二丁目","koaza":"","lat":35.732491,"lng":139.515794,"version":"13.0b/18.0a"},{"town":"花小金井三丁目","koaza":"","lat":35.737244,"lng":139.516967,"version":"13.0b/18.0a"},{"town":"花小金井四丁目","koaza":"","lat":35.736934,"lng":139.509694,"version":"13.0b/18.0a"},{"town":"小川西町五丁目","koaza":"","lat":35.734433,"lng":139.458372,"version":"13.0b/18.0a"},{"town":"小川西町四丁目","koaza":"","lat":35.736396,"lng":139.462278,"version":"13.0b/18.0a"},{"town":"上水本町四丁目","koaza":"","lat":35.716175,"lng":139.476371,"version":"13.0b/18.0a"},{"town":"上水本町六丁目","koaza":"","lat":35.712824,"lng":139.473936,"version":"13.0b/18.0a"},{"town":"上水本町一丁目","koaza":"","lat":35.719184,"lng":139.462552,"version":"13.0b/18.0a"},{"town":"上水新町一丁目","koaza":"","lat":35.725055,"lng":139.438685,"version":"13.0b/18.0a"},{"town":"津田町二丁目","koaza":"","lat":35.722897,"lng":139.466687,"version":"13.0b/18.0a"},{"town":"小川東町","koaza":"","lat":35.734862,"lng":139.477858,"version":"13.0b/18.0a"},{"town":"美園町二丁目","koaza":"","lat":35.736869,"lng":139.490761,"version":"13.0b/18.0a"},{"town":"上水本町五丁目","koaza":"","lat":35.711931,"lng":139.47753,"version":"13.0b/18.0a"},{"town":"上水新町三丁目","koaza":"","lat":35.720012,"lng":139.459326,"version":"13.0b/18.0a"},{"town":"喜平町三丁目","koaza":"","lat":35.719768,"lng":139.490209,"version":"13.0b/18.0a"},{"town":"上水南町三丁目","koaza":"","lat":35.712785,"lng":139.491679,"version":"13.0b/18.0a"},{"town":"上水南町四丁目","koaza":"","lat":35.709899,"lng":139.489696,"version":"13.0b/18.0a"},{"town":"上水南町一丁目","koaza":"","lat":35.713715,"lng":139.482747,"version":"13.0b/18.0a"},{"town":"喜平町一丁目","koaza":"","lat":35.715769,"lng":139.487375,"version":"13.0b/18.0a"},{"town":"上水南町二丁目","koaza":"","lat":35.712017,"lng":139.485617,"version":"13.0b/18.0a"},{"town":"学園西町一丁目","koaza":"","lat":35.718933,"lng":139.475683,"version":"13.0b/18.0a"},{"town":"上水本町三丁目","koaza":"","lat":35.71638,"lng":139.469929,"version":"13.0b/18.0a"},{"town":"学園東町二丁目","koaza":"","lat":35.724125,"lng":139.485211,"version":"13.0b/18.0a"},{"town":"喜平町二丁目","koaza":"","lat":35.719315,"lng":139.484137,"version":"13.0b/18.0a"},{"town":"上水本町二丁目","koaza":"","lat":35.718904,"lng":139.467175,"version":"13.0b/18.0a"},{"town":"たかの台","koaza":"","lat":35.723654,"lng":139.455325,"version":"13.0b/18.0a"},{"town":"上水新町二丁目","koaza":"","lat":35.7226,"lng":139.451512,"version":"13.0b/18.0a"},{"town":"学園東町三丁目","koaza":"","lat":35.723991,"lng":139.489605,"version":"13.0b/18.0a"},{"town":"学園西町二丁目","koaza":"","lat":35.722815,"lng":139.475274,"version":"13.0b/18.0a"},{"town":"学園東町一丁目","koaza":"","lat":35.724556,"lng":139.480689,"version":"13.0b/18.0a"},{"town":"学園東町","koaza":"","lat":35.726842,"lng":139.48523,"version":"13.0b/18.0a"},{"town":"美園町一丁目","koaza":"","lat":35.736051,"lng":139.488524,"version":"13.0b/18.0a"},{"town":"学園西町三丁目","koaza":"","lat":35.725644,"lng":139.474246,"version":"13.0b/18.0a"},{"town":"津田町三丁目","koaza":"","lat":35.722318,"lng":139.469673,"version":"13.0b/18.0a"},{"town":"小川町二丁目","koaza":"","lat":35.729178,"lng":139.472827,"version":"13.0b/18.0a"},{"town":"中島町","koaza":"","lat":35.730098,"lng":139.431705,"version":"13.0b/18.0a"},{"town":"津田町一丁目","koaza":"","lat":35.723385,"lng":139.463063,"version":"13.0b/18.0a"},{"town":"小川町一丁目","koaza":"","lat":35.729228,"lng":139.450032,"version":"13.0b/18.0a"},{"town":"仲町","koaza":"","lat":35.73088,"lng":139.485412,"version":"13.0b/18.0a"},{"town":"美園町三丁目","koaza":"","lat":35.740872,"lng":139.489031,"version":"13.0b/18.0a"},{"town":"小川東町五丁目","koaza":"","lat":35.733186,"lng":139.470963,"version":"13.0b/18.0a"},{"town":"小川東町一丁目","koaza":"","lat":35.736322,"lng":139.464439,"version":"13.0b/18.0a"},{"town":"栄町一丁目","koaza":"","lat":35.734813,"lng":139.441965,"version":"13.0b/18.0a"},{"town":"栄町二丁目","koaza":"","lat":35.734308,"lng":139.448735,"version":"13.0b/18.0a"},{"town":"小川東町四丁目","koaza":"","lat":35.737437,"lng":139.475352,"version":"13.0b/18.0a"},{"town":"栄町三丁目","koaza":"","lat":35.736342,"lng":139.451357,"version":"13.0b/18.0a"},{"town":"小川西町一丁目","koaza":"","lat":35.735846,"lng":139.454117,"version":"13.0b/18.0a"},{"town":"小川東町三丁目","koaza":"","lat":35.738435,"lng":139.469413,"version":"13.0b/18.0a"},{"town":"小川東町二丁目","koaza":"","lat":35.742953,"lng":139.466829,"version":"13.0b/18.0a"},{"town":"小川西町三丁目","koaza":"","lat":35.741626,"lng":139.462772,"version":"13.0b/18.0a"},{"town":"小川西町二丁目","koaza":"","lat":35.738532,"lng":139.458363,"version":"13.0b/18.0a"},{"town":"天神町四丁目","koaza":"","lat":35.728845,"lng":139.49856,"version":"14.0b/19.0a"},{"town":"天神町三丁目","koaza":"","lat":35.731606,"lng":139.498699,"version":"14.0b/19.0a"},{"town":"天神町一丁目","koaza":"","lat":35.728754,"lng":139.493869,"version":"14.0b/19.0a"},{"town":"天神町二丁目","koaza":"","lat":35.732421,"lng":139.494036,"version":"14.0b/19.0a"},{"town":"花小金井八丁目","koaza":"","lat":35.733213,"lng":139.503854,"version":"14.0b/19.0a"},{"town":"花小金井七丁目","koaza":"","lat":35.728594,"lng":139.503333,"version":"14.0b/19.0a"},{"town":"大沼町七丁目","koaza":"","lat":35.735257,"lng":139.497602,"version":"14.0b/19.0a"},{"town":"大沼町六丁目","koaza":"","lat":35.734248,"lng":139.500826,"version":"14.0b/19.0a"},{"town":"大沼町五丁目","koaza":"","lat":35.73884,"lng":139.502291,"version":"14.0b/19.0a"},{"town":"大沼町四丁目","koaza":"","lat":35.742955,"lng":139.500337,"version":"14.0b/19.0a"},{"town":"大沼町三丁目","koaza":"","lat":35.739584,"lng":139.498709,"version":"14.0b/19.0a"},{"town":"大沼町一丁目","koaza":"","lat":35.736041,"lng":139.494306,"version":"14.0b/19.0a"},{"town":"大沼町二丁目","koaza":"","lat":35.740341,"lng":139.494729,"version":"14.0b/19.0a"},{"town":"花小金井六丁目","koaza":"","lat":35.728851,"lng":139.508736,"version":"14.0b/19.0a"},{"town":"花小金井五丁目","koaza":"","lat":35.732894,"lng":139.509486,"version":"14.0b/19.0a"},{"town":"回田町","koaza":"","lat":35.717369,"lng":139.495336,"version":"14.0b/19.0a"},{"town":"鈴木町一丁目","koaza":"","lat":35.722492,"lng":139.496996,"version":"14.0b/19.0a"},{"town":"鈴木町二丁目","koaza":"","lat":35.722296,"lng":139.506279,"version":"14.0b/19.0a"},{"town":"御幸町","koaza":"","lat":35.716175,"lng":139.503869,"version":"14.0b/19.0a"},{"town":"花小金井南町一丁目","koaza":"","lat":35.721784,"lng":139.511784,"version":"14.0b/19.0a"},{"town":"花小金井南町二丁目","koaza":"","lat":35.722721,"lng":139.515692,"version":"14.0b/19.0a"},{"town":"花小金井南町三丁目","koaza":"","lat":35.7217,"lng":139.520868,"version":"14.0b/19.0a"},{"town":"花小金井一丁目","koaza":"","lat":35.72772,"lng":139.514471,"version":"14.0b/19.0a"},{"town":"花小金井二丁目","koaza":"","lat":35.732491,"lng":139.515794,"version":"14.0b/19.0a"},{"town":"花小金井三丁目","koaza":"","lat":35.737244,"lng":139.516967,"version":"14.0b/19.0a"},{"town":"花小金井四丁目","koaza":"","lat":35.736934,"lng":139.509694,"version":"14.0b/19.0a"},{"town":"小川西町五丁目","koaza":"","lat":35.734433,"lng":139.458372,"version":"14.0b/19.0a"},{"town":"小川西町四丁目","koaza":"","lat":35.736396,"lng":139.462278,"version":"14.0b/19.0a"},{"town":"上水本町四丁目","koaza":"","lat":35.716175,"lng":139.476371,"version":"14.0b/19.0a"},{"town":"上水本町六丁目","koaza":"","lat":35.712824,"lng":139.473936,"version":"14.0b/19.0a"},{"town":"上水本町一丁目","koaza":"","lat":35.719184,"lng":139.462552,"version":"14.0b/19.0a"},{"town":"上水新町一丁目","koaza":"","lat":35.725055,"lng":139.438685,"version":"14.0b/19.0a"},{"town":"津田町二丁目","koaza":"","lat":35.722897,"lng":139.466687,"version":"14.0b/19.0a"},{"town":"小川東町","koaza":"","lat":35.734862,"lng":139.477858,"version":"14.0b/19.0a"},{"town":"美園町二丁目","koaza":"","lat":35.736869,"lng":139.490761,"version":"14.0b/19.0a"},{"town":"上水本町五丁目","koaza":"","lat":35.711931,"lng":139.47753,"version":"14.0b/19.0a"},{"town":"上水新町三丁目","koaza":"","lat":35.720012,"lng":139.459326,"version":"14.0b/19.0a"},{"town":"喜平町三丁目","koaza":"","lat":35.719768,"lng":139.490209,"version":"14.0b/19.0a"},{"town":"上水南町三丁目","koaza":"","lat":35.712785,"lng":139.491679,"version":"14.0b/19.0a"},{"town":"上水南町四丁目","koaza":"","lat":35.709899,"lng":139.489696,"version":"14.0b/19.0a"},{"town":"上水南町一丁目","koaza":"","lat":35.713715,"lng":139.482747,"version":"14.0b/19.0a"},{"town":"喜平町一丁目","koaza":"","lat":35.715769,"lng":139.487375,"version":"14.0b/19.0a"},{"town":"上水南町二丁目","koaza":"","lat":35.712017,"lng":139.485617,"version":"14.0b/19.0a"},{"town":"学園西町一丁目","koaza":"","lat":35.718933,"lng":139.475683,"version":"14.0b/19.0a"},{"town":"上水本町三丁目","koaza":"","lat":35.71638,"lng":139.469929,"version":"14.0b/19.0a"},{"town":"学園東町二丁目","koaza":"","lat":35.724125,"lng":139.485211,"version":"14.0b/19.0a"},{"town":"喜平町二丁目","koaza":"","lat":35.719315,"lng":139.484137,"version":"14.0b/19.0a"},{"town":"上水本町二丁目","koaza":"","lat":35.718904,"lng":139.467175,"version":"14.0b/19.0a"},{"town":"たかの台","koaza":"","lat":35.723654,"lng":139.455325,"version":"14.0b/19.0a"},{"town":"上水新町二丁目","koaza":"","lat":35.7226,"lng":139.451512,"version":"14.0b/19.0a"},{"town":"学園東町三丁目","koaza":"","lat":35.723991,"lng":139.489605,"version":"14.0b/19.0a"},{"town":"学園西町二丁目","koaza":"","lat":35.722815,"lng":139.475274,"version":"14.0b/19.0a"},{"town":"学園東町一丁目","koaza":"","lat":35.724556,"lng":139.480689,"version":"14.0b/19.0a"},{"town":"学園東町","koaza":"","lat":35.726842,"lng":139.48523,"version":"14.0b/19.0a"},{"town":"美園町一丁目","koaza":"","lat":35.736051,"lng":139.488524,"version":"14.0b/19.0a"},{"town":"学園西町三丁目","koaza":"","lat":35.725644,"lng":139.474246,"version":"14.0b/19.0a"},{"town":"津田町三丁目","koaza":"","lat":35.722318,"lng":139.469673,"version":"14.0b/19.0a"},{"town":"小川町二丁目","koaza":"","lat":35.729178,"lng":139.472827,"version":"14.0b/19.0a"},{"town":"中島町","koaza":"","lat":35.730098,"lng":139.431705,"version":"14.0b/19.0a"},{"town":"津田町一丁目","koaza":"","lat":35.723385,"lng":139.463063,"version":"14.0b/19.0a"},{"town":"小川町一丁目","koaza":"","lat":35.729228,"lng":139.450032,"version":"14.0b/19.0a"},{"town":"仲町","koaza":"","lat":35.73088,"lng":139.485412,"version":"14.0b/19.0a"},{"town":"美園町三丁目","koaza":"","lat":35.740872,"lng":139.489031,"version":"14.0b/19.0a"},{"town":"小川東町五丁目","koaza":"","lat":35.733186,"lng":139.470963,"version":"14.0b/19.0a"},{"town":"小川東町一丁目","koaza":"","lat":35.736322,"lng":139.464439,"version":"14.0b/19.0a"},{"town":"栄町一丁目","koaza":"","lat":35.734813,"lng":139.441965,"version":"14.0b/19.0a"},{"town":"栄町二丁目","koaza":"","lat":35.734308,"lng":139.448735,"version":"14.0b/19.0a"},{"town":"小川東町四丁目","koaza":"","lat":35.737437,"lng":139.475352,"version":"14.0b/19.0a"},{"town":"栄町三丁目","koaza":"","lat":35.736342,"lng":139.451357,"version":"14.0b/19.0a"},{"town":"小川西町一丁目","koaza":"","lat":35.735846,"lng":139.454117,"version":"14.0b/19.0a"},{"town":"小川東町三丁目","koaza":"","lat":35.738435,"lng":139.469413,"version":"14.0b/19.0a"},{"town":"小川東町二丁目","koaza":"","lat":35.742953,"lng":139.466829,"version":"14.0b/19.0a"},{"town":"小川西町三丁目","koaza":"","lat":35.741626,"lng":139.462772,"version":"14.0b/19.0a"},{"town":"小川西町二丁目","koaza":"","lat":35.738532,"lng":139.458363,"version":"14.0b/19.0a"}]