[{"town":"大字岸","koaza":"","lat":35.743657,"lng":139.359624,"version":"13.0b/18.0a"},{"town":"三ツ藤三丁目","koaza":"","lat":35.754996,"lng":139.371508,"version":"13.0b/18.0a"},{"town":"伊奈平六丁目","koaza":"","lat":35.744022,"lng":139.372133,"version":"13.0b/18.0a"},{"town":"伊奈平五丁目","koaza":"","lat":35.740251,"lng":139.373562,"version":"13.0b/18.0a"},{"town":"残堀五丁目","koaza":"","lat":35.752382,"lng":139.369676,"version":"13.0b/18.0a"},{"town":"伊奈平四丁目","koaza":"","lat":35.737092,"lng":139.374453,"version":"13.0b/18.0a"},{"town":"残堀二丁目","koaza":"","lat":35.747156,"lng":139.372257,"version":"13.0b/18.0a"},{"town":"中央二丁目","koaza":"","lat":35.751885,"lng":139.395509,"version":"13.0b/18.0a"},{"town":"中央一丁目","koaza":"","lat":35.752627,"lng":139.390447,"version":"13.0b/18.0a"},{"town":"本町一丁目","koaza":"","lat":35.753453,"lng":139.38556,"version":"13.0b/18.0a"},{"town":"三ツ藤一丁目","koaza":"","lat":35.750018,"lng":139.379996,"version":"13.0b/18.0a"},{"town":"神明四丁目","koaza":"","lat":35.751203,"lng":139.402677,"version":"13.0b/18.0a"},{"town":"神明二丁目","koaza":"","lat":35.755019,"lng":139.403279,"version":"13.0b/18.0a"},{"town":"神明三丁目","koaza":"","lat":35.751743,"lng":139.40582,"version":"13.0b/18.0a"},{"town":"神明一丁目","koaza":"","lat":35.751392,"lng":139.399578,"version":"13.0b/18.0a"},{"town":"三ツ藤二丁目","koaza":"","lat":35.75164,"lng":139.375813,"version":"13.0b/18.0a"},{"town":"本町二丁目","koaza":"","lat":35.755136,"lng":139.381655,"version":"13.0b/18.0a"},{"town":"中原四丁目","koaza":"","lat":35.752685,"lng":139.360785,"version":"13.0b/18.0a"},{"town":"中原一丁目","koaza":"","lat":35.755881,"lng":139.365178,"version":"13.0b/18.0a"},{"town":"岸三丁目","koaza":"","lat":35.764154,"lng":139.369468,"version":"13.0b/18.0a"},{"town":"三ツ木二丁目","koaza":"","lat":35.758181,"lng":139.371468,"version":"13.0b/18.0a"},{"town":"岸五丁目","koaza":"","lat":35.767284,"lng":139.373146,"version":"13.0b/18.0a"},{"town":"三ツ木三丁目","koaza":"","lat":35.762502,"lng":139.372973,"version":"13.0b/18.0a"},{"town":"大南五丁目","koaza":"","lat":35.736541,"lng":139.410001,"version":"13.0b/18.0a"},{"town":"大南二丁目","koaza":"","lat":35.739851,"lng":139.401984,"version":"13.0b/18.0a"},{"town":"学園四丁目","koaza":"","lat":35.744085,"lng":139.400418,"version":"13.0b/18.0a"},{"town":"学園五丁目","koaza":"","lat":35.744367,"lng":139.394707,"version":"13.0b/18.0a"},{"town":"学園一丁目","koaza":"","lat":35.74811,"lng":139.393775,"version":"13.0b/18.0a"},{"town":"榎三丁目","koaza":"","lat":35.749327,"lng":139.386288,"version":"13.0b/18.0a"},{"town":"大南三丁目","koaza":"","lat":35.735711,"lng":139.401959,"version":"13.0b/18.0a"},{"town":"大南四丁目","koaza":"","lat":35.734022,"lng":139.411833,"version":"13.0b/18.0a"},{"town":"学園二丁目","koaza":"","lat":35.747396,"lng":139.400108,"version":"13.0b/18.0a"},{"town":"学園三丁目","koaza":"","lat":35.744994,"lng":139.405027,"version":"13.0b/18.0a"},{"town":"緑が丘","koaza":"","lat":35.742924,"lng":139.407918,"version":"13.0b/18.0a"},{"town":"榎二丁目","koaza":"","lat":35.743619,"lng":139.390509,"version":"13.0b/18.0a"},{"town":"大南一丁目","koaza":"","lat":35.738599,"lng":139.397063,"version":"13.0b/18.0a"},{"town":"伊奈平三丁目","koaza":"","lat":35.735481,"lng":139.38063,"version":"13.0b/18.0a"},{"town":"伊奈平二丁目","koaza":"","lat":35.739156,"lng":139.379837,"version":"13.0b/18.0a"},{"town":"榎一丁目","koaza":"","lat":35.74089,"lng":139.38802,"version":"13.0b/18.0a"},{"town":"伊奈平一丁目","koaza":"","lat":35.744805,"lng":139.380246,"version":"13.0b/18.0a"},{"town":"残堀一丁目","koaza":"","lat":35.747725,"lng":139.375812,"version":"13.0b/18.0a"},{"town":"中原五丁目","koaza":"","lat":35.749064,"lng":139.359989,"version":"13.0b/18.0a"},{"town":"残堀三丁目","koaza":"","lat":35.745942,"lng":139.364254,"version":"13.0b/18.0a"},{"town":"残堀四丁目","koaza":"","lat":35.749426,"lng":139.367815,"version":"13.0b/18.0a"},{"town":"大字三ツ木","koaza":"","lat":35.740933,"lng":139.366485,"version":"13.0b/18.0a"},{"town":"三ツ木一丁目","koaza":"","lat":35.756428,"lng":139.37657,"version":"13.0b/18.0a"},{"town":"中央三丁目","koaza":"","lat":35.756342,"lng":139.392738,"version":"13.0b/18.0a"},{"town":"中藤四丁目","koaza":"","lat":35.759115,"lng":139.403245,"version":"13.0b/18.0a"},{"town":"中藤三丁目","koaza":"","lat":35.759605,"lng":139.399098,"version":"13.0b/18.0a"},{"town":"中藤五丁目","koaza":"","lat":35.758482,"lng":139.407013,"version":"13.0b/18.0a"},{"town":"中藤一丁目","koaza":"","lat":35.756015,"lng":139.398608,"version":"13.0b/18.0a"},{"town":"中央四丁目","koaza":"","lat":35.758853,"lng":139.391079,"version":"13.0b/18.0a"},{"town":"中藤二丁目","koaza":"","lat":35.76022,"lng":139.395532,"version":"13.0b/18.0a"},{"town":"本町四丁目","koaza":"","lat":35.758703,"lng":139.38715,"version":"13.0b/18.0a"},{"town":"中央五丁目","koaza":"","lat":35.761692,"lng":139.391153,"version":"13.0b/18.0a"},{"town":"三ツ木五丁目","koaza":"","lat":35.761796,"lng":139.377987,"version":"13.0b/18.0a"},{"town":"本町三丁目","koaza":"","lat":35.759272,"lng":139.38379,"version":"13.0b/18.0a"},{"town":"本町五丁目","koaza":"","lat":35.76296,"lng":139.384129,"version":"13.0b/18.0a"},{"town":"本町六丁目","koaza":"","lat":35.765161,"lng":139.387028,"version":"13.0b/18.0a"},{"town":"三ツ木四丁目","koaza":"","lat":35.76726,"lng":139.37777,"version":"13.0b/18.0a"},{"town":"中原三丁目","koaza":"","lat":35.757455,"lng":139.359783,"version":"13.0b/18.0a"},{"town":"中原二丁目","koaza":"","lat":35.757017,"lng":139.362201,"version":"13.0b/18.0a"},{"town":"岸一丁目","koaza":"","lat":35.761242,"lng":139.366303,"version":"13.0b/18.0a"},{"town":"岸二丁目","koaza":"","lat":35.765828,"lng":139.366881,"version":"13.0b/18.0a"},{"town":"岸四丁目","koaza":"","lat":35.769895,"lng":139.369866,"version":"13.0b/18.0a"},{"town":"大字岸","koaza":"","lat":35.743657,"lng":139.359624,"version":"14.0b/19.0a"},{"town":"三ツ藤三丁目","koaza":"","lat":35.754996,"lng":139.371508,"version":"14.0b/19.0a"},{"town":"伊奈平六丁目","koaza":"","lat":35.744022,"lng":139.372133,"version":"14.0b/19.0a"},{"town":"伊奈平五丁目","koaza":"","lat":35.740251,"lng":139.373562,"version":"14.0b/19.0a"},{"town":"残堀五丁目","koaza":"","lat":35.752382,"lng":139.369676,"version":"14.0b/19.0a"},{"town":"伊奈平四丁目","koaza":"","lat":35.737092,"lng":139.374453,"version":"14.0b/19.0a"},{"town":"残堀二丁目","koaza":"","lat":35.747156,"lng":139.372257,"version":"14.0b/19.0a"},{"town":"中央二丁目","koaza":"","lat":35.751885,"lng":139.395509,"version":"14.0b/19.0a"},{"town":"中央一丁目","koaza":"","lat":35.752627,"lng":139.390447,"version":"14.0b/19.0a"},{"town":"本町一丁目","koaza":"","lat":35.753453,"lng":139.38556,"version":"14.0b/19.0a"},{"town":"三ツ藤一丁目","koaza":"","lat":35.750018,"lng":139.379996,"version":"14.0b/19.0a"},{"town":"神明四丁目","koaza":"","lat":35.751203,"lng":139.402677,"version":"14.0b/19.0a"},{"town":"神明二丁目","koaza":"","lat":35.755019,"lng":139.403279,"version":"14.0b/19.0a"},{"town":"神明三丁目","koaza":"","lat":35.751743,"lng":139.40582,"version":"14.0b/19.0a"},{"town":"神明一丁目","koaza":"","lat":35.751392,"lng":139.399578,"version":"14.0b/19.0a"},{"town":"三ツ藤二丁目","koaza":"","lat":35.75164,"lng":139.375813,"version":"14.0b/19.0a"},{"town":"本町二丁目","koaza":"","lat":35.755136,"lng":139.381655,"version":"14.0b/19.0a"},{"town":"中原四丁目","koaza":"","lat":35.752685,"lng":139.360785,"version":"14.0b/19.0a"},{"town":"中原一丁目","koaza":"","lat":35.755881,"lng":139.365178,"version":"14.0b/19.0a"},{"town":"岸三丁目","koaza":"","lat":35.764154,"lng":139.369468,"version":"14.0b/19.0a"},{"town":"三ツ木二丁目","koaza":"","lat":35.758181,"lng":139.371468,"version":"14.0b/19.0a"},{"town":"岸五丁目","koaza":"","lat":35.767284,"lng":139.373146,"version":"14.0b/19.0a"},{"town":"三ツ木三丁目","koaza":"","lat":35.762502,"lng":139.372973,"version":"14.0b/19.0a"},{"town":"大南五丁目","koaza":"","lat":35.736541,"lng":139.410001,"version":"14.0b/19.0a"},{"town":"大南二丁目","koaza":"","lat":35.739851,"lng":139.401984,"version":"14.0b/19.0a"},{"town":"学園四丁目","koaza":"","lat":35.744085,"lng":139.400418,"version":"14.0b/19.0a"},{"town":"学園五丁目","koaza":"","lat":35.744367,"lng":139.394707,"version":"14.0b/19.0a"},{"town":"学園一丁目","koaza":"","lat":35.74811,"lng":139.393775,"version":"14.0b/19.0a"},{"town":"榎三丁目","koaza":"","lat":35.749327,"lng":139.386288,"version":"14.0b/19.0a"},{"town":"大南三丁目","koaza":"","lat":35.735711,"lng":139.401959,"version":"14.0b/19.0a"},{"town":"大南四丁目","koaza":"","lat":35.734022,"lng":139.411833,"version":"14.0b/19.0a"},{"town":"学園二丁目","koaza":"","lat":35.747396,"lng":139.400108,"version":"14.0b/19.0a"},{"town":"学園三丁目","koaza":"","lat":35.744994,"lng":139.405027,"version":"14.0b/19.0a"},{"town":"緑が丘","koaza":"","lat":35.742924,"lng":139.407918,"version":"14.0b/19.0a"},{"town":"榎二丁目","koaza":"","lat":35.743619,"lng":139.390509,"version":"14.0b/19.0a"},{"town":"大南一丁目","koaza":"","lat":35.738599,"lng":139.397063,"version":"14.0b/19.0a"},{"town":"伊奈平三丁目","koaza":"","lat":35.735481,"lng":139.38063,"version":"14.0b/19.0a"},{"town":"伊奈平二丁目","koaza":"","lat":35.739156,"lng":139.379837,"version":"14.0b/19.0a"},{"town":"榎一丁目","koaza":"","lat":35.74089,"lng":139.38802,"version":"14.0b/19.0a"},{"town":"伊奈平一丁目","koaza":"","lat":35.744805,"lng":139.380246,"version":"14.0b/19.0a"},{"town":"残堀一丁目","koaza":"","lat":35.747725,"lng":139.375812,"version":"14.0b/19.0a"},{"town":"中原五丁目","koaza":"","lat":35.749064,"lng":139.359989,"version":"14.0b/19.0a"},{"town":"残堀三丁目","koaza":"","lat":35.745942,"lng":139.364254,"version":"14.0b/19.0a"},{"town":"残堀四丁目","koaza":"","lat":35.749426,"lng":139.367815,"version":"14.0b/19.0a"},{"town":"大字三ツ木","koaza":"","lat":35.740933,"lng":139.366485,"version":"14.0b/19.0a"},{"town":"三ツ木一丁目","koaza":"","lat":35.756428,"lng":139.37657,"version":"14.0b/19.0a"},{"town":"中央三丁目","koaza":"","lat":35.756342,"lng":139.392738,"version":"14.0b/19.0a"},{"town":"中藤四丁目","koaza":"","lat":35.759115,"lng":139.403245,"version":"14.0b/19.0a"},{"town":"中藤三丁目","koaza":"","lat":35.759605,"lng":139.399098,"version":"14.0b/19.0a"},{"town":"中藤五丁目","koaza":"","lat":35.758482,"lng":139.407013,"version":"14.0b/19.0a"},{"town":"中藤一丁目","koaza":"","lat":35.756015,"lng":139.398608,"version":"14.0b/19.0a"},{"town":"中央四丁目","koaza":"","lat":35.758853,"lng":139.391079,"version":"14.0b/19.0a"},{"town":"中藤二丁目","koaza":"","lat":35.76022,"lng":139.395532,"version":"14.0b/19.0a"},{"town":"本町四丁目","koaza":"","lat":35.758703,"lng":139.38715,"version":"14.0b/19.0a"},{"town":"中央五丁目","koaza":"","lat":35.761692,"lng":139.391153,"version":"14.0b/19.0a"},{"town":"三ツ木五丁目","koaza":"","lat":35.761796,"lng":139.377987,"version":"14.0b/19.0a"},{"town":"本町三丁目","koaza":"","lat":35.759272,"lng":139.38379,"version":"14.0b/19.0a"},{"town":"本町五丁目","koaza":"","lat":35.76296,"lng":139.384129,"version":"14.0b/19.0a"},{"town":"本町六丁目","koaza":"","lat":35.765161,"lng":139.387028,"version":"14.0b/19.0a"},{"town":"三ツ木四丁目","koaza":"","lat":35.76726,"lng":139.37777,"version":"14.0b/19.0a"},{"town":"中原三丁目","koaza":"","lat":35.757455,"lng":139.359783,"version":"14.0b/19.0a"},{"town":"中原二丁目","koaza":"","lat":35.757017,"lng":139.362201,"version":"14.0b/19.0a"},{"town":"岸一丁目","koaza":"","lat":35.761242,"lng":139.366303,"version":"14.0b/19.0a"},{"town":"岸二丁目","koaza":"","lat":35.765828,"lng":139.366881,"version":"14.0b/19.0a"},{"town":"岸四丁目","koaza":"","lat":35.769895,"lng":139.369866,"version":"14.0b/19.0a"}]