[{"town":"武蔵野台二丁目","koaza":"","lat":35.748842,"lng":139.329707,"version":"13.0b/18.0a"},{"town":"加美平一丁目","koaza":"","lat":35.750044,"lng":139.326164,"version":"13.0b/18.0a"},{"town":"加美平四丁目","koaza":"","lat":35.753332,"lng":139.324919,"version":"13.0b/18.0a"},{"town":"南田園三丁目","koaza":"","lat":35.729867,"lng":139.328743,"version":"13.0b/18.0a"},{"town":"志茂","koaza":"","lat":35.736677,"lng":139.330154,"version":"13.0b/18.0a"},{"town":"大字熊川二宮","koaza":"","lat":35.733278,"lng":139.338984,"version":"13.0b/18.0a"},{"town":"大字福生二宮","koaza":"","lat":35.735069,"lng":139.339759,"version":"13.0b/18.0a"},{"town":"東町","koaza":"","lat":35.743817,"lng":139.327514,"version":"13.0b/18.0a"},{"town":"南田園一丁目","koaza":"","lat":35.721288,"lng":139.330774,"version":"13.0b/18.0a"},{"town":"南田園二丁目","koaza":"","lat":35.726257,"lng":139.330874,"version":"13.0b/18.0a"},{"town":"牛浜","koaza":"","lat":35.734676,"lng":139.333521,"version":"13.0b/18.0a"},{"town":"横田基地内","koaza":"","lat":35.73661,"lng":139.346526,"version":"13.0b/18.0a"},{"town":"武蔵野台一丁目","koaza":"","lat":35.748623,"lng":139.332891,"version":"13.0b/18.0a"},{"town":"本町","koaza":"","lat":35.739898,"lng":139.328326,"version":"13.0b/18.0a"},{"town":"加美平二丁目","koaza":"","lat":35.749089,"lng":139.323956,"version":"13.0b/18.0a"},{"town":"加美平三丁目","koaza":"","lat":35.747698,"lng":139.321881,"version":"13.0b/18.0a"},{"town":"北田園一丁目","koaza":"","lat":35.732951,"lng":139.324709,"version":"13.0b/18.0a"},{"town":"北田園二丁目","koaza":"","lat":35.736149,"lng":139.321438,"version":"13.0b/18.0a"},{"town":"大字福生","koaza":"","lat":35.741079,"lng":139.321477,"version":"13.0b/18.0a"},{"town":"大字熊川","koaza":"","lat":35.723492,"lng":139.343049,"version":"13.0b/18.0a"},{"town":"武蔵野台二丁目","koaza":"","lat":35.748842,"lng":139.329707,"version":"14.0b/19.0a"},{"town":"加美平一丁目","koaza":"","lat":35.750044,"lng":139.326164,"version":"14.0b/19.0a"},{"town":"加美平四丁目","koaza":"","lat":35.753332,"lng":139.324919,"version":"14.0b/19.0a"},{"town":"南田園三丁目","koaza":"","lat":35.729867,"lng":139.328743,"version":"14.0b/19.0a"},{"town":"志茂","koaza":"","lat":35.736677,"lng":139.330154,"version":"14.0b/19.0a"},{"town":"大字熊川二宮","koaza":"","lat":35.733278,"lng":139.338984,"version":"14.0b/19.0a"},{"town":"大字福生二宮","koaza":"","lat":35.735069,"lng":139.339759,"version":"14.0b/19.0a"},{"town":"東町","koaza":"","lat":35.743817,"lng":139.327514,"version":"14.0b/19.0a"},{"town":"南田園一丁目","koaza":"","lat":35.721288,"lng":139.330774,"version":"14.0b/19.0a"},{"town":"南田園二丁目","koaza":"","lat":35.726257,"lng":139.330874,"version":"14.0b/19.0a"},{"town":"牛浜","koaza":"","lat":35.734676,"lng":139.333521,"version":"14.0b/19.0a"},{"town":"横田基地内","koaza":"","lat":35.73661,"lng":139.346526,"version":"14.0b/19.0a"},{"town":"武蔵野台一丁目","koaza":"","lat":35.748623,"lng":139.332891,"version":"14.0b/19.0a"},{"town":"本町","koaza":"","lat":35.739898,"lng":139.328326,"version":"14.0b/19.0a"},{"town":"加美平二丁目","koaza":"","lat":35.749089,"lng":139.323956,"version":"14.0b/19.0a"},{"town":"加美平三丁目","koaza":"","lat":35.747698,"lng":139.321881,"version":"14.0b/19.0a"},{"town":"北田園一丁目","koaza":"","lat":35.732951,"lng":139.324709,"version":"14.0b/19.0a"},{"town":"北田園二丁目","koaza":"","lat":35.736149,"lng":139.321438,"version":"14.0b/19.0a"},{"town":"大字福生","koaza":"","lat":35.741079,"lng":139.321477,"version":"14.0b/19.0a"},{"town":"大字熊川","koaza":"","lat":35.723492,"lng":139.343049,"version":"14.0b/19.0a"}]