[{"town":"柴又一丁目","koaza":"","lat":35.755326,"lng":139.871866,"version":"13.0b/18.0a"},{"town":"細田四丁目","koaza":"","lat":35.743153,"lng":139.872295,"version":"13.0b/18.0a"},{"town":"柴又四丁目","koaza":"","lat":35.753565,"lng":139.875244,"version":"13.0b/18.0a"},{"town":"奥戸九丁目","koaza":"","lat":35.736316,"lng":139.86993,"version":"13.0b/18.0a"},{"town":"奥戸六丁目","koaza":"","lat":35.731258,"lng":139.870203,"version":"13.0b/18.0a"},{"town":"細田一丁目","koaza":"","lat":35.738463,"lng":139.871829,"version":"13.0b/18.0a"},{"town":"高砂四丁目","koaza":"","lat":35.747793,"lng":139.872473,"version":"13.0b/18.0a"},{"town":"高砂五丁目","koaza":"","lat":35.751786,"lng":139.868698,"version":"13.0b/18.0a"},{"town":"柴又五丁目","koaza":"","lat":35.75232,"lng":139.883492,"version":"13.0b/18.0a"},{"town":"柴又六丁目","koaza":"","lat":35.755729,"lng":139.881178,"version":"13.0b/18.0a"},{"town":"柴又三丁目","koaza":"","lat":35.760223,"lng":139.872372,"version":"13.0b/18.0a"},{"town":"金町二丁目","koaza":"","lat":35.764145,"lng":139.870315,"version":"13.0b/18.0a"},{"town":"水元公園","koaza":"","lat":35.788549,"lng":139.869416,"version":"13.0b/18.0a"},{"town":"東金町三丁目","koaza":"","lat":35.772455,"lng":139.87357,"version":"13.0b/18.0a"},{"town":"東金町一丁目","koaza":"","lat":35.770763,"lng":139.869077,"version":"13.0b/18.0a"},{"town":"小菅一丁目","koaza":"","lat":35.754231,"lng":139.817107,"version":"13.0b/18.0a"},{"town":"青戸六丁目","koaza":"","lat":35.750206,"lng":139.858226,"version":"13.0b/18.0a"},{"town":"青戸四丁目","koaza":"","lat":35.750419,"lng":139.850461,"version":"13.0b/18.0a"},{"town":"東堀切三丁目","koaza":"","lat":35.754662,"lng":139.837253,"version":"13.0b/18.0a"},{"town":"東金町二丁目","koaza":"","lat":35.773381,"lng":139.867904,"version":"13.0b/18.0a"},{"town":"東水元二丁目","koaza":"","lat":35.779838,"lng":139.870653,"version":"13.0b/18.0a"},{"town":"白鳥四丁目","koaza":"","lat":35.752888,"lng":139.848292,"version":"13.0b/18.0a"},{"town":"お花茶屋三丁目","koaza":"","lat":35.754478,"lng":139.841775,"version":"13.0b/18.0a"},{"town":"金町六丁目","koaza":"","lat":35.768392,"lng":139.872398,"version":"13.0b/18.0a"},{"town":"高砂六丁目","koaza":"","lat":35.753571,"lng":139.860788,"version":"13.0b/18.0a"},{"town":"青戸七丁目","koaza":"","lat":35.755176,"lng":139.855608,"version":"13.0b/18.0a"},{"town":"白鳥三丁目","koaza":"","lat":35.753358,"lng":139.844415,"version":"13.0b/18.0a"},{"town":"東堀切二丁目","koaza":"","lat":35.752216,"lng":139.835916,"version":"13.0b/18.0a"},{"town":"堀切六丁目","koaza":"","lat":35.752254,"lng":139.830391,"version":"13.0b/18.0a"},{"town":"小菅二丁目","koaza":"","lat":35.751779,"lng":139.824296,"version":"13.0b/18.0a"},{"town":"小菅三丁目","koaza":"","lat":35.754285,"lng":139.823994,"version":"13.0b/18.0a"},{"town":"金町三丁目","koaza":"","lat":35.766807,"lng":139.875451,"version":"13.0b/18.0a"},{"town":"高砂七丁目","koaza":"","lat":35.754486,"lng":139.864309,"version":"13.0b/18.0a"},{"town":"高砂八丁目","koaza":"","lat":35.754601,"lng":139.868069,"version":"13.0b/18.0a"},{"town":"細田五丁目","koaza":"","lat":35.73909,"lng":139.875227,"version":"13.0b/18.0a"},{"town":"鎌倉一丁目","koaza":"","lat":35.742729,"lng":139.878158,"version":"13.0b/18.0a"},{"town":"鎌倉四丁目","koaza":"","lat":35.746657,"lng":139.882303,"version":"13.0b/18.0a"},{"town":"鎌倉二丁目","koaza":"","lat":35.746065,"lng":139.876164,"version":"13.0b/18.0a"},{"town":"鎌倉三丁目","koaza":"","lat":35.747857,"lng":139.877628,"version":"13.0b/18.0a"},{"town":"東新小岩三丁目","koaza":"","lat":35.722981,"lng":139.860992,"version":"13.0b/18.0a"},{"town":"東新小岩四丁目","koaza":"","lat":35.725835,"lng":139.863005,"version":"13.0b/18.0a"},{"town":"四つ木二丁目","koaza":"","lat":35.736744,"lng":139.837762,"version":"13.0b/18.0a"},{"town":"新小岩一丁目","koaza":"","lat":35.714252,"lng":139.854932,"version":"13.0b/18.0a"},{"town":"西新小岩二丁目","koaza":"","lat":35.717189,"lng":139.851141,"version":"13.0b/18.0a"},{"town":"新小岩三丁目","koaza":"","lat":35.715116,"lng":139.866016,"version":"13.0b/18.0a"},{"town":"新小岩二丁目","koaza":"","lat":35.715976,"lng":139.862179,"version":"13.0b/18.0a"},{"town":"東新小岩一丁目","koaza":"","lat":35.72061,"lng":139.861353,"version":"13.0b/18.0a"},{"town":"新小岩四丁目","koaza":"","lat":35.721574,"lng":139.866331,"version":"13.0b/18.0a"},{"town":"西新小岩一丁目","koaza":"","lat":35.715641,"lng":139.853795,"version":"13.0b/18.0a"},{"town":"東四つ木一丁目","koaza":"","lat":35.725927,"lng":139.839893,"version":"13.0b/18.0a"},{"town":"西新小岩四丁目","koaza":"","lat":35.72053,"lng":139.852763,"version":"13.0b/18.0a"},{"town":"西新小岩三丁目","koaza":"","lat":35.720481,"lng":139.847128,"version":"13.0b/18.0a"},{"town":"東新小岩五丁目","koaza":"","lat":35.721609,"lng":139.856235,"version":"13.0b/18.0a"},{"town":"東新小岩二丁目","koaza":"","lat":35.725094,"lng":139.867598,"version":"13.0b/18.0a"},{"town":"奥戸五丁目","koaza":"","lat":35.73217,"lng":139.865921,"version":"13.0b/18.0a"},{"town":"東新小岩七丁目","koaza":"","lat":35.724929,"lng":139.854294,"version":"13.0b/18.0a"},{"town":"西新小岩五丁目","koaza":"","lat":35.725416,"lng":139.846836,"version":"13.0b/18.0a"},{"town":"東四つ木三丁目","koaza":"","lat":35.729164,"lng":139.837075,"version":"13.0b/18.0a"},{"town":"東新小岩六丁目","koaza":"","lat":35.72641,"lng":139.858922,"version":"13.0b/18.0a"},{"town":"東新小岩八丁目","koaza":"","lat":35.727192,"lng":139.853289,"version":"13.0b/18.0a"},{"town":"奥戸七丁目","koaza":"","lat":35.737018,"lng":139.86236,"version":"13.0b/18.0a"},{"town":"立石七丁目","koaza":"","lat":35.740423,"lng":139.850412,"version":"13.0b/18.0a"},{"town":"東立石四丁目","koaza":"","lat":35.733744,"lng":139.852052,"version":"13.0b/18.0a"},{"town":"奥戸一丁目","koaza":"","lat":35.730969,"lng":139.857311,"version":"13.0b/18.0a"},{"town":"奥戸三丁目","koaza":"","lat":35.731765,"lng":139.861664,"version":"13.0b/18.0a"},{"town":"奥戸四丁目","koaza":"","lat":35.728258,"lng":139.865868,"version":"13.0b/18.0a"},{"town":"立石四丁目","koaza":"","lat":35.740094,"lng":139.847259,"version":"13.0b/18.0a"},{"town":"奥戸二丁目","koaza":"","lat":35.734848,"lng":139.857812,"version":"13.0b/18.0a"},{"town":"四つ木一丁目","koaza":"","lat":35.732958,"lng":139.833459,"version":"13.0b/18.0a"},{"town":"東四つ木二丁目","koaza":"","lat":35.729732,"lng":139.844405,"version":"13.0b/18.0a"},{"town":"東立石三丁目","koaza":"","lat":35.73537,"lng":139.844999,"version":"13.0b/18.0a"},{"town":"東立石一丁目","koaza":"","lat":35.730983,"lng":139.848195,"version":"13.0b/18.0a"},{"town":"立石一丁目","koaza":"","lat":35.737208,"lng":139.846839,"version":"13.0b/18.0a"},{"town":"立石三丁目","koaza":"","lat":35.739613,"lng":139.844151,"version":"13.0b/18.0a"},{"town":"四つ木四丁目","koaza":"","lat":35.738241,"lng":139.834751,"version":"13.0b/18.0a"},{"town":"四つ木三丁目","koaza":"","lat":35.735706,"lng":139.830579,"version":"13.0b/18.0a"},{"town":"東四つ木四丁目","koaza":"","lat":35.733497,"lng":139.840198,"version":"13.0b/18.0a"},{"town":"東立石二丁目","koaza":"","lat":35.733363,"lng":139.846833,"version":"13.0b/18.0a"},{"town":"青戸二丁目","koaza":"","lat":35.746719,"lng":139.85928,"version":"13.0b/18.0a"},{"town":"高砂三丁目","koaza":"","lat":35.748119,"lng":139.868939,"version":"13.0b/18.0a"},{"town":"高砂二丁目","koaza":"","lat":35.747889,"lng":139.865177,"version":"13.0b/18.0a"},{"town":"細田二丁目","koaza":"","lat":35.740508,"lng":139.865173,"version":"13.0b/18.0a"},{"town":"細田三丁目","koaza":"","lat":35.742496,"lng":139.867607,"version":"13.0b/18.0a"},{"town":"奥戸八丁目","koaza":"","lat":35.737307,"lng":139.86634,"version":"13.0b/18.0a"},{"town":"立石八丁目","koaza":"","lat":35.73959,"lng":139.855887,"version":"13.0b/18.0a"},{"town":"立石二丁目","koaza":"","lat":35.738666,"lng":139.840327,"version":"13.0b/18.0a"},{"town":"青戸一丁目","koaza":"","lat":35.743247,"lng":139.85604,"version":"13.0b/18.0a"},{"town":"高砂一丁目","koaza":"","lat":35.743501,"lng":139.861109,"version":"13.0b/18.0a"},{"town":"立石六丁目","koaza":"","lat":35.744073,"lng":139.851199,"version":"13.0b/18.0a"},{"town":"青戸五丁目","koaza":"","lat":35.749436,"lng":139.854304,"version":"13.0b/18.0a"},{"town":"青戸三丁目","koaza":"","lat":35.746276,"lng":139.852136,"version":"13.0b/18.0a"},{"town":"宝町一丁目","koaza":"","lat":35.741857,"lng":139.836518,"version":"13.0b/18.0a"},{"town":"白鳥二丁目","koaza":"","lat":35.748647,"lng":139.844696,"version":"13.0b/18.0a"},{"town":"四つ木五丁目","koaza":"","lat":35.742017,"lng":139.840078,"version":"13.0b/18.0a"},{"town":"立石五丁目","koaza":"","lat":35.743997,"lng":139.845409,"version":"13.0b/18.0a"},{"town":"白鳥一丁目","koaza":"","lat":35.745795,"lng":139.842664,"version":"13.0b/18.0a"},{"town":"お花茶屋一丁目","koaza":"","lat":35.7489,"lng":139.839137,"version":"13.0b/18.0a"},{"town":"お花茶屋二丁目","koaza":"","lat":35.751455,"lng":139.840245,"version":"13.0b/18.0a"},{"town":"堀切五丁目","koaza":"","lat":35.749398,"lng":139.830124,"version":"13.0b/18.0a"},{"town":"宝町二丁目","koaza":"","lat":35.745974,"lng":139.836842,"version":"13.0b/18.0a"},{"town":"東堀切一丁目","koaza":"","lat":35.749255,"lng":139.83471,"version":"13.0b/18.0a"},{"town":"堀切二丁目","koaza":"","lat":35.74295,"lng":139.825995,"version":"13.0b/18.0a"},{"town":"堀切一丁目","koaza":"","lat":35.739525,"lng":139.827353,"version":"13.0b/18.0a"},{"town":"堀切三丁目","koaza":"","lat":35.745146,"lng":139.83261,"version":"13.0b/18.0a"},{"town":"堀切四丁目","koaza":"","lat":35.747278,"lng":139.822722,"version":"13.0b/18.0a"},{"town":"東金町七丁目","koaza":"","lat":35.776462,"lng":139.884729,"version":"13.0b/18.0a"},{"town":"東金町六丁目","koaza":"","lat":35.772059,"lng":139.878852,"version":"13.0b/18.0a"},{"town":"柴又七丁目","koaza":"","lat":35.759287,"lng":139.879658,"version":"13.0b/18.0a"},{"town":"金町浄水場","koaza":"","lat":35.762653,"lng":139.877996,"version":"13.0b/18.0a"},{"town":"東金町四丁目","koaza":"","lat":35.774498,"lng":139.87549,"version":"13.0b/18.0a"},{"town":"東金町五丁目","koaza":"","lat":35.778745,"lng":139.878248,"version":"13.0b/18.0a"},{"town":"東金町八丁目","koaza":"","lat":35.780215,"lng":139.888478,"version":"13.0b/18.0a"},{"town":"南水元三丁目","koaza":"","lat":35.775004,"lng":139.864156,"version":"13.0b/18.0a"},{"town":"柴又二丁目","koaza":"","lat":35.758391,"lng":139.869244,"version":"13.0b/18.0a"},{"town":"青戸八丁目","koaza":"","lat":35.756936,"lng":139.85193,"version":"13.0b/18.0a"},{"town":"西亀有二丁目","koaza":"","lat":35.761217,"lng":139.833733,"version":"13.0b/18.0a"},{"town":"西亀有一丁目","koaza":"","lat":35.757894,"lng":139.83973,"version":"13.0b/18.0a"},{"town":"堀切七丁目","koaza":"","lat":35.755142,"lng":139.831128,"version":"13.0b/18.0a"},{"town":"金町一丁目","koaza":"","lat":35.76259,"lng":139.866168,"version":"13.0b/18.0a"},{"town":"金町五丁目","koaza":"","lat":35.766586,"lng":139.8682,"version":"13.0b/18.0a"},{"town":"新宿三丁目","koaza":"","lat":35.759725,"lng":139.863964,"version":"13.0b/18.0a"},{"town":"新宿四丁目","koaza":"","lat":35.763125,"lng":139.861384,"version":"13.0b/18.0a"},{"town":"新宿一丁目","koaza":"","lat":35.75819,"lng":139.859419,"version":"13.0b/18.0a"},{"town":"金町四丁目","koaza":"","lat":35.765864,"lng":139.864299,"version":"13.0b/18.0a"},{"town":"新宿二丁目","koaza":"","lat":35.762133,"lng":139.856806,"version":"13.0b/18.0a"},{"town":"新宿五丁目","koaza":"","lat":35.765699,"lng":139.860171,"version":"13.0b/18.0a"},{"town":"新宿六丁目","koaza":"","lat":35.771838,"lng":139.861148,"version":"13.0b/18.0a"},{"town":"南水元一丁目","koaza":"","lat":35.775069,"lng":139.858032,"version":"13.0b/18.0a"},{"town":"亀有一丁目","koaza":"","lat":35.758422,"lng":139.846323,"version":"13.0b/18.0a"},{"town":"亀有四丁目","koaza":"","lat":35.761531,"lng":139.844073,"version":"13.0b/18.0a"},{"town":"西亀有三丁目","koaza":"","lat":35.761562,"lng":139.839342,"version":"13.0b/18.0a"},{"town":"亀有二丁目","koaza":"","lat":35.759915,"lng":139.849936,"version":"13.0b/18.0a"},{"town":"亀有三丁目","koaza":"","lat":35.765188,"lng":139.850309,"version":"13.0b/18.0a"},{"town":"西亀有四丁目","koaza":"","lat":35.765137,"lng":139.840946,"version":"13.0b/18.0a"},{"town":"亀有五丁目","koaza":"","lat":35.76764,"lng":139.847139,"version":"13.0b/18.0a"},{"town":"小菅四丁目","koaza":"","lat":35.758888,"lng":139.824712,"version":"13.0b/18.0a"},{"town":"堀切八丁目","koaza":"","lat":35.757426,"lng":139.832027,"version":"13.0b/18.0a"},{"town":"東水元三丁目","koaza":"","lat":35.784086,"lng":139.86703,"version":"13.0b/18.0a"},{"town":"東水元四丁目","koaza":"","lat":35.788285,"lng":139.866406,"version":"13.0b/18.0a"},{"town":"水元三丁目","koaza":"","lat":35.782495,"lng":139.863222,"version":"13.0b/18.0a"},{"town":"南水元四丁目","koaza":"","lat":35.77857,"lng":139.863479,"version":"13.0b/18.0a"},{"town":"東水元一丁目","koaza":"","lat":35.777122,"lng":139.868832,"version":"13.0b/18.0a"},{"town":"東水元五丁目","koaza":"","lat":35.791762,"lng":139.865104,"version":"13.0b/18.0a"},{"town":"東水元六丁目","koaza":"","lat":35.792454,"lng":139.86114,"version":"13.0b/18.0a"},{"town":"水元二丁目","koaza":"","lat":35.785637,"lng":139.857117,"version":"13.0b/18.0a"},{"town":"西水元六丁目","koaza":"","lat":35.789795,"lng":139.855981,"version":"13.0b/18.0a"},{"town":"南水元二丁目","koaza":"","lat":35.777659,"lng":139.856057,"version":"13.0b/18.0a"},{"town":"水元四丁目","koaza":"","lat":35.786591,"lng":139.862399,"version":"13.0b/18.0a"},{"town":"水元五丁目","koaza":"","lat":35.790214,"lng":139.860256,"version":"13.0b/18.0a"},{"town":"西水元五丁目","koaza":"","lat":35.786321,"lng":139.854239,"version":"13.0b/18.0a"},{"town":"西水元二丁目","koaza":"","lat":35.785738,"lng":139.849615,"version":"13.0b/18.0a"},{"town":"西水元一丁目","koaza":"","lat":35.78154,"lng":139.850646,"version":"13.0b/18.0a"},{"town":"水元一丁目","koaza":"","lat":35.781891,"lng":139.856849,"version":"13.0b/18.0a"},{"town":"西水元三丁目","koaza":"","lat":35.789719,"lng":139.848574,"version":"13.0b/18.0a"},{"town":"西水元四丁目","koaza":"","lat":35.794152,"lng":139.847194,"version":"13.0b/18.0a"},{"town":"柴又一丁目","koaza":"","lat":35.755326,"lng":139.871866,"version":"14.0b/19.0a"},{"town":"細田四丁目","koaza":"","lat":35.743153,"lng":139.872295,"version":"14.0b/19.0a"},{"town":"柴又四丁目","koaza":"","lat":35.753565,"lng":139.875244,"version":"14.0b/19.0a"},{"town":"奥戸九丁目","koaza":"","lat":35.736316,"lng":139.86993,"version":"14.0b/19.0a"},{"town":"奥戸六丁目","koaza":"","lat":35.731258,"lng":139.870203,"version":"14.0b/19.0a"},{"town":"細田一丁目","koaza":"","lat":35.738463,"lng":139.871829,"version":"14.0b/19.0a"},{"town":"高砂四丁目","koaza":"","lat":35.747793,"lng":139.872473,"version":"14.0b/19.0a"},{"town":"高砂五丁目","koaza":"","lat":35.751786,"lng":139.868698,"version":"14.0b/19.0a"},{"town":"柴又五丁目","koaza":"","lat":35.75232,"lng":139.883492,"version":"14.0b/19.0a"},{"town":"柴又六丁目","koaza":"","lat":35.755729,"lng":139.881178,"version":"14.0b/19.0a"},{"town":"柴又三丁目","koaza":"","lat":35.760223,"lng":139.872372,"version":"14.0b/19.0a"},{"town":"金町二丁目","koaza":"","lat":35.764145,"lng":139.870315,"version":"14.0b/19.0a"},{"town":"水元公園","koaza":"","lat":35.788549,"lng":139.869416,"version":"14.0b/19.0a"},{"town":"東金町三丁目","koaza":"","lat":35.772455,"lng":139.87357,"version":"14.0b/19.0a"},{"town":"東金町一丁目","koaza":"","lat":35.770763,"lng":139.869077,"version":"14.0b/19.0a"},{"town":"小菅一丁目","koaza":"","lat":35.754231,"lng":139.817107,"version":"14.0b/19.0a"},{"town":"青戸六丁目","koaza":"","lat":35.750206,"lng":139.858226,"version":"14.0b/19.0a"},{"town":"青戸四丁目","koaza":"","lat":35.750419,"lng":139.850461,"version":"14.0b/19.0a"},{"town":"東堀切三丁目","koaza":"","lat":35.754662,"lng":139.837253,"version":"14.0b/19.0a"},{"town":"東金町二丁目","koaza":"","lat":35.773381,"lng":139.867904,"version":"14.0b/19.0a"},{"town":"東水元二丁目","koaza":"","lat":35.779838,"lng":139.870653,"version":"14.0b/19.0a"},{"town":"白鳥四丁目","koaza":"","lat":35.752888,"lng":139.848292,"version":"14.0b/19.0a"},{"town":"お花茶屋三丁目","koaza":"","lat":35.754478,"lng":139.841775,"version":"14.0b/19.0a"},{"town":"金町六丁目","koaza":"","lat":35.768392,"lng":139.872398,"version":"14.0b/19.0a"},{"town":"高砂六丁目","koaza":"","lat":35.753571,"lng":139.860788,"version":"14.0b/19.0a"},{"town":"青戸七丁目","koaza":"","lat":35.755176,"lng":139.855608,"version":"14.0b/19.0a"},{"town":"白鳥三丁目","koaza":"","lat":35.753358,"lng":139.844415,"version":"14.0b/19.0a"},{"town":"東堀切二丁目","koaza":"","lat":35.752216,"lng":139.835916,"version":"14.0b/19.0a"},{"town":"堀切六丁目","koaza":"","lat":35.752254,"lng":139.830391,"version":"14.0b/19.0a"},{"town":"小菅二丁目","koaza":"","lat":35.751779,"lng":139.824296,"version":"14.0b/19.0a"},{"town":"小菅三丁目","koaza":"","lat":35.754285,"lng":139.823994,"version":"14.0b/19.0a"},{"town":"金町三丁目","koaza":"","lat":35.766807,"lng":139.875451,"version":"14.0b/19.0a"},{"town":"高砂七丁目","koaza":"","lat":35.754486,"lng":139.864309,"version":"14.0b/19.0a"},{"town":"高砂八丁目","koaza":"","lat":35.754601,"lng":139.868069,"version":"14.0b/19.0a"},{"town":"細田五丁目","koaza":"","lat":35.73909,"lng":139.875227,"version":"14.0b/19.0a"},{"town":"鎌倉一丁目","koaza":"","lat":35.742729,"lng":139.878158,"version":"14.0b/19.0a"},{"town":"鎌倉四丁目","koaza":"","lat":35.746657,"lng":139.882303,"version":"14.0b/19.0a"},{"town":"鎌倉二丁目","koaza":"","lat":35.746065,"lng":139.876164,"version":"14.0b/19.0a"},{"town":"鎌倉三丁目","koaza":"","lat":35.747857,"lng":139.877628,"version":"14.0b/19.0a"},{"town":"東新小岩三丁目","koaza":"","lat":35.722981,"lng":139.860992,"version":"14.0b/19.0a"},{"town":"東新小岩四丁目","koaza":"","lat":35.725835,"lng":139.863005,"version":"14.0b/19.0a"},{"town":"四つ木二丁目","koaza":"","lat":35.736744,"lng":139.837762,"version":"14.0b/19.0a"},{"town":"新小岩一丁目","koaza":"","lat":35.714252,"lng":139.854932,"version":"14.0b/19.0a"},{"town":"西新小岩二丁目","koaza":"","lat":35.717189,"lng":139.851141,"version":"14.0b/19.0a"},{"town":"新小岩三丁目","koaza":"","lat":35.715116,"lng":139.866016,"version":"14.0b/19.0a"},{"town":"新小岩二丁目","koaza":"","lat":35.715976,"lng":139.862179,"version":"14.0b/19.0a"},{"town":"東新小岩一丁目","koaza":"","lat":35.72061,"lng":139.861353,"version":"14.0b/19.0a"},{"town":"新小岩四丁目","koaza":"","lat":35.721574,"lng":139.866331,"version":"14.0b/19.0a"},{"town":"西新小岩一丁目","koaza":"","lat":35.715641,"lng":139.853795,"version":"14.0b/19.0a"},{"town":"東四つ木一丁目","koaza":"","lat":35.725927,"lng":139.839893,"version":"14.0b/19.0a"},{"town":"西新小岩四丁目","koaza":"","lat":35.72053,"lng":139.852763,"version":"14.0b/19.0a"},{"town":"西新小岩三丁目","koaza":"","lat":35.720481,"lng":139.847128,"version":"14.0b/19.0a"},{"town":"東新小岩五丁目","koaza":"","lat":35.721609,"lng":139.856235,"version":"14.0b/19.0a"},{"town":"東新小岩二丁目","koaza":"","lat":35.725094,"lng":139.867598,"version":"14.0b/19.0a"},{"town":"奥戸五丁目","koaza":"","lat":35.73217,"lng":139.865921,"version":"14.0b/19.0a"},{"town":"東新小岩七丁目","koaza":"","lat":35.724929,"lng":139.854294,"version":"14.0b/19.0a"},{"town":"西新小岩五丁目","koaza":"","lat":35.725416,"lng":139.846836,"version":"14.0b/19.0a"},{"town":"東四つ木三丁目","koaza":"","lat":35.729164,"lng":139.837075,"version":"14.0b/19.0a"},{"town":"東新小岩六丁目","koaza":"","lat":35.72641,"lng":139.858922,"version":"14.0b/19.0a"},{"town":"東新小岩八丁目","koaza":"","lat":35.727192,"lng":139.853289,"version":"14.0b/19.0a"},{"town":"奥戸七丁目","koaza":"","lat":35.737018,"lng":139.86236,"version":"14.0b/19.0a"},{"town":"立石七丁目","koaza":"","lat":35.740423,"lng":139.850412,"version":"14.0b/19.0a"},{"town":"東立石四丁目","koaza":"","lat":35.733744,"lng":139.852052,"version":"14.0b/19.0a"},{"town":"奥戸一丁目","koaza":"","lat":35.730969,"lng":139.857311,"version":"14.0b/19.0a"},{"town":"奥戸三丁目","koaza":"","lat":35.731765,"lng":139.861664,"version":"14.0b/19.0a"},{"town":"奥戸四丁目","koaza":"","lat":35.728258,"lng":139.865868,"version":"14.0b/19.0a"},{"town":"立石四丁目","koaza":"","lat":35.740094,"lng":139.847259,"version":"14.0b/19.0a"},{"town":"奥戸二丁目","koaza":"","lat":35.734848,"lng":139.857812,"version":"14.0b/19.0a"},{"town":"四つ木一丁目","koaza":"","lat":35.732958,"lng":139.833459,"version":"14.0b/19.0a"},{"town":"東四つ木二丁目","koaza":"","lat":35.729732,"lng":139.844405,"version":"14.0b/19.0a"},{"town":"東立石三丁目","koaza":"","lat":35.73537,"lng":139.844999,"version":"14.0b/19.0a"},{"town":"東立石一丁目","koaza":"","lat":35.730983,"lng":139.848195,"version":"14.0b/19.0a"},{"town":"立石一丁目","koaza":"","lat":35.737208,"lng":139.846839,"version":"14.0b/19.0a"},{"town":"立石三丁目","koaza":"","lat":35.739613,"lng":139.844151,"version":"14.0b/19.0a"},{"town":"四つ木四丁目","koaza":"","lat":35.738241,"lng":139.834751,"version":"14.0b/19.0a"},{"town":"四つ木三丁目","koaza":"","lat":35.735706,"lng":139.830579,"version":"14.0b/19.0a"},{"town":"東四つ木四丁目","koaza":"","lat":35.733497,"lng":139.840198,"version":"14.0b/19.0a"},{"town":"東立石二丁目","koaza":"","lat":35.733363,"lng":139.846833,"version":"14.0b/19.0a"},{"town":"青戸二丁目","koaza":"","lat":35.746719,"lng":139.85928,"version":"14.0b/19.0a"},{"town":"高砂三丁目","koaza":"","lat":35.748119,"lng":139.868939,"version":"14.0b/19.0a"},{"town":"高砂二丁目","koaza":"","lat":35.747889,"lng":139.865177,"version":"14.0b/19.0a"},{"town":"細田二丁目","koaza":"","lat":35.740508,"lng":139.865173,"version":"14.0b/19.0a"},{"town":"細田三丁目","koaza":"","lat":35.742496,"lng":139.867607,"version":"14.0b/19.0a"},{"town":"奥戸八丁目","koaza":"","lat":35.737307,"lng":139.86634,"version":"14.0b/19.0a"},{"town":"立石八丁目","koaza":"","lat":35.73959,"lng":139.855887,"version":"14.0b/19.0a"},{"town":"立石二丁目","koaza":"","lat":35.738666,"lng":139.840327,"version":"14.0b/19.0a"},{"town":"青戸一丁目","koaza":"","lat":35.743247,"lng":139.85604,"version":"14.0b/19.0a"},{"town":"高砂一丁目","koaza":"","lat":35.743501,"lng":139.861109,"version":"14.0b/19.0a"},{"town":"立石六丁目","koaza":"","lat":35.744073,"lng":139.851199,"version":"14.0b/19.0a"},{"town":"青戸五丁目","koaza":"","lat":35.749436,"lng":139.854304,"version":"14.0b/19.0a"},{"town":"青戸三丁目","koaza":"","lat":35.746276,"lng":139.852136,"version":"14.0b/19.0a"},{"town":"宝町一丁目","koaza":"","lat":35.741857,"lng":139.836518,"version":"14.0b/19.0a"},{"town":"白鳥二丁目","koaza":"","lat":35.748647,"lng":139.844696,"version":"14.0b/19.0a"},{"town":"四つ木五丁目","koaza":"","lat":35.742017,"lng":139.840078,"version":"14.0b/19.0a"},{"town":"立石五丁目","koaza":"","lat":35.743997,"lng":139.845409,"version":"14.0b/19.0a"},{"town":"白鳥一丁目","koaza":"","lat":35.745795,"lng":139.842664,"version":"14.0b/19.0a"},{"town":"お花茶屋一丁目","koaza":"","lat":35.7489,"lng":139.839137,"version":"14.0b/19.0a"},{"town":"お花茶屋二丁目","koaza":"","lat":35.751455,"lng":139.840245,"version":"14.0b/19.0a"},{"town":"堀切五丁目","koaza":"","lat":35.749398,"lng":139.830124,"version":"14.0b/19.0a"},{"town":"宝町二丁目","koaza":"","lat":35.745974,"lng":139.836842,"version":"14.0b/19.0a"},{"town":"東堀切一丁目","koaza":"","lat":35.749255,"lng":139.83471,"version":"14.0b/19.0a"},{"town":"堀切二丁目","koaza":"","lat":35.74295,"lng":139.825995,"version":"14.0b/19.0a"},{"town":"堀切一丁目","koaza":"","lat":35.739525,"lng":139.827353,"version":"14.0b/19.0a"},{"town":"堀切三丁目","koaza":"","lat":35.745146,"lng":139.83261,"version":"14.0b/19.0a"},{"town":"堀切四丁目","koaza":"","lat":35.747278,"lng":139.822722,"version":"14.0b/19.0a"},{"town":"東金町七丁目","koaza":"","lat":35.776462,"lng":139.884729,"version":"14.0b/19.0a"},{"town":"東金町六丁目","koaza":"","lat":35.772059,"lng":139.878852,"version":"14.0b/19.0a"},{"town":"柴又七丁目","koaza":"","lat":35.759287,"lng":139.879658,"version":"14.0b/19.0a"},{"town":"金町浄水場","koaza":"","lat":35.762653,"lng":139.877996,"version":"14.0b/19.0a"},{"town":"東金町四丁目","koaza":"","lat":35.774498,"lng":139.87549,"version":"14.0b/19.0a"},{"town":"東金町五丁目","koaza":"","lat":35.778745,"lng":139.878248,"version":"14.0b/19.0a"},{"town":"東金町八丁目","koaza":"","lat":35.780215,"lng":139.888478,"version":"14.0b/19.0a"},{"town":"南水元三丁目","koaza":"","lat":35.775004,"lng":139.864156,"version":"14.0b/19.0a"},{"town":"柴又二丁目","koaza":"","lat":35.758391,"lng":139.869244,"version":"14.0b/19.0a"},{"town":"青戸八丁目","koaza":"","lat":35.756936,"lng":139.85193,"version":"14.0b/19.0a"},{"town":"西亀有二丁目","koaza":"","lat":35.761217,"lng":139.833733,"version":"14.0b/19.0a"},{"town":"西亀有一丁目","koaza":"","lat":35.757894,"lng":139.83973,"version":"14.0b/19.0a"},{"town":"堀切七丁目","koaza":"","lat":35.755142,"lng":139.831128,"version":"14.0b/19.0a"},{"town":"金町一丁目","koaza":"","lat":35.76259,"lng":139.866168,"version":"14.0b/19.0a"},{"town":"金町五丁目","koaza":"","lat":35.766586,"lng":139.8682,"version":"14.0b/19.0a"},{"town":"新宿三丁目","koaza":"","lat":35.759725,"lng":139.863964,"version":"14.0b/19.0a"},{"town":"新宿四丁目","koaza":"","lat":35.763125,"lng":139.861384,"version":"14.0b/19.0a"},{"town":"新宿一丁目","koaza":"","lat":35.75819,"lng":139.859419,"version":"14.0b/19.0a"},{"town":"金町四丁目","koaza":"","lat":35.765864,"lng":139.864299,"version":"14.0b/19.0a"},{"town":"新宿二丁目","koaza":"","lat":35.762133,"lng":139.856806,"version":"14.0b/19.0a"},{"town":"新宿五丁目","koaza":"","lat":35.765699,"lng":139.860171,"version":"14.0b/19.0a"},{"town":"新宿六丁目","koaza":"","lat":35.771838,"lng":139.861148,"version":"14.0b/19.0a"},{"town":"南水元一丁目","koaza":"","lat":35.775069,"lng":139.858032,"version":"14.0b/19.0a"},{"town":"亀有一丁目","koaza":"","lat":35.758422,"lng":139.846323,"version":"14.0b/19.0a"},{"town":"亀有四丁目","koaza":"","lat":35.761531,"lng":139.844073,"version":"14.0b/19.0a"},{"town":"西亀有三丁目","koaza":"","lat":35.761562,"lng":139.839342,"version":"14.0b/19.0a"},{"town":"亀有二丁目","koaza":"","lat":35.759915,"lng":139.849936,"version":"14.0b/19.0a"},{"town":"亀有三丁目","koaza":"","lat":35.765188,"lng":139.850309,"version":"14.0b/19.0a"},{"town":"西亀有四丁目","koaza":"","lat":35.765137,"lng":139.840946,"version":"14.0b/19.0a"},{"town":"亀有五丁目","koaza":"","lat":35.76764,"lng":139.847139,"version":"14.0b/19.0a"},{"town":"小菅四丁目","koaza":"","lat":35.758888,"lng":139.824712,"version":"14.0b/19.0a"},{"town":"堀切八丁目","koaza":"","lat":35.757426,"lng":139.832027,"version":"14.0b/19.0a"},{"town":"東水元三丁目","koaza":"","lat":35.784086,"lng":139.86703,"version":"14.0b/19.0a"},{"town":"東水元四丁目","koaza":"","lat":35.788285,"lng":139.866406,"version":"14.0b/19.0a"},{"town":"水元三丁目","koaza":"","lat":35.782495,"lng":139.863222,"version":"14.0b/19.0a"},{"town":"南水元四丁目","koaza":"","lat":35.77857,"lng":139.863479,"version":"14.0b/19.0a"},{"town":"東水元一丁目","koaza":"","lat":35.777122,"lng":139.868832,"version":"14.0b/19.0a"},{"town":"東水元五丁目","koaza":"","lat":35.791762,"lng":139.865104,"version":"14.0b/19.0a"},{"town":"東水元六丁目","koaza":"","lat":35.792454,"lng":139.86114,"version":"14.0b/19.0a"},{"town":"水元二丁目","koaza":"","lat":35.785637,"lng":139.857117,"version":"14.0b/19.0a"},{"town":"西水元六丁目","koaza":"","lat":35.789795,"lng":139.855981,"version":"14.0b/19.0a"},{"town":"南水元二丁目","koaza":"","lat":35.777659,"lng":139.856057,"version":"14.0b/19.0a"},{"town":"水元四丁目","koaza":"","lat":35.786591,"lng":139.862399,"version":"14.0b/19.0a"},{"town":"水元五丁目","koaza":"","lat":35.790214,"lng":139.860256,"version":"14.0b/19.0a"},{"town":"西水元五丁目","koaza":"","lat":35.786321,"lng":139.854239,"version":"14.0b/19.0a"},{"town":"西水元二丁目","koaza":"","lat":35.785738,"lng":139.849615,"version":"14.0b/19.0a"},{"town":"西水元一丁目","koaza":"","lat":35.78154,"lng":139.850646,"version":"14.0b/19.0a"},{"town":"水元一丁目","koaza":"","lat":35.781891,"lng":139.856849,"version":"14.0b/19.0a"},{"town":"西水元三丁目","koaza":"","lat":35.789719,"lng":139.848574,"version":"14.0b/19.0a"},{"town":"西水元四丁目","koaza":"","lat":35.794152,"lng":139.847194,"version":"14.0b/19.0a"}]