[{"town":"大字小倉","koaza":"","lat":33.431939,"lng":130.535269,"version":"13.0b/18.0a"},{"town":"大字園部","koaza":"","lat":33.423012,"lng":130.493722,"version":"13.0b/18.0a"},{"town":"大字長野","koaza":"","lat":33.404935,"lng":130.535199,"version":"13.0b/18.0a"},{"town":"大字宮浦","koaza":"","lat":33.431214,"lng":130.507915,"version":"13.0b/18.0a"},{"town":"けやき台一丁目","koaza":"","lat":33.432648,"lng":130.531327,"version":"13.0b/18.0a"},{"town":"けやき台二丁目","koaza":"","lat":33.432238,"lng":130.528147,"version":"13.0b/18.0a"},{"town":"けやき台三丁目","koaza":"","lat":33.437216,"lng":130.531388,"version":"13.0b/18.0a"},{"town":"けやき台四丁目","koaza":"","lat":33.436419,"lng":130.527485,"version":"13.0b/18.0a"},{"town":"大字宮浦","koaza":"宿","lat":33.421719,"lng":130.530532,"version":"13.0b/18.0a"},{"town":"大字長野","koaza":"上川原","lat":33.4142,"lng":130.531562,"version":"13.0b/18.0a"},{"town":"大字小倉","koaza":"","lat":33.431939,"lng":130.535269,"version":"14.0b/19.0a"},{"town":"大字園部","koaza":"","lat":33.423012,"lng":130.493722,"version":"14.0b/19.0a"},{"town":"大字長野","koaza":"","lat":33.404935,"lng":130.535199,"version":"14.0b/19.0a"},{"town":"大字宮浦","koaza":"","lat":33.431214,"lng":130.507915,"version":"14.0b/19.0a"},{"town":"けやき台一丁目","koaza":"","lat":33.432648,"lng":130.531327,"version":"14.0b/19.0a"},{"town":"けやき台二丁目","koaza":"","lat":33.432238,"lng":130.528147,"version":"14.0b/19.0a"},{"town":"けやき台三丁目","koaza":"","lat":33.437216,"lng":130.531388,"version":"14.0b/19.0a"},{"town":"けやき台四丁目","koaza":"","lat":33.436419,"lng":130.527485,"version":"14.0b/19.0a"},{"town":"大字宮浦","koaza":"宿","lat":33.421719,"lng":130.530532,"version":"14.0b/19.0a"},{"town":"大字長野","koaza":"上川原","lat":33.4142,"lng":130.531562,"version":"14.0b/19.0a"}]