[{"town":"秋葉町一丁目","koaza":"","lat":33.371616,"lng":130.513972,"version":"13.0b/18.0a"},{"town":"秋葉町二丁目","koaza":"","lat":33.370438,"lng":130.512601,"version":"13.0b/18.0a"},{"town":"秋葉町三丁目","koaza":"","lat":33.372513,"lng":130.512162,"version":"13.0b/18.0a"},{"town":"浅井町","koaza":"","lat":33.387197,"lng":130.505746,"version":"13.0b/18.0a"},{"town":"あさひ新町","koaza":"","lat":33.349067,"lng":130.498625,"version":"13.0b/18.0a"},{"town":"安楽寺町","koaza":"","lat":33.346662,"lng":130.517828,"version":"13.0b/18.0a"},{"town":"飯田町","koaza":"","lat":33.380388,"lng":130.538449,"version":"13.0b/18.0a"},{"town":"今泉町","koaza":"","lat":33.361688,"lng":130.515765,"version":"13.0b/18.0a"},{"town":"今町","koaza":"","lat":33.407747,"lng":130.525941,"version":"13.0b/18.0a"},{"town":"牛原町","koaza":"","lat":33.399516,"lng":130.4525,"version":"13.0b/18.0a"},{"town":"江島町","koaza":"","lat":33.34851,"lng":130.478171,"version":"13.0b/18.0a"},{"town":"加藤田町一丁目","koaza":"","lat":33.391342,"lng":130.515536,"version":"13.0b/18.0a"},{"town":"加藤田町二丁目","koaza":"","lat":33.391665,"lng":130.51344,"version":"13.0b/18.0a"},{"town":"加藤田町三丁目","koaza":"","lat":33.393072,"lng":130.512626,"version":"13.0b/18.0a"},{"town":"萱方町","koaza":"","lat":33.386673,"lng":130.504179,"version":"13.0b/18.0a"},{"town":"河内町","koaza":"","lat":33.415693,"lng":130.464669,"version":"13.0b/18.0a"},{"town":"河内町貝方","koaza":"","lat":33.403907,"lng":130.468667,"version":"13.0b/18.0a"},{"town":"河内町転石","koaza":"","lat":33.403564,"lng":130.481394,"version":"13.0b/18.0a"},{"town":"河内町横井","koaza":"","lat":33.398772,"lng":130.490809,"version":"13.0b/18.0a"},{"town":"儀徳町","koaza":"","lat":33.352054,"lng":130.495056,"version":"13.0b/18.0a"},{"town":"京町","koaza":"","lat":33.372988,"lng":130.518929,"version":"13.0b/18.0a"},{"town":"蔵上一丁目","koaza":"","lat":33.378835,"lng":130.494297,"version":"13.0b/18.0a"},{"town":"蔵上二丁目","koaza":"","lat":33.375669,"lng":130.493612,"version":"13.0b/18.0a"},{"town":"蔵上三丁目","koaza":"","lat":33.375817,"lng":130.49198,"version":"13.0b/18.0a"},{"town":"蔵上四丁目","koaza":"","lat":33.37187,"lng":130.497349,"version":"13.0b/18.0a"},{"town":"蔵上町","koaza":"","lat":33.367929,"lng":130.494561,"version":"13.0b/18.0a"},{"town":"神辺町","koaza":"","lat":33.395867,"lng":130.5046,"version":"13.0b/18.0a"},{"town":"古賀町","koaza":"","lat":33.387752,"lng":130.499457,"version":"13.0b/18.0a"},{"town":"幸津町","koaza":"","lat":33.357035,"lng":130.494329,"version":"13.0b/18.0a"},{"town":"酒井西町","koaza":"","lat":33.365472,"lng":130.530697,"version":"13.0b/18.0a"},{"town":"酒井東町","koaza":"","lat":33.35819,"lng":130.536714,"version":"13.0b/18.0a"},{"town":"桜ケ丘町","koaza":"","lat":33.374988,"lng":130.486689,"version":"13.0b/18.0a"},{"town":"桜町","koaza":"","lat":33.38629,"lng":130.523889,"version":"13.0b/18.0a"},{"town":"下野町","koaza":"","lat":33.337258,"lng":130.501232,"version":"13.0b/18.0a"},{"town":"宿町","koaza":"","lat":33.37509,"lng":130.504015,"version":"13.0b/18.0a"},{"town":"曽根崎町","koaza":"","lat":33.376405,"lng":130.527441,"version":"13.0b/18.0a"},{"town":"大正町","koaza":"","lat":33.376848,"lng":130.514938,"version":"13.0b/18.0a"},{"town":"高田町","koaza":"","lat":33.348145,"lng":130.523646,"version":"13.0b/18.0a"},{"town":"田代上町","koaza":"","lat":33.390152,"lng":130.522299,"version":"13.0b/18.0a"},{"town":"田代昌町","koaza":"","lat":33.392709,"lng":130.52668,"version":"13.0b/18.0a"},{"town":"田代新町","koaza":"","lat":33.39114,"lng":130.524497,"version":"13.0b/18.0a"},{"town":"田代大官町","koaza":"","lat":33.389562,"lng":130.518252,"version":"13.0b/18.0a"},{"town":"田代外町","koaza":"","lat":33.385668,"lng":130.517325,"version":"13.0b/18.0a"},{"town":"田代本町","koaza":"","lat":33.395606,"lng":130.519947,"version":"13.0b/18.0a"},{"town":"立石町","koaza":"","lat":33.372788,"lng":130.457881,"version":"13.0b/18.0a"},{"town":"土井町","koaza":"","lat":33.381417,"lng":130.510303,"version":"13.0b/18.0a"},{"town":"轟木町","koaza":"","lat":33.360857,"lng":130.502006,"version":"13.0b/18.0a"},{"town":"永吉町","koaza":"","lat":33.398117,"lng":130.528815,"version":"13.0b/18.0a"},{"town":"西新町","koaza":"","lat":33.3576,"lng":130.470645,"version":"13.0b/18.0a"},{"town":"西田町","koaza":"","lat":33.350539,"lng":130.491271,"version":"13.0b/18.0a"},{"town":"幡崎町","koaza":"","lat":33.392121,"lng":130.535608,"version":"13.0b/18.0a"},{"town":"原古賀町","koaza":"","lat":33.370828,"lng":130.487564,"version":"13.0b/18.0a"},{"town":"原町","koaza":"","lat":33.382015,"lng":130.528381,"version":"13.0b/18.0a"},{"town":"東町一丁目","koaza":"","lat":33.370958,"lng":130.517464,"version":"13.0b/18.0a"},{"town":"東町二丁目","koaza":"","lat":33.37112,"lng":130.51513,"version":"13.0b/18.0a"},{"town":"東町三丁目","koaza":"","lat":33.36884,"lng":130.514139,"version":"13.0b/18.0a"},{"town":"姫方町","koaza":"","lat":33.387251,"lng":130.533919,"version":"13.0b/18.0a"},{"town":"平田町","koaza":"","lat":33.375921,"lng":130.463663,"version":"13.0b/18.0a"},{"town":"藤木町","koaza":"","lat":33.364967,"lng":130.523739,"version":"13.0b/18.0a"},{"town":"布津原町","koaza":"","lat":33.37647,"lng":130.500123,"version":"13.0b/18.0a"},{"town":"古野町","koaza":"","lat":33.380655,"lng":130.515076,"version":"13.0b/18.0a"},{"town":"本通町一丁目","koaza":"","lat":33.373653,"lng":130.515926,"version":"13.0b/18.0a"},{"town":"本通町二丁目","koaza":"","lat":33.3726,"lng":130.515777,"version":"13.0b/18.0a"},{"town":"本鳥栖町","koaza":"","lat":33.377241,"lng":130.519361,"version":"13.0b/18.0a"},{"town":"本町一丁目","koaza":"","lat":33.37586,"lng":130.513526,"version":"13.0b/18.0a"},{"town":"本町二丁目","koaza":"","lat":33.375576,"lng":130.510648,"version":"13.0b/18.0a"},{"town":"本町三丁目","koaza":"","lat":33.378858,"lng":130.508774,"version":"13.0b/18.0a"},{"town":"前田町","koaza":"","lat":33.34887,"lng":130.495102,"version":"13.0b/18.0a"},{"town":"真木町","koaza":"","lat":33.354182,"lng":130.513424,"version":"13.0b/18.0a"},{"town":"松原町","koaza":"","lat":33.381094,"lng":130.522135,"version":"13.0b/18.0a"},{"town":"三島町","koaza":"","lat":33.332993,"lng":130.483037,"version":"13.0b/18.0a"},{"town":"三島町於保里","koaza":"","lat":33.337793,"lng":130.482251,"version":"13.0b/18.0a"},{"town":"三島町田出島","koaza":"","lat":33.333299,"lng":130.494544,"version":"13.0b/18.0a"},{"town":"三島町不動島","koaza":"","lat":33.337009,"lng":130.495192,"version":"13.0b/18.0a"},{"town":"水屋町","koaza":"","lat":33.348448,"lng":130.529927,"version":"13.0b/18.0a"},{"town":"村田町","koaza":"","lat":33.359182,"lng":130.483472,"version":"13.0b/18.0a"},{"town":"村田町五反三歩","koaza":"","lat":33.352295,"lng":130.461352,"version":"13.0b/18.0a"},{"town":"元町","koaza":"","lat":33.371412,"lng":130.509194,"version":"13.0b/18.0a"},{"town":"養父町","koaza":"","lat":33.382645,"lng":130.493999,"version":"13.0b/18.0a"},{"town":"山浦町","koaza":"","lat":33.38082,"lng":130.478412,"version":"13.0b/18.0a"},{"town":"山都町","koaza":"","lat":33.373999,"lng":130.474353,"version":"13.0b/18.0a"},{"town":"弥生が丘一丁目","koaza":"","lat":33.402964,"lng":130.526388,"version":"13.0b/18.0a"},{"town":"弥生が丘二丁目","koaza":"","lat":33.406409,"lng":130.52318,"version":"13.0b/18.0a"},{"town":"弥生が丘三丁目","koaza":"","lat":33.410777,"lng":130.52034,"version":"13.0b/18.0a"},{"town":"弥生が丘四丁目","koaza":"","lat":33.407958,"lng":130.518991,"version":"13.0b/18.0a"},{"town":"弥生が丘五丁目","koaza":"","lat":33.403872,"lng":130.518665,"version":"13.0b/18.0a"},{"town":"弥生が丘六丁目","koaza":"","lat":33.400932,"lng":130.517195,"version":"13.0b/18.0a"},{"town":"弥生が丘七丁目","koaza":"","lat":33.406383,"lng":130.514473,"version":"13.0b/18.0a"},{"town":"弥生が丘八丁目","koaza":"","lat":33.405439,"lng":130.511474,"version":"13.0b/18.0a"},{"town":"鎗田町","koaza":"","lat":33.383179,"lng":130.512614,"version":"13.0b/18.0a"},{"town":"柚比町","koaza":"","lat":33.402098,"lng":130.506352,"version":"13.0b/18.0a"},{"town":"江島町","koaza":"熊本","lat":33.356153,"lng":130.478532,"version":"13.0b/18.0a"},{"town":"古賀町","koaza":"花ノ木","lat":33.38527,"lng":130.499774,"version":"13.0b/18.0a"},{"town":"轟木町","koaza":"二本黒木","lat":33.364818,"lng":130.501167,"version":"13.0b/18.0a"},{"town":"元町","koaza":"川原","lat":33.372164,"lng":130.505838,"version":"13.0b/18.0a"},{"town":"真木町","koaza":"赤井出","lat":33.359773,"lng":130.507334,"version":"13.0b/18.0a"},{"town":"神辺町","koaza":"中川原","lat":33.389628,"lng":130.51385,"version":"13.0b/18.0a"},{"town":"本鳥栖町","koaza":"下鳥栖","lat":33.375635,"lng":130.517334,"version":"13.0b/18.0a"},{"town":"秋葉町一丁目","koaza":"","lat":33.371616,"lng":130.513972,"version":"14.0b/19.0a"},{"town":"秋葉町二丁目","koaza":"","lat":33.370438,"lng":130.512601,"version":"14.0b/19.0a"},{"town":"秋葉町三丁目","koaza":"","lat":33.372513,"lng":130.512162,"version":"14.0b/19.0a"},{"town":"浅井町","koaza":"","lat":33.387197,"lng":130.505746,"version":"14.0b/19.0a"},{"town":"あさひ新町","koaza":"","lat":33.349067,"lng":130.498625,"version":"14.0b/19.0a"},{"town":"安楽寺町","koaza":"","lat":33.346662,"lng":130.517828,"version":"14.0b/19.0a"},{"town":"飯田町","koaza":"","lat":33.380388,"lng":130.538449,"version":"14.0b/19.0a"},{"town":"今泉町","koaza":"","lat":33.361688,"lng":130.515765,"version":"14.0b/19.0a"},{"town":"今町","koaza":"","lat":33.407747,"lng":130.525941,"version":"14.0b/19.0a"},{"town":"牛原町","koaza":"","lat":33.399516,"lng":130.4525,"version":"14.0b/19.0a"},{"town":"江島町","koaza":"","lat":33.34851,"lng":130.478171,"version":"14.0b/19.0a"},{"town":"加藤田町一丁目","koaza":"","lat":33.391342,"lng":130.515536,"version":"14.0b/19.0a"},{"town":"加藤田町二丁目","koaza":"","lat":33.391665,"lng":130.51344,"version":"14.0b/19.0a"},{"town":"加藤田町三丁目","koaza":"","lat":33.393072,"lng":130.512626,"version":"14.0b/19.0a"},{"town":"萱方町","koaza":"","lat":33.386673,"lng":130.504179,"version":"14.0b/19.0a"},{"town":"河内町","koaza":"","lat":33.415693,"lng":130.464669,"version":"14.0b/19.0a"},{"town":"河内町貝方","koaza":"","lat":33.403907,"lng":130.468667,"version":"14.0b/19.0a"},{"town":"河内町転石","koaza":"","lat":33.403564,"lng":130.481394,"version":"14.0b/19.0a"},{"town":"河内町横井","koaza":"","lat":33.398772,"lng":130.490809,"version":"14.0b/19.0a"},{"town":"儀徳町","koaza":"","lat":33.352054,"lng":130.495056,"version":"14.0b/19.0a"},{"town":"京町","koaza":"","lat":33.372988,"lng":130.518929,"version":"14.0b/19.0a"},{"town":"蔵上一丁目","koaza":"","lat":33.378835,"lng":130.494297,"version":"14.0b/19.0a"},{"town":"蔵上二丁目","koaza":"","lat":33.375669,"lng":130.493612,"version":"14.0b/19.0a"},{"town":"蔵上三丁目","koaza":"","lat":33.375817,"lng":130.49198,"version":"14.0b/19.0a"},{"town":"蔵上四丁目","koaza":"","lat":33.37187,"lng":130.497349,"version":"14.0b/19.0a"},{"town":"蔵上町","koaza":"","lat":33.367929,"lng":130.494561,"version":"14.0b/19.0a"},{"town":"神辺町","koaza":"","lat":33.395867,"lng":130.5046,"version":"14.0b/19.0a"},{"town":"古賀町","koaza":"","lat":33.387752,"lng":130.499457,"version":"14.0b/19.0a"},{"town":"幸津町","koaza":"","lat":33.357035,"lng":130.494329,"version":"14.0b/19.0a"},{"town":"酒井西町","koaza":"","lat":33.365472,"lng":130.530697,"version":"14.0b/19.0a"},{"town":"酒井東町","koaza":"","lat":33.35819,"lng":130.536714,"version":"14.0b/19.0a"},{"town":"桜ケ丘町","koaza":"","lat":33.374988,"lng":130.486689,"version":"14.0b/19.0a"},{"town":"桜町","koaza":"","lat":33.38629,"lng":130.523889,"version":"14.0b/19.0a"},{"town":"下野町","koaza":"","lat":33.337258,"lng":130.501232,"version":"14.0b/19.0a"},{"town":"宿町","koaza":"","lat":33.37509,"lng":130.504015,"version":"14.0b/19.0a"},{"town":"曽根崎町","koaza":"","lat":33.376405,"lng":130.527441,"version":"14.0b/19.0a"},{"town":"大正町","koaza":"","lat":33.376848,"lng":130.514938,"version":"14.0b/19.0a"},{"town":"高田町","koaza":"","lat":33.348145,"lng":130.523646,"version":"14.0b/19.0a"},{"town":"田代上町","koaza":"","lat":33.390152,"lng":130.522299,"version":"14.0b/19.0a"},{"town":"田代昌町","koaza":"","lat":33.392709,"lng":130.52668,"version":"14.0b/19.0a"},{"town":"田代新町","koaza":"","lat":33.39114,"lng":130.524497,"version":"14.0b/19.0a"},{"town":"田代大官町","koaza":"","lat":33.389562,"lng":130.518252,"version":"14.0b/19.0a"},{"town":"田代外町","koaza":"","lat":33.385668,"lng":130.517325,"version":"14.0b/19.0a"},{"town":"田代本町","koaza":"","lat":33.395606,"lng":130.519947,"version":"14.0b/19.0a"},{"town":"立石町","koaza":"","lat":33.372788,"lng":130.457881,"version":"14.0b/19.0a"},{"town":"土井町","koaza":"","lat":33.381417,"lng":130.510303,"version":"14.0b/19.0a"},{"town":"轟木町","koaza":"","lat":33.360857,"lng":130.502006,"version":"14.0b/19.0a"},{"town":"永吉町","koaza":"","lat":33.398117,"lng":130.528815,"version":"14.0b/19.0a"},{"town":"西新町","koaza":"","lat":33.3576,"lng":130.470645,"version":"14.0b/19.0a"},{"town":"西田町","koaza":"","lat":33.350539,"lng":130.491271,"version":"14.0b/19.0a"},{"town":"幡崎町","koaza":"","lat":33.392121,"lng":130.535608,"version":"14.0b/19.0a"},{"town":"原古賀町","koaza":"","lat":33.370828,"lng":130.487564,"version":"14.0b/19.0a"},{"town":"原町","koaza":"","lat":33.382015,"lng":130.528381,"version":"14.0b/19.0a"},{"town":"東町一丁目","koaza":"","lat":33.370958,"lng":130.517464,"version":"14.0b/19.0a"},{"town":"東町二丁目","koaza":"","lat":33.37112,"lng":130.51513,"version":"14.0b/19.0a"},{"town":"東町三丁目","koaza":"","lat":33.36884,"lng":130.514139,"version":"14.0b/19.0a"},{"town":"姫方町","koaza":"","lat":33.387251,"lng":130.533919,"version":"14.0b/19.0a"},{"town":"平田町","koaza":"","lat":33.375921,"lng":130.463663,"version":"14.0b/19.0a"},{"town":"藤木町","koaza":"","lat":33.364967,"lng":130.523739,"version":"14.0b/19.0a"},{"town":"布津原町","koaza":"","lat":33.37647,"lng":130.500123,"version":"14.0b/19.0a"},{"town":"古野町","koaza":"","lat":33.380655,"lng":130.515076,"version":"14.0b/19.0a"},{"town":"本通町一丁目","koaza":"","lat":33.373653,"lng":130.515926,"version":"14.0b/19.0a"},{"town":"本通町二丁目","koaza":"","lat":33.3726,"lng":130.515777,"version":"14.0b/19.0a"},{"town":"本鳥栖町","koaza":"","lat":33.377241,"lng":130.519361,"version":"14.0b/19.0a"},{"town":"本町一丁目","koaza":"","lat":33.37586,"lng":130.513526,"version":"14.0b/19.0a"},{"town":"本町二丁目","koaza":"","lat":33.375576,"lng":130.510648,"version":"14.0b/19.0a"},{"town":"本町三丁目","koaza":"","lat":33.378858,"lng":130.508774,"version":"14.0b/19.0a"},{"town":"前田町","koaza":"","lat":33.34887,"lng":130.495102,"version":"14.0b/19.0a"},{"town":"真木町","koaza":"","lat":33.354182,"lng":130.513424,"version":"14.0b/19.0a"},{"town":"松原町","koaza":"","lat":33.381094,"lng":130.522135,"version":"14.0b/19.0a"},{"town":"三島町","koaza":"","lat":33.332993,"lng":130.483037,"version":"14.0b/19.0a"},{"town":"三島町於保里","koaza":"","lat":33.337793,"lng":130.482251,"version":"14.0b/19.0a"},{"town":"三島町田出島","koaza":"","lat":33.333299,"lng":130.494544,"version":"14.0b/19.0a"},{"town":"三島町不動島","koaza":"","lat":33.337009,"lng":130.495192,"version":"14.0b/19.0a"},{"town":"水屋町","koaza":"","lat":33.348448,"lng":130.529927,"version":"14.0b/19.0a"},{"town":"村田町","koaza":"","lat":33.359182,"lng":130.483472,"version":"14.0b/19.0a"},{"town":"村田町五反三歩","koaza":"","lat":33.352295,"lng":130.461352,"version":"14.0b/19.0a"},{"town":"元町","koaza":"","lat":33.371412,"lng":130.509194,"version":"14.0b/19.0a"},{"town":"養父町","koaza":"","lat":33.382645,"lng":130.493999,"version":"14.0b/19.0a"},{"town":"山浦町","koaza":"","lat":33.38082,"lng":130.478412,"version":"14.0b/19.0a"},{"town":"山都町","koaza":"","lat":33.373999,"lng":130.474353,"version":"14.0b/19.0a"},{"town":"弥生が丘一丁目","koaza":"","lat":33.402964,"lng":130.526388,"version":"14.0b/19.0a"},{"town":"弥生が丘二丁目","koaza":"","lat":33.406409,"lng":130.52318,"version":"14.0b/19.0a"},{"town":"弥生が丘三丁目","koaza":"","lat":33.410777,"lng":130.52034,"version":"14.0b/19.0a"},{"town":"弥生が丘四丁目","koaza":"","lat":33.407958,"lng":130.518991,"version":"14.0b/19.0a"},{"town":"弥生が丘五丁目","koaza":"","lat":33.403872,"lng":130.518665,"version":"14.0b/19.0a"},{"town":"弥生が丘六丁目","koaza":"","lat":33.400932,"lng":130.517195,"version":"14.0b/19.0a"},{"town":"弥生が丘七丁目","koaza":"","lat":33.406383,"lng":130.514473,"version":"14.0b/19.0a"},{"town":"弥生が丘八丁目","koaza":"","lat":33.405439,"lng":130.511474,"version":"14.0b/19.0a"},{"town":"鎗田町","koaza":"","lat":33.383179,"lng":130.512614,"version":"14.0b/19.0a"},{"town":"柚比町","koaza":"","lat":33.402098,"lng":130.506352,"version":"14.0b/19.0a"},{"town":"江島町","koaza":"熊本","lat":33.356153,"lng":130.478532,"version":"14.0b/19.0a"},{"town":"古賀町","koaza":"花ノ木","lat":33.38527,"lng":130.499774,"version":"14.0b/19.0a"},{"town":"轟木町","koaza":"二本黒木","lat":33.364818,"lng":130.501167,"version":"14.0b/19.0a"},{"town":"元町","koaza":"川原","lat":33.372164,"lng":130.505838,"version":"14.0b/19.0a"},{"town":"真木町","koaza":"赤井出","lat":33.359773,"lng":130.507334,"version":"14.0b/19.0a"},{"town":"神辺町","koaza":"中川原","lat":33.389628,"lng":130.51385,"version":"14.0b/19.0a"},{"town":"本鳥栖町","koaza":"下鳥栖","lat":33.375635,"lng":130.517334,"version":"14.0b/19.0a"}]