[{"town":"古川宮袋","koaza":"","lat":38.586634,"lng":140.949843,"version":"13.0b/18.0a"},{"town":"古川蓑口沼","koaza":"","lat":38.564835,"lng":140.969953,"version":"13.0b/18.0a"},{"town":"古川中里","koaza":"","lat":38.564601,"lng":140.969,"version":"13.0b/18.0a"},{"town":"古川川端","koaza":"","lat":38.574752,"lng":140.95789,"version":"13.0b/18.0a"},{"town":"古川駅前大通四丁目","koaza":"","lat":38.575447,"lng":140.965973,"version":"13.0b/18.0a"},{"town":"古川三日町一丁目","koaza":"","lat":38.574622,"lng":140.955783,"version":"13.0b/18.0a"},{"town":"古川駅前大通五丁目","koaza":"","lat":38.576994,"lng":140.966463,"version":"13.0b/18.0a"},{"town":"古川荒川小金町","koaza":"","lat":38.572926,"lng":140.958754,"version":"13.0b/18.0a"},{"town":"古川浦町","koaza":"","lat":38.57738,"lng":140.959153,"version":"13.0b/18.0a"},{"town":"古川駅前大通三丁目","koaza":"","lat":38.573836,"lng":140.966829,"version":"13.0b/18.0a"},{"town":"古川東町","koaza":"","lat":38.575878,"lng":140.963338,"version":"13.0b/18.0a"},{"town":"古川江合寿町二丁目","koaza":"","lat":38.587691,"lng":140.965228,"version":"13.0b/18.0a"},{"town":"古川駅前大通六丁目","koaza":"","lat":38.57902,"lng":140.967092,"version":"13.0b/18.0a"},{"town":"古川西館一丁目","koaza":"","lat":38.57462,"lng":140.953738,"version":"13.0b/18.0a"},{"town":"古川江合錦町三丁目","koaza":"","lat":38.584909,"lng":140.97123,"version":"13.0b/18.0a"},{"town":"古川旭六丁目","koaza":"","lat":38.566214,"lng":140.978826,"version":"13.0b/18.0a"},{"town":"古川駅南二丁目","koaza":"","lat":38.56773,"lng":140.968981,"version":"13.0b/18.0a"},{"town":"古川駅南一丁目","koaza":"","lat":38.569313,"lng":140.969521,"version":"13.0b/18.0a"},{"town":"古川十日町","koaza":"","lat":38.57564,"lng":140.960509,"version":"13.0b/18.0a"},{"town":"古川大宮五丁目","koaza":"","lat":38.582739,"lng":140.959676,"version":"13.0b/18.0a"},{"town":"古川駅前大通二丁目","koaza":"","lat":38.572777,"lng":140.966078,"version":"13.0b/18.0a"},{"town":"古川三日町二丁目","koaza":"","lat":38.573,"lng":140.955473,"version":"13.0b/18.0a"},{"town":"古川南町二丁目","koaza":"","lat":38.57065,"lng":140.956863,"version":"13.0b/18.0a"},{"town":"古川駅東四丁目","koaza":"","lat":38.57045,"lng":140.978644,"version":"13.0b/18.0a"},{"town":"古川幸町二丁目","koaza":"","lat":38.578898,"lng":140.969207,"version":"13.0b/18.0a"},{"town":"古川駅南三丁目","koaza":"","lat":38.566183,"lng":140.96865,"version":"13.0b/18.0a"},{"town":"古川江合寿町三丁目","koaza":"","lat":38.586649,"lng":140.967337,"version":"13.0b/18.0a"},{"town":"古川福浦二丁目","koaza":"","lat":38.590417,"lng":140.963488,"version":"13.0b/18.0a"},{"town":"古川城西二丁目","koaza":"","lat":38.578378,"lng":140.94734,"version":"13.0b/18.0a"},{"town":"古川台町","koaza":"","lat":38.574418,"lng":140.962926,"version":"13.0b/18.0a"},{"town":"古川北町二丁目","koaza":"","lat":38.579167,"lng":140.963575,"version":"13.0b/18.0a"},{"town":"古川南町一丁目","koaza":"","lat":38.571924,"lng":140.955932,"version":"13.0b/18.0a"},{"town":"古川江合錦町二丁目","koaza":"","lat":38.585899,"lng":140.969667,"version":"13.0b/18.0a"},{"town":"古川旭三丁目","koaza":"","lat":38.568635,"lng":140.975776,"version":"13.0b/18.0a"},{"town":"古川幸町一丁目","koaza":"","lat":38.575872,"lng":140.968348,"version":"13.0b/18.0a"},{"town":"古川若葉町一丁目","koaza":"","lat":38.588491,"lng":140.951293,"version":"13.0b/18.0a"},{"town":"古川江合錦町一丁目","koaza":"","lat":38.583191,"lng":140.96947,"version":"13.0b/18.0a"},{"town":"古川西館二丁目","koaza":"","lat":38.574147,"lng":140.951946,"version":"13.0b/18.0a"},{"town":"古川七日町","koaza":"","lat":38.576291,"lng":140.957063,"version":"13.0b/18.0a"},{"town":"古川大宮七丁目","koaza":"","lat":38.586838,"lng":140.958553,"version":"13.0b/18.0a"},{"town":"古川大宮四丁目","koaza":"","lat":38.584667,"lng":140.957871,"version":"13.0b/18.0a"},{"town":"古川旭五丁目","koaza":"","lat":38.567699,"lng":140.97816,"version":"13.0b/18.0a"},{"town":"古川稲葉二丁目","koaza":"","lat":38.556072,"lng":140.952012,"version":"13.0b/18.0a"},{"town":"古川李埣三丁目","koaza":"","lat":38.572918,"lng":140.980156,"version":"13.0b/18.0a"},{"town":"古川諏訪三丁目","koaza":"","lat":38.58434,"lng":140.95005,"version":"13.0b/18.0a"},{"town":"古川稲葉三丁目","koaza":"","lat":38.557088,"lng":140.954162,"version":"13.0b/18.0a"},{"town":"古川北町三丁目","koaza":"","lat":38.581342,"lng":140.964065,"version":"13.0b/18.0a"},{"town":"古川千手寺町二丁目","koaza":"","lat":38.579925,"lng":140.956839,"version":"13.0b/18.0a"},{"town":"古川北町一丁目","koaza":"","lat":38.577646,"lng":140.962734,"version":"13.0b/18.0a"},{"town":"古川千手寺町一丁目","koaza":"","lat":38.579778,"lng":140.954254,"version":"13.0b/18.0a"},{"town":"古川江合寿町一丁目","koaza":"","lat":38.585515,"lng":140.965187,"version":"13.0b/18.0a"},{"town":"古川南新町","koaza":"","lat":38.567576,"lng":140.957459,"version":"13.0b/18.0a"},{"town":"古川南町四丁目","koaza":"","lat":38.571027,"lng":140.950261,"version":"13.0b/18.0a"},{"town":"古川旭一丁目","koaza":"","lat":38.568996,"lng":140.972563,"version":"13.0b/18.0a"},{"town":"古川前田町","koaza":"","lat":38.579627,"lng":140.959885,"version":"13.0b/18.0a"},{"town":"古川李埣二丁目","koaza":"","lat":38.575183,"lng":140.97629,"version":"13.0b/18.0a"},{"town":"古川旭二丁目","koaza":"","lat":38.566129,"lng":140.972097,"version":"13.0b/18.0a"},{"town":"古川大宮一丁目","koaza":"","lat":38.582798,"lng":140.956647,"version":"13.0b/18.0a"},{"town":"古川駅前大通一丁目","koaza":"","lat":38.57171,"lng":140.965664,"version":"13.0b/18.0a"},{"town":"古川大宮二丁目","koaza":"","lat":38.584699,"lng":140.953125,"version":"13.0b/18.0a"},{"town":"古川駅東三丁目","koaza":"","lat":38.572903,"lng":140.976269,"version":"13.0b/18.0a"},{"town":"古川金五輪二丁目","koaza":"","lat":38.558107,"lng":140.960036,"version":"13.0b/18.0a"},{"town":"古川大宮八丁目","koaza":"","lat":38.588431,"lng":140.956544,"version":"13.0b/18.0a"},{"town":"古川穂波一丁目","koaza":"","lat":38.570959,"lng":140.944503,"version":"13.0b/18.0a"},{"town":"古川大宮六丁目","koaza":"","lat":38.585608,"lng":140.961467,"version":"13.0b/18.0a"},{"town":"古川江合本町一丁目","koaza":"","lat":38.588807,"lng":140.968175,"version":"13.0b/18.0a"},{"town":"古川大宮三丁目","koaza":"","lat":38.587039,"lng":140.953863,"version":"13.0b/18.0a"},{"town":"古川中里一丁目","koaza":"","lat":38.572865,"lng":140.961469,"version":"13.0b/18.0a"},{"town":"古川穂波八丁目","koaza":"","lat":38.570849,"lng":140.940056,"version":"13.0b/18.0a"},{"town":"古川諏訪一丁目","koaza":"","lat":38.580313,"lng":140.951486,"version":"13.0b/18.0a"},{"town":"古川城西一丁目","koaza":"","lat":38.576211,"lng":140.948184,"version":"13.0b/18.0a"},{"town":"古川穂波七丁目","koaza":"","lat":38.568034,"lng":140.940479,"version":"13.0b/18.0a"},{"town":"古川北稲葉二丁目","koaza":"","lat":38.561692,"lng":140.953783,"version":"13.0b/18.0a"},{"town":"古川若葉町二丁目","koaza":"","lat":38.590754,"lng":140.953963,"version":"13.0b/18.0a"},{"town":"古川稲葉一丁目","koaza":"","lat":38.558548,"lng":140.951244,"version":"13.0b/18.0a"},{"town":"古川中里二丁目","koaza":"","lat":38.569192,"lng":140.960658,"version":"13.0b/18.0a"},{"town":"古川北町四丁目","koaza":"","lat":38.582852,"lng":140.962713,"version":"13.0b/18.0a"},{"town":"古川北稲葉一丁目","koaza":"","lat":38.564533,"lng":140.953701,"version":"13.0b/18.0a"},{"town":"古川南町三丁目","koaza":"","lat":38.568215,"lng":140.954955,"version":"13.0b/18.0a"},{"town":"古川北町五丁目","koaza":"","lat":38.581876,"lng":140.967634,"version":"13.0b/18.0a"},{"town":"古川西館三丁目","koaza":"","lat":38.573207,"lng":140.94891,"version":"13.0b/18.0a"},{"town":"古川中里三丁目","koaza":"","lat":38.565354,"lng":140.961004,"version":"13.0b/18.0a"},{"town":"古川穂波五丁目","koaza":"","lat":38.561838,"lng":140.939808,"version":"13.0b/18.0a"},{"town":"古川小稲葉町","koaza":"","lat":38.568349,"lng":140.952173,"version":"13.0b/18.0a"},{"town":"古川二ノ構","koaza":"","lat":38.577311,"lng":140.952192,"version":"13.0b/18.0a"},{"town":"古川旭四丁目","koaza":"","lat":38.565058,"lng":140.974129,"version":"13.0b/18.0a"},{"town":"古川李埣一丁目","koaza":"","lat":38.577567,"lng":140.971402,"version":"13.0b/18.0a"},{"town":"古川中島町","koaza":"","lat":38.563366,"lng":140.957445,"version":"13.0b/18.0a"},{"town":"古川穂波二丁目","koaza":"","lat":38.568335,"lng":140.944978,"version":"13.0b/18.0a"},{"town":"古川金五輪一丁目","koaza":"","lat":38.560133,"lng":140.958423,"version":"13.0b/18.0a"},{"town":"三本木新町二丁目","koaza":"","lat":38.516083,"lng":140.933888,"version":"13.0b/18.0a"},{"town":"古川駅東一丁目","koaza":"","lat":38.571524,"lng":140.972008,"version":"13.0b/18.0a"},{"town":"古川栄町","koaza":"","lat":38.567838,"lng":140.949096,"version":"13.0b/18.0a"},{"town":"三本木新町一丁目","koaza":"","lat":38.519336,"lng":140.933092,"version":"13.0b/18.0a"},{"town":"古川駅東二丁目","koaza":"","lat":38.573626,"lng":140.971668,"version":"13.0b/18.0a"},{"town":"古川福浦一丁目","koaza":"","lat":38.588736,"lng":140.962045,"version":"13.0b/18.0a"},{"town":"古川穂波四丁目","koaza":"","lat":38.559428,"lng":140.942476,"version":"13.0b/18.0a"},{"town":"古川中里四丁目","koaza":"","lat":38.561118,"lng":140.96152,"version":"13.0b/18.0a"},{"town":"古川福浦三丁目","koaza":"","lat":38.592456,"lng":140.965956,"version":"13.0b/18.0a"},{"town":"古川稲葉四丁目","koaza":"","lat":38.554625,"lng":140.955955,"version":"13.0b/18.0a"},{"town":"古川福沼三丁目","koaza":"","lat":38.577869,"lng":140.975113,"version":"13.0b/18.0a"},{"town":"古川北稲葉三丁目","koaza":"","lat":38.562808,"lng":140.949933,"version":"13.0b/18.0a"},{"town":"古川穂波六丁目","koaza":"","lat":38.565199,"lng":140.940567,"version":"13.0b/18.0a"},{"town":"古川中里六丁目","koaza":"","lat":38.56856,"lng":140.964835,"version":"13.0b/18.0a"},{"town":"田尻北高城","koaza":"","lat":38.592487,"lng":141.044581,"version":"13.0b/18.0a"},{"town":"古川諏訪二丁目","koaza":"","lat":38.581656,"lng":140.94943,"version":"13.0b/18.0a"},{"town":"古川中里五丁目","koaza":"","lat":38.563473,"lng":140.963902,"version":"13.0b/18.0a"},{"town":"古川穂波三丁目","koaza":"","lat":38.563948,"lng":140.945767,"version":"13.0b/18.0a"},{"town":"古川福沼二丁目","koaza":"","lat":38.578765,"lng":140.979119,"version":"13.0b/18.0a"},{"town":"古川米倉","koaza":"","lat":38.56798,"lng":140.936954,"version":"13.0b/18.0a"},{"town":"田尻桜田高野","koaza":"","lat":38.592085,"lng":141.051775,"version":"13.0b/18.0a"},{"town":"古川稲葉","koaza":"","lat":38.554193,"lng":140.950212,"version":"13.0b/18.0a"},{"town":"古川福浦","koaza":"","lat":38.592944,"lng":140.958594,"version":"13.0b/18.0a"},{"town":"古川李埣","koaza":"","lat":38.571798,"lng":140.983874,"version":"13.0b/18.0a"},{"town":"古川上中目","koaza":"","lat":38.572428,"lng":140.901855,"version":"13.0b/18.0a"},{"town":"古川境野宮","koaza":"","lat":38.552634,"lng":140.959533,"version":"13.0b/18.0a"},{"town":"古川米袋","koaza":"","lat":38.547105,"lng":140.952598,"version":"13.0b/18.0a"},{"town":"田尻諏訪峠","koaza":"","lat":38.61718,"lng":140.995096,"version":"13.0b/18.0a"},{"town":"古川下谷地","koaza":"","lat":38.571916,"lng":141.009839,"version":"13.0b/18.0a"},{"town":"古川大幡","koaza":"","lat":38.560149,"lng":140.969705,"version":"13.0b/18.0a"},{"town":"古川耳取","koaza":"","lat":38.582127,"lng":140.879949,"version":"13.0b/18.0a"},{"town":"古川南沢","koaza":"","lat":38.598717,"lng":140.886091,"version":"13.0b/18.0a"},{"town":"古川新堀","koaza":"","lat":38.57781,"lng":140.892021,"version":"13.0b/18.0a"},{"town":"田尻沼木","koaza":"","lat":38.613618,"lng":140.992833,"version":"13.0b/18.0a"},{"town":"三本木南谷地","koaza":"","lat":38.532257,"lng":140.938364,"version":"13.0b/18.0a"},{"town":"古川斎下","koaza":"","lat":38.598727,"lng":140.892233,"version":"13.0b/18.0a"},{"town":"田尻北牧目","koaza":"","lat":38.595634,"lng":141.042153,"version":"13.0b/18.0a"},{"town":"古川馬櫛","koaza":"","lat":38.580078,"lng":141.010122,"version":"13.0b/18.0a"},{"town":"古川長岡","koaza":"","lat":38.618564,"lng":140.962185,"version":"13.0b/18.0a"},{"town":"三本木上伊場野","koaza":"","lat":38.532762,"lng":140.978661,"version":"13.0b/18.0a"},{"town":"古川宮内","koaza":"","lat":38.55167,"lng":140.968576,"version":"13.0b/18.0a"},{"town":"古川荒田目","koaza":"","lat":38.58495,"lng":140.903386,"version":"13.0b/18.0a"},{"town":"古川長岡針","koaza":"","lat":38.593892,"lng":141.005077,"version":"13.0b/18.0a"},{"town":"古川深沼","koaza":"","lat":38.56052,"lng":140.993518,"version":"13.0b/18.0a"},{"town":"古川狐塚","koaza":"","lat":38.606359,"lng":140.986921,"version":"13.0b/18.0a"},{"town":"三本木高柳","koaza":"","lat":38.545548,"lng":140.939845,"version":"13.0b/18.0a"},{"town":"古川渕尻","koaza":"","lat":38.58559,"lng":140.981296,"version":"13.0b/18.0a"},{"town":"古川新沼","koaza":"","lat":38.548303,"lng":140.924708,"version":"13.0b/18.0a"},{"town":"古川馬放","koaza":"","lat":38.601995,"lng":140.997863,"version":"13.0b/18.0a"},{"town":"田尻通木","koaza":"","lat":38.605843,"lng":141.027739,"version":"13.0b/18.0a"},{"town":"古川馬寄","koaza":"","lat":38.560997,"lng":140.9821,"version":"13.0b/18.0a"},{"town":"古川小泉","koaza":"","lat":38.595709,"lng":140.942518,"version":"13.0b/18.0a"},{"town":"古川楡木","koaza":"","lat":38.555195,"lng":140.979836,"version":"13.0b/18.0a"},{"town":"古川休塚","koaza":"","lat":38.59616,"lng":140.982787,"version":"13.0b/18.0a"},{"town":"古川上埣","koaza":"","lat":38.579883,"lng":140.997076,"version":"13.0b/18.0a"},{"town":"古川","koaza":"","lat":38.583095,"lng":140.943366,"version":"13.0b/18.0a"},{"town":"古川鶴ケ埣","koaza":"","lat":38.572846,"lng":140.991504,"version":"13.0b/18.0a"},{"town":"古川桑針","koaza":"","lat":38.552876,"lng":141.010279,"version":"13.0b/18.0a"},{"town":"古川渋井","koaza":"","lat":38.580555,"lng":140.915893,"version":"13.0b/18.0a"},{"town":"古川堤根","koaza":"","lat":38.538824,"lng":140.903221,"version":"13.0b/18.0a"},{"town":"田尻中目","koaza":"","lat":38.604118,"lng":141.010579,"version":"13.0b/18.0a"},{"town":"古川石森","koaza":"","lat":38.547644,"lng":140.994492,"version":"13.0b/18.0a"},{"town":"古川保柳","koaza":"","lat":38.58179,"lng":140.899057,"version":"13.0b/18.0a"},{"town":"古川荒谷","koaza":"","lat":38.612295,"lng":140.977462,"version":"13.0b/18.0a"},{"town":"古川柏崎","koaza":"","lat":38.587009,"lng":140.887701,"version":"13.0b/18.0a"},{"town":"古川富長","koaza":"","lat":38.590068,"lng":140.993135,"version":"13.0b/18.0a"},{"town":"古川矢目","koaza":"","lat":38.556666,"lng":140.909417,"version":"13.0b/18.0a"},{"town":"田尻八幡","koaza":"","lat":38.619865,"lng":141.014709,"version":"13.0b/18.0a"},{"town":"三本木蒜袋","koaza":"","lat":38.535923,"lng":140.966122,"version":"13.0b/18.0a"},{"town":"古川引田","koaza":"","lat":38.541941,"lng":140.899444,"version":"13.0b/18.0a"},{"town":"古川西荒井","koaza":"","lat":38.554187,"lng":140.943,"version":"13.0b/18.0a"},{"town":"古川中沢","koaza":"","lat":38.534747,"lng":140.912102,"version":"13.0b/18.0a"},{"town":"三本木坂本","koaza":"","lat":38.51666,"lng":140.912636,"version":"13.0b/18.0a"},{"town":"田尻小松","koaza":"","lat":38.617727,"lng":141.005909,"version":"13.0b/18.0a"},{"town":"田尻","koaza":"","lat":38.59521,"lng":141.02426,"version":"13.0b/18.0a"},{"town":"三本木斉田","koaza":"","lat":38.523163,"lng":140.897458,"version":"13.0b/18.0a"},{"town":"古川川熊","koaza":"","lat":38.622594,"lng":140.957135,"version":"13.0b/18.0a"},{"town":"古川沢田","koaza":"","lat":38.602659,"lng":140.970059,"version":"13.0b/18.0a"},{"town":"三本木蟻ケ袋","koaza":"","lat":38.510893,"lng":140.925726,"version":"13.0b/18.0a"},{"town":"三本木秋田","koaza":"","lat":38.511972,"lng":140.975561,"version":"13.0b/18.0a"},{"town":"古川小林","koaza":"","lat":38.611655,"lng":140.937857,"version":"13.0b/18.0a"},{"town":"古川塚目","koaza":"","lat":38.578673,"lng":140.933024,"version":"13.0b/18.0a"},{"town":"鹿島台平渡","koaza":"","lat":38.481116,"lng":141.095708,"version":"13.0b/18.0a"},{"town":"松山須摩屋","koaza":"","lat":38.519461,"lng":141.082808,"version":"13.0b/18.0a"},{"town":"古川桜ノ目","koaza":"","lat":38.605697,"lng":140.95079,"version":"13.0b/18.0a"},{"town":"鹿島台船越","koaza":"","lat":38.506551,"lng":141.103138,"version":"13.0b/18.0a"},{"town":"松山金谷","koaza":"","lat":38.505577,"lng":141.062478,"version":"13.0b/18.0a"},{"town":"田尻小塩","koaza":"","lat":38.595929,"lng":141.073673,"version":"13.0b/18.0a"},{"town":"田尻大嶺","koaza":"","lat":38.618142,"lng":141.024238,"version":"13.0b/18.0a"},{"town":"古川師山","koaza":"","lat":38.540832,"lng":140.979282,"version":"13.0b/18.0a"},{"town":"古川下中目","koaza":"","lat":38.541721,"lng":141.008412,"version":"13.0b/18.0a"},{"town":"田尻北小牛田","koaza":"","lat":38.563911,"lng":141.068287,"version":"13.0b/18.0a"},{"town":"三本木音無","koaza":"","lat":38.50493,"lng":140.906113,"version":"13.0b/18.0a"},{"town":"松山長尾","koaza":"","lat":38.505159,"lng":141.082647,"version":"13.0b/18.0a"},{"town":"古川飯川","koaza":"","lat":38.562441,"lng":140.919919,"version":"13.0b/18.0a"},{"town":"三本木新沼","koaza":"","lat":38.533408,"lng":140.927653,"version":"13.0b/18.0a"},{"town":"三本木","koaza":"","lat":38.523744,"lng":140.941885,"version":"13.0b/18.0a"},{"town":"鹿島台深谷","koaza":"","lat":38.469234,"lng":141.065455,"version":"13.0b/18.0a"},{"town":"古川清滝","koaza":"","lat":38.670625,"lng":140.947591,"version":"13.0b/18.0a"},{"town":"古川新田","koaza":"","lat":38.592746,"lng":140.927485,"version":"13.0b/18.0a"},{"town":"三本木伊賀","koaza":"","lat":38.496914,"lng":140.929834,"version":"13.0b/18.0a"},{"town":"古川大崎","koaza":"","lat":38.60306,"lng":140.904001,"version":"13.0b/18.0a"},{"town":"古川清水","koaza":"","lat":38.618708,"lng":140.909583,"version":"13.0b/18.0a"},{"town":"古川雨生沢","koaza":"","lat":38.644948,"lng":140.9328,"version":"13.0b/18.0a"},{"town":"松山次橋","koaza":"","lat":38.512284,"lng":141.027118,"version":"13.0b/18.0a"},{"town":"古川宮沢","koaza":"","lat":38.628963,"lng":140.937802,"version":"13.0b/18.0a"},{"town":"岩出山下一栗","koaza":"","lat":38.6877,"lng":140.859595,"version":"13.0b/18.0a"},{"town":"三本木桑折","koaza":"","lat":38.513176,"lng":140.952101,"version":"13.0b/18.0a"},{"town":"松山千石","koaza":"","lat":38.515075,"lng":141.049508,"version":"13.0b/18.0a"},{"town":"古川清水沢","koaza":"","lat":38.651744,"lng":140.977076,"version":"13.0b/18.0a"},{"town":"古川小野","koaza":"","lat":38.62937,"lng":140.98508,"version":"13.0b/18.0a"},{"town":"松山下伊場野","koaza":"","lat":38.511147,"lng":141.010337,"version":"13.0b/18.0a"},{"town":"三本木伊場野","koaza":"","lat":38.516228,"lng":140.991522,"version":"13.0b/18.0a"},{"town":"田尻大沢","koaza":"","lat":38.581521,"lng":141.069262,"version":"13.0b/18.0a"},{"town":"古川北宮沢","koaza":"","lat":38.658254,"lng":140.933774,"version":"13.0b/18.0a"},{"town":"田尻沼部","koaza":"","lat":38.607699,"lng":141.054757,"version":"13.0b/18.0a"},{"town":"鹿島台木間塚","koaza":"","lat":38.470874,"lng":141.111612,"version":"13.0b/18.0a"},{"town":"岩出山上野目","koaza":"","lat":38.67173,"lng":140.884257,"version":"13.0b/18.0a"},{"town":"田尻蕪栗","koaza":"","lat":38.620804,"lng":141.097288,"version":"13.0b/18.0a"},{"town":"鹿島台広長","koaza":"","lat":38.473159,"lng":141.080946,"version":"13.0b/18.0a"},{"town":"田尻大貫","koaza":"","lat":38.60133,"lng":141.113287,"version":"13.0b/18.0a"},{"town":"岩出山下野目","koaza":"","lat":38.639316,"lng":140.89997,"version":"13.0b/18.0a"},{"town":"鹿島台大迫","koaza":"","lat":38.472543,"lng":141.036714,"version":"13.0b/18.0a"},{"town":"岩出山南沢","koaza":"","lat":38.655425,"lng":140.821658,"version":"13.0b/18.0a"},{"town":"岩出山池月","koaza":"","lat":38.712534,"lng":140.838088,"version":"13.0b/18.0a"},{"town":"岩出山","koaza":"","lat":38.701878,"lng":140.924155,"version":"13.0b/18.0a"},{"town":"鳴子温泉鬼首","koaza":"","lat":38.827177,"lng":140.635762,"version":"13.0b/18.0a"},{"town":"鳴子温泉","koaza":"","lat":38.73673,"lng":140.74846,"version":"13.0b/18.0a"},{"town":"古川江合本町三丁目","koaza":"","lat":38.591896,"lng":140.970058,"version":"13.0b/18.0a"},{"town":"古川福沼一丁目","koaza":"","lat":38.583642,"lng":140.974274,"version":"13.0b/18.0a"},{"town":"古川江合本町二丁目","koaza":"","lat":38.588186,"lng":140.971949,"version":"13.0b/18.0a"},{"town":"古川江合","koaza":"","lat":38.58821,"lng":140.972944,"version":"13.0b/18.0a"},{"town":"鳴子温泉","koaza":"岩渕","lat":38.747515,"lng":140.703787,"version":"13.0b/18.0a"},{"town":"鳴子温泉","koaza":"岩渕前","lat":38.74121,"lng":140.707651,"version":"13.0b/18.0a"},{"town":"鳴子温泉","koaza":"古戸前","lat":38.737692,"lng":140.705097,"version":"13.0b/18.0a"},{"town":"鳴子温泉","koaza":"尿前","lat":38.738599,"lng":140.702079,"version":"13.0b/18.0a"},{"town":"鳴子温泉","koaza":"上鳴子","lat":38.738711,"lng":140.710213,"version":"13.0b/18.0a"},{"town":"鳴子温泉","koaza":"中屋敷","lat":38.74538,"lng":140.708986,"version":"13.0b/18.0a"},{"town":"鳴子温泉","koaza":"大畑","lat":38.750326,"lng":140.712541,"version":"13.0b/18.0a"},{"town":"鳴子温泉","koaza":"河原湯","lat":38.741949,"lng":140.714696,"version":"13.0b/18.0a"},{"town":"鳴子温泉","koaza":"湯元","lat":38.74117,"lng":140.715467,"version":"13.0b/18.0a"},{"town":"鳴子温泉","koaza":"末沢西","lat":38.750826,"lng":140.720251,"version":"13.0b/18.0a"},{"town":"鳴子温泉","koaza":"新屋敷","lat":38.744474,"lng":140.720081,"version":"13.0b/18.0a"},{"town":"鳴子温泉","koaza":"末沢","lat":38.750739,"lng":140.723596,"version":"13.0b/18.0a"},{"town":"鳴子温泉","koaza":"車湯","lat":38.748075,"lng":140.72653,"version":"13.0b/18.0a"},{"town":"鳴子温泉","koaza":"赤湯","lat":38.745025,"lng":140.735089,"version":"13.0b/18.0a"},{"town":"鳴子温泉","koaza":"赤這","lat":38.75062,"lng":140.737822,"version":"13.0b/18.0a"},{"town":"鳴子温泉","koaza":"鷲ノ巣","lat":38.741562,"lng":140.737424,"version":"13.0b/18.0a"},{"town":"鳴子温泉","koaza":"中野","lat":38.738265,"lng":140.741668,"version":"13.0b/18.0a"},{"town":"鳴子温泉","koaza":"馬場","lat":38.735821,"lng":140.747094,"version":"13.0b/18.0a"},{"town":"鳴子温泉","koaza":"久田","lat":38.745869,"lng":140.742315,"version":"13.0b/18.0a"},{"town":"鳴子温泉","koaza":"上川原","lat":38.741041,"lng":140.746803,"version":"13.0b/18.0a"},{"town":"鳴子温泉","koaza":"要害","lat":38.733224,"lng":140.751726,"version":"13.0b/18.0a"},{"town":"鳴子温泉","koaza":"蓬田","lat":38.741344,"lng":140.753326,"version":"13.0b/18.0a"},{"town":"鳴子温泉","koaza":"石ノ梅","lat":38.732351,"lng":140.755275,"version":"13.0b/18.0a"},{"town":"鳴子温泉","koaza":"町西","lat":38.736747,"lng":140.764929,"version":"13.0b/18.0a"},{"town":"鳴子温泉","koaza":"築沢","lat":38.730746,"lng":140.761785,"version":"13.0b/18.0a"},{"town":"鳴子温泉","koaza":"玉ノ木","lat":38.73007,"lng":140.761994,"version":"13.0b/18.0a"},{"town":"鳴子温泉","koaza":"町","lat":38.740146,"lng":140.76851,"version":"13.0b/18.0a"},{"town":"鳴子温泉","koaza":"大尺","lat":38.751218,"lng":140.767247,"version":"13.0b/18.0a"},{"town":"鳴子温泉","koaza":"川渡","lat":38.731555,"lng":140.76988,"version":"13.0b/18.0a"},{"town":"鳴子温泉","koaza":"新町下","lat":38.735931,"lng":140.76977,"version":"13.0b/18.0a"},{"town":"鳴子温泉","koaza":"町下","lat":38.736569,"lng":140.769469,"version":"13.0b/18.0a"},{"town":"鳴子温泉","koaza":"川袋","lat":38.732317,"lng":140.774404,"version":"13.0b/18.0a"},{"town":"鳴子温泉","koaza":"野際","lat":38.741097,"lng":140.775719,"version":"13.0b/18.0a"},{"town":"鳴子温泉","koaza":"天神","lat":38.735582,"lng":140.775217,"version":"13.0b/18.0a"},{"town":"鳴子温泉","koaza":"坂ノ上","lat":38.732384,"lng":140.777662,"version":"13.0b/18.0a"},{"town":"鳴子温泉","koaza":"木戸脇","lat":38.741931,"lng":140.776727,"version":"13.0b/18.0a"},{"town":"鳴子温泉","koaza":"田中","lat":38.736363,"lng":140.778462,"version":"13.0b/18.0a"},{"town":"鳴子温泉","koaza":"小室","lat":38.742841,"lng":140.780656,"version":"13.0b/18.0a"},{"town":"鳴子温泉","koaza":"前森","lat":38.749589,"lng":140.782187,"version":"13.0b/18.0a"},{"town":"鳴子温泉","koaza":"滝岸","lat":38.73426,"lng":140.783211,"version":"13.0b/18.0a"},{"town":"鳴子温泉","koaza":"関口","lat":38.737936,"lng":140.782605,"version":"13.0b/18.0a"},{"town":"岩出山","koaza":"大学町","lat":38.652842,"lng":140.85728,"version":"13.0b/18.0a"},{"town":"岩出山","koaza":"木通沢","lat":38.646071,"lng":140.84999,"version":"13.0b/18.0a"},{"town":"岩出山","koaza":"細峯","lat":38.643797,"lng":140.850977,"version":"13.0b/18.0a"},{"town":"岩出山","koaza":"蛭沢","lat":38.657715,"lng":140.856617,"version":"13.0b/18.0a"},{"town":"岩出山","koaza":"轟","lat":38.641262,"lng":140.85614,"version":"13.0b/18.0a"},{"town":"岩出山","koaza":"丸山","lat":38.639788,"lng":140.865301,"version":"13.0b/18.0a"},{"town":"岩出山","koaza":"松沢","lat":38.667047,"lng":140.855622,"version":"13.0b/18.0a"},{"town":"岩出山","koaza":"上川原南","lat":38.664376,"lng":140.859754,"version":"13.0b/18.0a"},{"town":"岩出山下一栗","koaza":"熊野堂","lat":38.68145,"lng":140.857843,"version":"13.0b/18.0a"},{"town":"岩出山下一栗","koaza":"四ツ家","lat":38.68242,"lng":140.858016,"version":"13.0b/18.0a"},{"town":"岩出山下一栗","koaza":"一ノ坪","lat":38.673747,"lng":140.859644,"version":"13.0b/18.0a"},{"town":"岩出山","koaza":"下金沢","lat":38.646208,"lng":140.864882,"version":"13.0b/18.0a"},{"town":"岩出山","koaza":"上川原町","lat":38.658581,"lng":140.865818,"version":"13.0b/18.0a"},{"town":"岩出山","koaza":"上金沢","lat":38.646498,"lng":140.860335,"version":"13.0b/18.0a"},{"town":"岩出山","koaza":"城山","lat":38.65711,"lng":140.861627,"version":"13.0b/18.0a"},{"town":"岩出山上野目","koaza":"下辻堂","lat":38.672858,"lng":140.861543,"version":"13.0b/18.0a"},{"town":"岩出山上野目","koaza":"深山","lat":38.66938,"lng":140.86491,"version":"13.0b/18.0a"},{"town":"岩出山","koaza":"二ノ構","lat":38.651984,"lng":140.864882,"version":"13.0b/18.0a"},{"town":"岩出山","koaza":"上川原北","lat":38.663031,"lng":140.861579,"version":"13.0b/18.0a"},{"town":"岩出山上野目","koaza":"上川原","lat":38.665876,"lng":140.865736,"version":"13.0b/18.0a"},{"town":"岩出山上野目","koaza":"南境野目","lat":38.67158,"lng":140.865678,"version":"13.0b/18.0a"},{"town":"岩出山上野目","koaza":"中川原","lat":38.664217,"lng":140.869307,"version":"13.0b/18.0a"},{"town":"岩出山","koaza":"下川原町","lat":38.657052,"lng":140.869997,"version":"13.0b/18.0a"},{"town":"岩出山","koaza":"浦小路","lat":38.651573,"lng":140.868868,"version":"13.0b/18.0a"},{"town":"岩出山","koaza":"通丁","lat":38.64696,"lng":140.868962,"version":"13.0b/18.0a"},{"town":"岩出山","koaza":"東川原","lat":38.65386,"lng":140.871149,"version":"13.0b/18.0a"},{"town":"岩出山","koaza":"上中江","lat":38.648718,"lng":140.871874,"version":"13.0b/18.0a"},{"town":"岩出山","koaza":"東御名掛","lat":38.644111,"lng":140.871129,"version":"13.0b/18.0a"},{"town":"岩出山","koaza":"下川原","lat":38.645458,"lng":140.876867,"version":"13.0b/18.0a"},{"town":"岩出山","koaza":"西御名掛","lat":38.63911,"lng":140.87243,"version":"13.0b/18.0a"},{"town":"岩出山下野目","koaza":"南原","lat":38.631396,"lng":140.872818,"version":"13.0b/18.0a"},{"town":"岩出山","koaza":"東川原町","lat":38.649352,"lng":140.875312,"version":"13.0b/18.0a"},{"town":"岩出山","koaza":"重蔵","lat":38.647589,"lng":140.874052,"version":"13.0b/18.0a"},{"town":"岩出山下野目","koaza":"南山","lat":38.629927,"lng":140.879375,"version":"13.0b/18.0a"},{"town":"古川柏崎","koaza":"安国寺","lat":38.59172,"lng":140.877611,"version":"13.0b/18.0a"},{"town":"古川耳取","koaza":"新田","lat":38.586398,"lng":140.877023,"version":"13.0b/18.0a"},{"town":"岩出山","koaza":"船場","lat":38.652095,"lng":140.877156,"version":"13.0b/18.0a"},{"town":"古川耳取","koaza":"錦田","lat":38.583457,"lng":140.878781,"version":"13.0b/18.0a"},{"town":"古川耳取","koaza":"八幡","lat":38.580752,"lng":140.878795,"version":"13.0b/18.0a"},{"town":"岩出山下野目","koaza":"長田","lat":38.651446,"lng":140.877971,"version":"13.0b/18.0a"},{"town":"岩出山下野目","koaza":"大畑","lat":38.647653,"lng":140.878901,"version":"13.0b/18.0a"},{"town":"古川耳取","koaza":"金穂","lat":38.586292,"lng":140.878207,"version":"13.0b/18.0a"},{"town":"古川耳取","koaza":"西畑","lat":38.584169,"lng":140.878278,"version":"13.0b/18.0a"},{"town":"岩出山下野目","koaza":"山ノ辺","lat":38.643771,"lng":140.880829,"version":"13.0b/18.0a"},{"town":"古川耳取","koaza":"山道下畑","lat":38.586149,"lng":140.87908,"version":"13.0b/18.0a"},{"town":"古川耳取","koaza":"泉田","lat":38.583369,"lng":140.87982,"version":"13.0b/18.0a"},{"town":"古川耳取","koaza":"畑田","lat":38.584217,"lng":140.879056,"version":"13.0b/18.0a"},{"town":"古川耳取","koaza":"台","lat":38.586679,"lng":140.879504,"version":"13.0b/18.0a"},{"town":"古川耳取","koaza":"蓬莱","lat":38.585742,"lng":140.880694,"version":"13.0b/18.0a"},{"town":"岩出山下野目","koaza":"新雨沼","lat":38.641913,"lng":140.881465,"version":"13.0b/18.0a"},{"town":"古川耳取","koaza":"豊田","lat":38.580084,"lng":140.880493,"version":"13.0b/18.0a"},{"town":"岩出山下野目","koaza":"雨沼","lat":38.642565,"lng":140.880335,"version":"13.0b/18.0a"},{"town":"岩出山上野目","koaza":"中田","lat":38.656263,"lng":140.881157,"version":"13.0b/18.0a"},{"town":"古川耳取","koaza":"黄金","lat":38.578242,"lng":140.881876,"version":"13.0b/18.0a"},{"town":"古川耳取","koaza":"茂泉","lat":38.583728,"lng":140.88198,"version":"13.0b/18.0a"},{"town":"古川柏崎","koaza":"吉田","lat":38.580113,"lng":140.885791,"version":"13.0b/18.0a"},{"town":"古川耳取","koaza":"石幌","lat":38.58071,"lng":140.882051,"version":"13.0b/18.0a"},{"town":"岩出山下野目","koaza":"二ツ屋","lat":38.640625,"lng":140.885268,"version":"13.0b/18.0a"},{"town":"古川耳取","koaza":"諏訪","lat":38.576594,"lng":140.883199,"version":"13.0b/18.0a"},{"town":"古川耳取","koaza":"土手下","lat":38.584488,"lng":140.882584,"version":"13.0b/18.0a"},{"town":"古川耳取","koaza":"糯田","lat":38.580568,"lng":140.882729,"version":"13.0b/18.0a"},{"town":"古川柏崎","koaza":"裏田","lat":38.584471,"lng":140.883213,"version":"13.0b/18.0a"},{"town":"古川柏崎","koaza":"霊屋","lat":38.584794,"lng":140.886391,"version":"13.0b/18.0a"},{"town":"古川耳取","koaza":"東田","lat":38.580306,"lng":140.883314,"version":"13.0b/18.0a"},{"town":"古川耳取","koaza":"山王前","lat":38.587688,"lng":140.886019,"version":"13.0b/18.0a"},{"town":"古川柏崎","koaza":"中新田","lat":38.575172,"lng":140.885382,"version":"13.0b/18.0a"},{"town":"古川柏崎","koaza":"境田","lat":38.576157,"lng":140.884223,"version":"13.0b/18.0a"},{"town":"古川柏崎","koaza":"堤下","lat":38.579945,"lng":140.884625,"version":"13.0b/18.0a"},{"town":"古川柏崎","koaza":"空田","lat":38.5769,"lng":140.885158,"version":"13.0b/18.0a"},{"town":"岩出山下野目","koaza":"泉山","lat":38.622975,"lng":140.885168,"version":"13.0b/18.0a"},{"town":"古川柏崎","koaza":"堤下前","lat":38.57727,"lng":140.884939,"version":"13.0b/18.0a"},{"town":"古川新堀","koaza":"西田","lat":38.578792,"lng":140.887802,"version":"13.0b/18.0a"},{"town":"古川新堀","koaza":"西谷地","lat":38.579092,"lng":140.886165,"version":"13.0b/18.0a"},{"town":"古川新堀","koaza":"前田","lat":38.57643,"lng":140.890505,"version":"13.0b/18.0a"},{"town":"岩出山下野目","koaza":"新八幡田","lat":38.632175,"lng":140.891885,"version":"13.0b/18.0a"},{"town":"古川新堀","koaza":"旭町","lat":38.576372,"lng":140.892391,"version":"13.0b/18.0a"},{"town":"古川柏崎","koaza":"長八","lat":38.586218,"lng":140.889507,"version":"13.0b/18.0a"},{"town":"古川新堀","koaza":"石神","lat":38.5794,"lng":140.889952,"version":"13.0b/18.0a"},{"town":"岩出山下野目","koaza":"沖ノ井","lat":38.635192,"lng":140.891663,"version":"13.0b/18.0a"},{"town":"古川柏崎","koaza":"千賀里前","lat":38.584491,"lng":140.891847,"version":"13.0b/18.0a"},{"town":"古川新堀","koaza":"高田","lat":38.573821,"lng":140.892494,"version":"13.0b/18.0a"},{"town":"岩出山下野目","koaza":"八幡田","lat":38.635136,"lng":140.889958,"version":"13.0b/18.0a"},{"town":"古川新堀","koaza":"城野","lat":38.581192,"lng":140.892725,"version":"13.0b/18.0a"},{"town":"古川柏崎","koaza":"千賀里","lat":38.586639,"lng":140.892709,"version":"13.0b/18.0a"},{"town":"岩出山下野目","koaza":"川原","lat":38.627527,"lng":140.891645,"version":"13.0b/18.0a"},{"town":"岩出山下野目","koaza":"小泉","lat":38.628858,"lng":140.892511,"version":"13.0b/18.0a"},{"town":"古川柏崎","koaza":"砂押","lat":38.586196,"lng":140.891133,"version":"13.0b/18.0a"},{"town":"岩出山下野目","koaza":"新小泉","lat":38.63091,"lng":140.892209,"version":"13.0b/18.0a"},{"town":"古川新堀","koaza":"高谷","lat":38.574504,"lng":140.892868,"version":"13.0b/18.0a"},{"town":"古川新堀","koaza":"北田","lat":38.581549,"lng":140.894565,"version":"13.0b/18.0a"},{"town":"古川新堀","koaza":"境堀","lat":38.57347,"lng":140.892564,"version":"13.0b/18.0a"},{"town":"古川新堀","koaza":"南田","lat":38.572484,"lng":140.895415,"version":"13.0b/18.0a"},{"town":"古川保柳","koaza":"北田","lat":38.585222,"lng":140.895552,"version":"13.0b/18.0a"},{"town":"古川保柳","koaza":"柿木","lat":38.586434,"lng":140.893282,"version":"13.0b/18.0a"},{"town":"古川新堀","koaza":"於女子壇","lat":38.582173,"lng":140.894097,"version":"13.0b/18.0a"},{"town":"古川保柳","koaza":"氏子","lat":38.580132,"lng":140.896207,"version":"13.0b/18.0a"},{"town":"古川保柳","koaza":"西構北","lat":38.583258,"lng":140.894033,"version":"13.0b/18.0a"},{"town":"古川新堀","koaza":"東田","lat":38.576674,"lng":140.895691,"version":"13.0b/18.0a"},{"town":"古川新堀","koaza":"屋敷田","lat":38.578013,"lng":140.895248,"version":"13.0b/18.0a"},{"town":"岩出山下野目","koaza":"八幡前","lat":38.63103,"lng":140.896433,"version":"13.0b/18.0a"},{"town":"古川新堀","koaza":"東城野","lat":38.578572,"lng":140.896047,"version":"13.0b/18.0a"},{"town":"古川保柳","koaza":"古内","lat":38.581299,"lng":140.895599,"version":"13.0b/18.0a"},{"town":"古川保柳","koaza":"南前田","lat":38.58037,"lng":140.895535,"version":"13.0b/18.0a"},{"town":"古川上中目","koaza":"南","lat":38.571573,"lng":140.899314,"version":"13.0b/18.0a"},{"town":"岩出山下野目","koaza":"境","lat":38.632564,"lng":140.896843,"version":"13.0b/18.0a"},{"town":"古川保柳","koaza":"外道","lat":38.579074,"lng":140.896266,"version":"13.0b/18.0a"},{"town":"古川保柳","koaza":"養海壇浦","lat":38.578847,"lng":140.896364,"version":"13.0b/18.0a"},{"town":"古川上中目","koaza":"石塚","lat":38.575147,"lng":140.89665,"version":"13.0b/18.0a"},{"town":"古川上中目","koaza":"西","lat":38.574637,"lng":140.900799,"version":"13.0b/18.0a"},{"town":"古川保柳","koaza":"養海壇前","lat":38.577523,"lng":140.897274,"version":"13.0b/18.0a"},{"town":"古川保柳","koaza":"寺島","lat":38.585011,"lng":140.897267,"version":"13.0b/18.0a"},{"town":"古川保柳","koaza":"中江","lat":38.585759,"lng":140.901005,"version":"13.0b/18.0a"},{"town":"古川保柳","koaza":"城内","lat":38.584214,"lng":140.899509,"version":"13.0b/18.0a"},{"town":"古川新堀","koaza":"江畑","lat":38.57638,"lng":140.897818,"version":"13.0b/18.0a"},{"town":"古川保柳","koaza":"掲示場西","lat":38.584679,"lng":140.898753,"version":"13.0b/18.0a"},{"town":"古川保柳","koaza":"寺西","lat":38.584064,"lng":140.898374,"version":"13.0b/18.0a"},{"town":"古川大崎","koaza":"沖見","lat":38.602495,"lng":140.900896,"version":"13.0b/18.0a"},{"town":"古川上中目","koaza":"日照田","lat":38.575187,"lng":140.899487,"version":"13.0b/18.0a"},{"town":"古川保柳","koaza":"南田","lat":38.578392,"lng":140.901105,"version":"13.0b/18.0a"},{"town":"古川保柳","koaza":"庚申塔","lat":38.582393,"lng":140.899829,"version":"13.0b/18.0a"},{"town":"古川保柳","koaza":"掲示場","lat":38.584313,"lng":140.900157,"version":"13.0b/18.0a"},{"town":"古川保柳","koaza":"三島","lat":38.585324,"lng":140.901073,"version":"13.0b/18.0a"},{"town":"古川荒田目","koaza":"葛生","lat":38.586938,"lng":140.903982,"version":"13.0b/18.0a"},{"town":"古川大崎","koaza":"伏見本屋敷","lat":38.606435,"lng":140.902483,"version":"13.0b/18.0a"},{"town":"古川荒田目","koaza":"馬場崎","lat":38.583285,"lng":140.906358,"version":"13.0b/18.0a"},{"town":"古川保柳","koaza":"不動浦","lat":38.574909,"lng":140.901533,"version":"13.0b/18.0a"},{"town":"古川上中目","koaza":"屋敷","lat":38.573716,"lng":140.902032,"version":"13.0b/18.0a"},{"town":"古川大崎","koaza":"信念","lat":38.608006,"lng":140.903368,"version":"13.0b/18.0a"},{"town":"古川荒田目","koaza":"後藤","lat":38.591177,"lng":140.904556,"version":"13.0b/18.0a"},{"town":"古川保柳","koaza":"荒屋敷","lat":38.583092,"lng":140.902118,"version":"13.0b/18.0a"},{"town":"古川上中目","koaza":"東","lat":38.57064,"lng":140.904398,"version":"13.0b/18.0a"},{"town":"古川大崎","koaza":"共和","lat":38.605012,"lng":140.90306,"version":"13.0b/18.0a"},{"town":"古川保柳","koaza":"田の実","lat":38.576566,"lng":140.906884,"version":"13.0b/18.0a"},{"town":"古川大崎","koaza":"善勝","lat":38.594677,"lng":140.90462,"version":"13.0b/18.0a"},{"town":"古川上中目","koaza":"渋田","lat":38.57458,"lng":140.903652,"version":"13.0b/18.0a"},{"town":"古川上中目","koaza":"北","lat":38.57337,"lng":140.904379,"version":"13.0b/18.0a"},{"town":"古川大崎","koaza":"日の丸","lat":38.599255,"lng":140.904889,"version":"13.0b/18.0a"},{"town":"古川荒田目","koaza":"遠仙筒","lat":38.582284,"lng":140.903322,"version":"13.0b/18.0a"},{"town":"古川荒田目","koaza":"葛生裏","lat":38.588944,"lng":140.903444,"version":"13.0b/18.0a"},{"town":"古川大崎","koaza":"土渕","lat":38.602338,"lng":140.902996,"version":"13.0b/18.0a"},{"town":"古川保柳","koaza":"道場","lat":38.580815,"lng":140.903608,"version":"13.0b/18.0a"},{"town":"古川荒田目","koaza":"川下","lat":38.580803,"lng":140.906369,"version":"13.0b/18.0a"},{"town":"古川保柳","koaza":"三嶽堂前","lat":38.579198,"lng":140.904178,"version":"13.0b/18.0a"},{"town":"古川大崎","koaza":"名生六角","lat":38.604758,"lng":140.90373,"version":"13.0b/18.0a"},{"town":"古川保柳","koaza":"藤屋敷","lat":38.580022,"lng":140.904059,"version":"13.0b/18.0a"},{"town":"古川荒田目","koaza":"葛生東","lat":38.588625,"lng":140.904091,"version":"13.0b/18.0a"},{"town":"古川保柳","koaza":"三嶽堂","lat":38.579202,"lng":140.905046,"version":"13.0b/18.0a"},{"town":"古川大崎","koaza":"自力","lat":38.606045,"lng":140.906452,"version":"13.0b/18.0a"},{"town":"古川荒田目","koaza":"後藤東","lat":38.585332,"lng":140.904506,"version":"13.0b/18.0a"},{"town":"古川渋井","koaza":"全壮","lat":38.586027,"lng":140.907737,"version":"13.0b/18.0a"},{"town":"古川保柳","koaza":"観音堂浦","lat":38.574465,"lng":140.905596,"version":"13.0b/18.0a"},{"town":"古川飯川","koaza":"馬場","lat":38.569893,"lng":140.91031,"version":"13.0b/18.0a"},{"town":"古川飯川","koaza":"新馬場","lat":38.566669,"lng":140.90744,"version":"13.0b/18.0a"},{"town":"古川荒田目","koaza":"天神","lat":38.577538,"lng":140.910291,"version":"13.0b/18.0a"},{"town":"古川大崎","koaza":"富国","lat":38.594181,"lng":140.908968,"version":"13.0b/18.0a"},{"town":"古川渋井","koaza":"全壮東","lat":38.584927,"lng":140.906243,"version":"13.0b/18.0a"},{"town":"古川保柳","koaza":"一本柳","lat":38.574413,"lng":140.906447,"version":"13.0b/18.0a"},{"town":"古川大崎","koaza":"東亜","lat":38.598492,"lng":140.909663,"version":"13.0b/18.0a"},{"town":"古川大崎","koaza":"伏見梅田","lat":38.602649,"lng":140.910976,"version":"13.0b/18.0a"},{"town":"古川矢目","koaza":"北谷地","lat":38.560925,"lng":140.912032,"version":"13.0b/18.0a"},{"town":"古川保柳","koaza":"四反町","lat":38.57437,"lng":140.907188,"version":"13.0b/18.0a"},{"town":"古川荒田目","koaza":"新田","lat":38.579609,"lng":140.910566,"version":"13.0b/18.0a"},{"town":"古川大崎","koaza":"更生","lat":38.602134,"lng":140.910089,"version":"13.0b/18.0a"},{"town":"古川保柳","koaza":"孝養","lat":38.57652,"lng":140.907535,"version":"13.0b/18.0a"},{"town":"古川大崎","koaza":"伏見藤屋敷","lat":38.60772,"lng":140.907712,"version":"13.0b/18.0a"},{"town":"古川矢目","koaza":"新北谷地","lat":38.562849,"lng":140.908904,"version":"13.0b/18.0a"},{"town":"古川保柳","koaza":"田螺","lat":38.576253,"lng":140.907666,"version":"13.0b/18.0a"},{"town":"古川新田","koaza":"小野","lat":38.588391,"lng":140.9124,"version":"13.0b/18.0a"},{"town":"古川大崎","koaza":"先制","lat":38.607132,"lng":140.908618,"version":"13.0b/18.0a"},{"town":"古川渋井","koaza":"小原","lat":38.584667,"lng":140.911908,"version":"13.0b/18.0a"},{"town":"古川荒田目","koaza":"神明東","lat":38.577624,"lng":140.908221,"version":"13.0b/18.0a"},{"town":"古川新田","koaza":"世紀","lat":38.591923,"lng":140.912403,"version":"13.0b/18.0a"},{"town":"古川新田","koaza":"堤外","lat":38.589007,"lng":140.908832,"version":"13.0b/18.0a"},{"town":"古川保柳","koaza":"西田","lat":38.574287,"lng":140.908515,"version":"13.0b/18.0a"},{"town":"古川保柳","koaza":"河原","lat":38.574942,"lng":140.909169,"version":"13.0b/18.0a"},{"town":"古川飯川","koaza":"名釼","lat":38.563481,"lng":140.912081,"version":"13.0b/18.0a"},{"town":"古川大崎","koaza":"朝日","lat":38.605304,"lng":140.91095,"version":"13.0b/18.0a"},{"town":"古川大崎","koaza":"新興","lat":38.605472,"lng":140.911926,"version":"13.0b/18.0a"},{"town":"古川渋井","koaza":"谷地","lat":38.581379,"lng":140.912686,"version":"13.0b/18.0a"},{"town":"古川飯川","koaza":"矢根倉","lat":38.573031,"lng":140.910887,"version":"13.0b/18.0a"},{"town":"古川大崎","koaza":"伏見下伏見","lat":38.606083,"lng":140.912356,"version":"13.0b/18.0a"},{"town":"古川新田","koaza":"十陸稔","lat":38.595919,"lng":140.912438,"version":"13.0b/18.0a"},{"town":"古川大崎","koaza":"伏見原水","lat":38.606357,"lng":140.910458,"version":"13.0b/18.0a"},{"town":"古川飯川","koaza":"上飯川","lat":38.574037,"lng":140.912632,"version":"13.0b/18.0a"},{"town":"古川大崎","koaza":"地蔵殿","lat":38.599244,"lng":140.911229,"version":"13.0b/18.0a"},{"town":"古川飯川","koaza":"西谷地","lat":38.562754,"lng":140.910941,"version":"13.0b/18.0a"},{"town":"古川飯川","koaza":"向田","lat":38.57171,"lng":140.910994,"version":"13.0b/18.0a"},{"town":"古川大崎","koaza":"邑","lat":38.599189,"lng":140.912919,"version":"13.0b/18.0a"},{"town":"古川矢目","koaza":"三間橋","lat":38.560743,"lng":140.912128,"version":"13.0b/18.0a"},{"town":"古川新田","koaza":"夜烏裏","lat":38.605897,"lng":140.915959,"version":"13.0b/18.0a"},{"town":"古川飯川","koaza":"杉屋敷東田","lat":38.56945,"lng":140.912327,"version":"13.0b/18.0a"},{"town":"古川飯川","koaza":"熊野","lat":38.56819,"lng":140.915735,"version":"13.0b/18.0a"},{"town":"古川飯川","koaza":"上中江","lat":38.568375,"lng":140.913884,"version":"13.0b/18.0a"},{"town":"古川飯川","koaza":"押切","lat":38.567405,"lng":140.913312,"version":"13.0b/18.0a"},{"town":"古川渋井","koaza":"南江","lat":38.580732,"lng":140.912586,"version":"13.0b/18.0a"},{"town":"古川渋井","koaza":"谷地裏","lat":38.581625,"lng":140.913013,"version":"13.0b/18.0a"},{"town":"古川飯川","koaza":"川崎","lat":38.560484,"lng":140.916192,"version":"13.0b/18.0a"},{"town":"古川飯川","koaza":"蛭田","lat":38.571632,"lng":140.912928,"version":"13.0b/18.0a"},{"town":"古川大崎","koaza":"伏見地蔵堂浦","lat":38.602143,"lng":140.913454,"version":"13.0b/18.0a"},{"town":"古川矢目","koaza":"川下","lat":38.557354,"lng":140.916559,"version":"13.0b/18.0a"},{"town":"古川新田","koaza":"鹿島西","lat":38.603107,"lng":140.914631,"version":"13.0b/18.0a"},{"town":"古川新田","koaza":"公堂","lat":38.603771,"lng":140.917966,"version":"13.0b/18.0a"},{"town":"古川新田","koaza":"子松","lat":38.599849,"lng":140.916164,"version":"13.0b/18.0a"},{"town":"古川飯川","koaza":"大隅","lat":38.572743,"lng":140.917731,"version":"13.0b/18.0a"},{"town":"古川渋井","koaza":"羽場切西","lat":38.583661,"lng":140.914429,"version":"13.0b/18.0a"},{"town":"古川清水","koaza":"周防","lat":38.607601,"lng":140.916278,"version":"13.0b/18.0a"},{"town":"古川渋井","koaza":"西田","lat":38.579685,"lng":140.917564,"version":"13.0b/18.0a"},{"town":"古川新田","koaza":"台所","lat":38.586775,"lng":140.918022,"version":"13.0b/18.0a"},{"town":"古川飯川","koaza":"坂下","lat":38.565685,"lng":140.915701,"version":"13.0b/18.0a"},{"town":"古川渋井","koaza":"羽場切","lat":38.583141,"lng":140.915247,"version":"13.0b/18.0a"},{"town":"古川新田","koaza":"鹿島裏","lat":38.603576,"lng":140.917037,"version":"13.0b/18.0a"},{"town":"古川飯川","koaza":"十文字","lat":38.56837,"lng":140.917959,"version":"13.0b/18.0a"},{"town":"古川渋井","koaza":"大下","lat":38.574576,"lng":140.921128,"version":"13.0b/18.0a"},{"town":"古川新田","koaza":"末広","lat":38.590715,"lng":140.919084,"version":"13.0b/18.0a"},{"town":"古川清水","koaza":"三丁目新起返","lat":38.609658,"lng":140.927769,"version":"13.0b/18.0a"},{"town":"古川新田","koaza":"夜烏","lat":38.601976,"lng":140.919829,"version":"13.0b/18.0a"},{"town":"古川新田","koaza":"中田","lat":38.593123,"lng":140.919704,"version":"13.0b/18.0a"},{"town":"古川飯川","koaza":"西村","lat":38.563925,"lng":140.917467,"version":"13.0b/18.0a"},{"town":"古川渋井","koaza":"的場","lat":38.582278,"lng":140.916438,"version":"13.0b/18.0a"},{"town":"古川飯川","koaza":"小谷地","lat":38.572079,"lng":140.916492,"version":"13.0b/18.0a"},{"town":"古川新田","koaza":"共栄","lat":38.595922,"lng":140.920867,"version":"13.0b/18.0a"},{"town":"古川新田","koaza":"天神","lat":38.599128,"lng":140.923035,"version":"13.0b/18.0a"},{"town":"古川渋井","koaza":"八ツ面","lat":38.582415,"lng":140.917463,"version":"13.0b/18.0a"},{"town":"古川渋井","koaza":"西田前","lat":38.581433,"lng":140.919485,"version":"13.0b/18.0a"},{"town":"古川新田","koaza":"夜烏前","lat":38.600946,"lng":140.918084,"version":"13.0b/18.0a"},{"town":"古川飯川","koaza":"三軒在家","lat":38.573646,"lng":140.917564,"version":"13.0b/18.0a"},{"town":"古川清水","koaza":"川原屋敷","lat":38.606832,"lng":140.919591,"version":"13.0b/18.0a"},{"town":"古川飯川","koaza":"要害","lat":38.566142,"lng":140.922809,"version":"13.0b/18.0a"},{"town":"古川飯川","koaza":"河原","lat":38.562432,"lng":140.917944,"version":"13.0b/18.0a"},{"town":"古川新田","koaza":"熊野堂前","lat":38.600645,"lng":140.918384,"version":"13.0b/18.0a"},{"town":"古川飯川","koaza":"土手下","lat":38.562208,"lng":140.918322,"version":"13.0b/18.0a"},{"town":"古川飯川","koaza":"中新田","lat":38.563333,"lng":140.919587,"version":"13.0b/18.0a"},{"town":"古川新田","koaza":"月山","lat":38.584541,"lng":140.920655,"version":"13.0b/18.0a"},{"town":"古川新田","koaza":"上宿前","lat":38.600042,"lng":140.921981,"version":"13.0b/18.0a"},{"town":"古川新田","koaza":"横走","lat":38.585702,"lng":140.920077,"version":"13.0b/18.0a"},{"town":"古川飯川","koaza":"寺裏","lat":38.562392,"lng":140.920107,"version":"13.0b/18.0a"},{"town":"古川清水","koaza":"新田","lat":38.606675,"lng":140.923123,"version":"13.0b/18.0a"},{"town":"古川飯川","koaza":"新田","lat":38.556674,"lng":140.923792,"version":"13.0b/18.0a"},{"town":"古川飯川","koaza":"土府","lat":38.559122,"lng":140.923489,"version":"13.0b/18.0a"},{"town":"古川新田","koaza":"泉屋敷","lat":38.60372,"lng":140.921522,"version":"13.0b/18.0a"},{"town":"古川渋井","koaza":"川渕","lat":38.580349,"lng":140.921072,"version":"13.0b/18.0a"},{"town":"古川飯川","koaza":"寺下","lat":38.560908,"lng":140.921521,"version":"13.0b/18.0a"},{"town":"古川飯川","koaza":"屋敷前","lat":38.559544,"lng":140.921668,"version":"13.0b/18.0a"},{"town":"古川新田","koaza":"目懸田","lat":38.59014,"lng":140.924389,"version":"13.0b/18.0a"},{"town":"古川新田","koaza":"上宿","lat":38.598192,"lng":140.927705,"version":"13.0b/18.0a"},{"town":"古川飯川","koaza":"屋敷","lat":38.557996,"lng":140.927195,"version":"13.0b/18.0a"},{"town":"古川新田","koaza":"興亜","lat":38.578147,"lng":140.925312,"version":"13.0b/18.0a"},{"town":"古川飯川","koaza":"石田","lat":38.560343,"lng":140.922763,"version":"13.0b/18.0a"},{"town":"古川新田","koaza":"神明浦","lat":38.602518,"lng":140.92451,"version":"13.0b/18.0a"},{"town":"古川飯川","koaza":"砂田","lat":38.560508,"lng":140.923563,"version":"13.0b/18.0a"},{"town":"古川飯川","koaza":"伝兵衛","lat":38.559363,"lng":140.922858,"version":"13.0b/18.0a"},{"town":"古川渋井","koaza":"歩橋","lat":38.579758,"lng":140.923121,"version":"13.0b/18.0a"},{"town":"古川清水","koaza":"三丁目石田","lat":38.606564,"lng":140.926128,"version":"13.0b/18.0a"},{"town":"古川飯川","koaza":"松木","lat":38.558112,"lng":140.924393,"version":"13.0b/18.0a"},{"town":"古川新田","koaza":"昭和","lat":38.593621,"lng":140.928038,"version":"13.0b/18.0a"},{"town":"古川新田","koaza":"中宿","lat":38.596909,"lng":140.927341,"version":"13.0b/18.0a"},{"town":"古川新沼","koaza":"行人堰","lat":38.551342,"lng":140.926224,"version":"13.0b/18.0a"},{"town":"古川新田","koaza":"大西","lat":38.601865,"lng":140.92918,"version":"13.0b/18.0a"},{"town":"古川新田","koaza":"西昭和","lat":38.595463,"lng":140.92511,"version":"13.0b/18.0a"},{"town":"古川飯川","koaza":"観音","lat":38.557125,"lng":140.924871,"version":"13.0b/18.0a"},{"town":"古川新田","koaza":"南構","lat":38.594922,"lng":140.926245,"version":"13.0b/18.0a"},{"town":"三本木蟻ケ袋","koaza":"山畑","lat":38.518808,"lng":140.926469,"version":"13.0b/18.0a"},{"town":"古川塚目","koaza":"新田","lat":38.57575,"lng":140.929155,"version":"13.0b/18.0a"},{"town":"古川新田","koaza":"上川原","lat":38.604129,"lng":140.924635,"version":"13.0b/18.0a"},{"town":"三本木蟻ケ袋","koaza":"松森","lat":38.519762,"lng":140.924992,"version":"13.0b/18.0a"},{"town":"古川新田","koaza":"川原前","lat":38.598159,"lng":140.930369,"version":"13.0b/18.0a"},{"town":"古川塚目","koaza":"岡","lat":38.571417,"lng":140.930334,"version":"13.0b/18.0a"},{"town":"古川新田","koaza":"並柳","lat":38.582771,"lng":140.927153,"version":"13.0b/18.0a"},{"town":"古川塚目","koaza":"舟橋","lat":38.573292,"lng":140.925151,"version":"13.0b/18.0a"},{"town":"古川飯川","koaza":"金皿","lat":38.564724,"lng":140.929338,"version":"13.0b/18.0a"},{"town":"古川塚目","koaza":"水押","lat":38.573203,"lng":140.926421,"version":"13.0b/18.0a"},{"town":"三本木蟻ケ袋","koaza":"混内山","lat":38.521083,"lng":140.931902,"version":"13.0b/18.0a"},{"town":"古川新田","koaza":"南昭和","lat":38.593769,"lng":140.926277,"version":"13.0b/18.0a"},{"town":"古川新田","koaza":"前田","lat":38.58919,"lng":140.928439,"version":"13.0b/18.0a"},{"town":"古川清水","koaza":"三丁目新田","lat":38.604799,"lng":140.927412,"version":"13.0b/18.0a"},{"town":"古川新田","koaza":"新田谷地","lat":38.604403,"lng":140.927003,"version":"13.0b/18.0a"},{"town":"古川新田","koaza":"中昭和","lat":38.595623,"lng":140.927007,"version":"13.0b/18.0a"},{"town":"古川新田","koaza":"銃後稔","lat":38.593104,"lng":140.930292,"version":"13.0b/18.0a"},{"town":"古川新田","koaza":"上川原東","lat":38.604145,"lng":140.927535,"version":"13.0b/18.0a"},{"town":"古川新田","koaza":"東昭和","lat":38.594661,"lng":140.928163,"version":"13.0b/18.0a"},{"town":"古川新田","koaza":"川原","lat":38.601152,"lng":140.92827,"version":"13.0b/18.0a"},{"town":"古川西荒井","koaza":"大田","lat":38.554526,"lng":140.93384,"version":"13.0b/18.0a"},{"town":"古川塚目","koaza":"境","lat":38.582877,"lng":140.930254,"version":"13.0b/18.0a"},{"town":"古川塚目","koaza":"水冠","lat":38.573889,"lng":140.927908,"version":"13.0b/18.0a"},{"town":"三本木蟻ケ袋","koaza":"下賀家","lat":38.52028,"lng":140.928128,"version":"13.0b/18.0a"},{"town":"古川新沼","koaza":"大天馬","lat":38.549951,"lng":140.931742,"version":"13.0b/18.0a"},{"town":"三本木新沼","koaza":"二又","lat":38.527665,"lng":140.933803,"version":"13.0b/18.0a"},{"town":"古川塚目","koaza":"三口","lat":38.572915,"lng":140.92877,"version":"13.0b/18.0a"},{"town":"古川塚目","koaza":"金皿","lat":38.567247,"lng":140.934633,"version":"13.0b/18.0a"},{"town":"古川飯川","koaza":"三浪","lat":38.54967,"lng":140.929148,"version":"13.0b/18.0a"},{"town":"古川新田","koaza":"長田","lat":38.595631,"lng":140.929549,"version":"13.0b/18.0a"},{"town":"古川塚目","koaza":"二口","lat":38.573117,"lng":140.930912,"version":"13.0b/18.0a"},{"town":"古川塚目","koaza":"千刈町","lat":38.579687,"lng":140.933006,"version":"13.0b/18.0a"},{"town":"古川塚目","koaza":"杉崎","lat":38.57305,"lng":140.931314,"version":"13.0b/18.0a"},{"town":"古川新田","koaza":"犬丸","lat":38.59504,"lng":140.930297,"version":"13.0b/18.0a"},{"town":"古川新田","koaza":"松子","lat":38.595546,"lng":140.930772,"version":"13.0b/18.0a"},{"town":"古川新田","koaza":"宝稔","lat":38.593672,"lng":140.932278,"version":"13.0b/18.0a"},{"town":"古川新田","koaza":"沢目","lat":38.596143,"lng":140.934368,"version":"13.0b/18.0a"},{"town":"古川新田","koaza":"石名坂","lat":38.595077,"lng":140.931987,"version":"13.0b/18.0a"},{"town":"三本木","koaza":"白坂","lat":38.512823,"lng":140.935825,"version":"13.0b/18.0a"},{"town":"古川米倉","koaza":"石橋","lat":38.563619,"lng":140.932965,"version":"13.0b/18.0a"},{"town":"古川新田","koaza":"中洲","lat":38.594123,"lng":140.932845,"version":"13.0b/18.0a"},{"town":"古川西荒井","koaza":"上田","lat":38.558364,"lng":140.936852,"version":"13.0b/18.0a"},{"town":"三本木蟻ケ袋","koaza":"千貫森","lat":38.521113,"lng":140.932938,"version":"13.0b/18.0a"},{"town":"三本木新沼","koaza":"中谷地","lat":38.534913,"lng":140.93507,"version":"13.0b/18.0a"},{"town":"三本木新沼","koaza":"中谷地屋敷","lat":38.535019,"lng":140.935777,"version":"13.0b/18.0a"},{"town":"古川塚目","koaza":"中町","lat":38.572722,"lng":140.933036,"version":"13.0b/18.0a"},{"town":"三本木高柳","koaza":"鹿島","lat":38.545963,"lng":140.936285,"version":"13.0b/18.0a"},{"town":"三本木高柳","koaza":"内ノ目","lat":38.543002,"lng":140.935038,"version":"13.0b/18.0a"},{"town":"古川新田","koaza":"旭","lat":38.594934,"lng":140.935697,"version":"13.0b/18.0a"},{"town":"古川新田","koaza":"経檀","lat":38.595238,"lng":140.933225,"version":"13.0b/18.0a"},{"town":"三本木南谷地","koaza":"長寿院浦","lat":38.526093,"lng":140.936549,"version":"13.0b/18.0a"},{"town":"三本木南谷地","koaza":"熊野越","lat":38.524899,"lng":140.934483,"version":"13.0b/18.0a"},{"town":"古川塚目","koaza":"西又","lat":38.566822,"lng":140.933815,"version":"13.0b/18.0a"},{"town":"古川塚目","koaza":"北原","lat":38.587582,"lng":140.936829,"version":"13.0b/18.0a"},{"town":"古川小泉","koaza":"内高畑","lat":38.596118,"lng":140.936349,"version":"13.0b/18.0a"},{"town":"古川塚目","koaza":"屋敷","lat":38.57832,"lng":140.936472,"version":"13.0b/18.0a"},{"town":"古川塚目","koaza":"渋田","lat":38.573366,"lng":140.934552,"version":"13.0b/18.0a"},{"town":"古川小泉","koaza":"新高畑","lat":38.597194,"lng":140.939689,"version":"13.0b/18.0a"},{"town":"古川小泉","koaza":"大小","lat":38.592788,"lng":140.944465,"version":"13.0b/18.0a"},{"town":"古川塚目","koaza":"前田","lat":38.573488,"lng":140.934857,"version":"13.0b/18.0a"},{"town":"三本木高柳","koaza":"東壇","lat":38.544671,"lng":140.936093,"version":"13.0b/18.0a"},{"town":"三本木","koaza":"廻山","lat":38.523195,"lng":140.938379,"version":"13.0b/18.0a"},{"town":"古川塚目","koaza":"石名坂","lat":38.592113,"lng":140.938679,"version":"13.0b/18.0a"},{"town":"古川米倉","koaza":"上屋敷","lat":38.567703,"lng":140.937541,"version":"13.0b/18.0a"},{"town":"古川小林","koaza":"新向川原","lat":38.601387,"lng":140.935955,"version":"13.0b/18.0a"},{"town":"古川小泉","koaza":"上泉","lat":38.594025,"lng":140.938981,"version":"13.0b/18.0a"},{"town":"三本木","koaza":"大豆坂","lat":38.519733,"lng":140.938001,"version":"13.0b/18.0a"},{"town":"古川米倉","koaza":"筆塚","lat":38.559994,"lng":140.938272,"version":"13.0b/18.0a"},{"town":"古川西荒井","koaza":"若木","lat":38.55158,"lng":140.93986,"version":"13.0b/18.0a"},{"town":"三本木高柳","koaza":"伊勢堂","lat":38.546589,"lng":140.936125,"version":"13.0b/18.0a"},{"town":"三本木南谷地","koaza":"町","lat":38.526972,"lng":140.941345,"version":"13.0b/18.0a"},{"town":"三本木高柳","koaza":"反町","lat":38.542196,"lng":140.938122,"version":"13.0b/18.0a"},{"town":"古川小泉","koaza":"川原","lat":38.602149,"lng":140.938256,"version":"13.0b/18.0a"},{"town":"古川米倉","koaza":"屋敷","lat":38.567485,"lng":140.937245,"version":"13.0b/18.0a"},{"town":"古川米倉","koaza":"北","lat":38.572523,"lng":140.937549,"version":"13.0b/18.0a"},{"town":"古川小林","koaza":"向川原","lat":38.602797,"lng":140.93773,"version":"13.0b/18.0a"},{"town":"古川塚目","koaza":"原屋敷","lat":38.578639,"lng":140.938632,"version":"13.0b/18.0a"},{"town":"古川西荒井","koaza":"北畑","lat":38.562408,"lng":140.937398,"version":"13.0b/18.0a"},{"town":"三本木高柳","koaza":"北原","lat":38.545736,"lng":140.938876,"version":"13.0b/18.0a"},{"town":"三本木南谷地","koaza":"長寿院","lat":38.525823,"lng":140.938599,"version":"13.0b/18.0a"},{"town":"古川米倉","koaza":"中田","lat":38.572516,"lng":140.94031,"version":"13.0b/18.0a"},{"town":"古川西荒井","koaza":"車","lat":38.555749,"lng":140.938426,"version":"13.0b/18.0a"},{"town":"古川","koaza":"亥ノ丸","lat":38.582252,"lng":140.940487,"version":"13.0b/18.0a"},{"town":"古川小林","koaza":"川原","lat":38.605946,"lng":140.938843,"version":"13.0b/18.0a"},{"town":"三本木南谷地","koaza":"要害","lat":38.530426,"lng":140.940409,"version":"13.0b/18.0a"},{"town":"古川塚目","koaza":"樋下","lat":38.588672,"lng":140.93849,"version":"13.0b/18.0a"},{"town":"三本木南谷地","koaza":"西浦","lat":38.527251,"lng":140.940793,"version":"13.0b/18.0a"},{"town":"古川","koaza":"本鹿島","lat":38.587291,"lng":140.942229,"version":"13.0b/18.0a"},{"town":"三本木","koaza":"鹿野沢","lat":38.52384,"lng":140.9403,"version":"13.0b/18.0a"},{"town":"古川","koaza":"本鹿島袋","lat":38.589457,"lng":140.938995,"version":"13.0b/18.0a"},{"town":"古川小林","koaza":"新霞","lat":38.606582,"lng":140.942391,"version":"13.0b/18.0a"},{"town":"古川","koaza":"上古川西","lat":38.589681,"lng":140.939296,"version":"13.0b/18.0a"},{"town":"古川稲葉","koaza":"大江向","lat":38.573125,"lng":140.943498,"version":"13.0b/18.0a"},{"town":"古川","koaza":"竹ノ内","lat":38.576273,"lng":140.94208,"version":"13.0b/18.0a"},{"town":"古川","koaza":"上古川","lat":38.587798,"lng":140.944955,"version":"13.0b/18.0a"},{"town":"古川小林","koaza":"霞","lat":38.605705,"lng":140.940016,"version":"13.0b/18.0a"},{"town":"三本木高柳","koaza":"空屋敷","lat":38.543567,"lng":140.941176,"version":"13.0b/18.0a"},{"town":"古川桜ノ目","koaza":"中川原","lat":38.600374,"lng":140.940861,"version":"13.0b/18.0a"},{"town":"古川桜ノ目","koaza":"上原","lat":38.605493,"lng":140.940628,"version":"13.0b/18.0a"},{"town":"古川小泉","koaza":"上沢目","lat":38.591789,"lng":140.942975,"version":"13.0b/18.0a"},{"town":"古川桜ノ目","koaza":"鹿島","lat":38.602478,"lng":140.94471,"version":"13.0b/18.0a"},{"town":"古川小泉","koaza":"庚申田","lat":38.593919,"lng":140.941282,"version":"13.0b/18.0a"},{"town":"三本木","koaza":"南町","lat":38.525345,"lng":140.94418,"version":"13.0b/18.0a"},{"town":"古川西荒井","koaza":"東田","lat":38.553006,"lng":140.945241,"version":"13.0b/18.0a"},{"town":"三本木南谷地","koaza":"町切","lat":38.527129,"lng":140.941449,"version":"13.0b/18.0a"},{"town":"三本木南谷地","koaza":"町限","lat":38.527051,"lng":140.94197,"version":"13.0b/18.0a"},{"town":"古川小泉","koaza":"中又","lat":38.593681,"lng":140.942242,"version":"13.0b/18.0a"},{"town":"三本木","koaza":"善並田","lat":38.531966,"lng":140.94428,"version":"13.0b/18.0a"},{"town":"古川桜ノ目","koaza":"鹿島伝","lat":38.605889,"lng":140.944289,"version":"13.0b/18.0a"},{"town":"三本木","koaza":"新鹿嶋","lat":38.528608,"lng":140.943133,"version":"13.0b/18.0a"},{"town":"古川","koaza":"青塚","lat":38.582038,"lng":140.944805,"version":"13.0b/18.0a"},{"town":"古川","koaza":"大小","lat":38.591621,"lng":140.9429,"version":"13.0b/18.0a"},{"town":"古川小泉","koaza":"腰巡","lat":38.593479,"lng":140.943148,"version":"13.0b/18.0a"},{"town":"三本木","koaza":"天王沢","lat":38.523209,"lng":140.944596,"version":"13.0b/18.0a"},{"town":"三本木南谷地","koaza":"千刈田","lat":38.536407,"lng":140.944731,"version":"13.0b/18.0a"},{"town":"古川小泉","koaza":"上大小","lat":38.592405,"lng":140.944018,"version":"13.0b/18.0a"},{"town":"三本木","koaza":"北町","lat":38.528836,"lng":140.945294,"version":"13.0b/18.0a"},{"town":"古川稲葉","koaza":"一本橋","lat":38.57211,"lng":140.944378,"version":"13.0b/18.0a"},{"town":"古川小泉","koaza":"下沢目","lat":38.589307,"lng":140.945927,"version":"13.0b/18.0a"},{"town":"古川","koaza":"城西","lat":38.577723,"lng":140.945129,"version":"13.0b/18.0a"},{"town":"古川桜ノ目","koaza":"原","lat":38.602828,"lng":140.946083,"version":"13.0b/18.0a"},{"town":"古川桜ノ目","koaza":"新沢目","lat":38.600366,"lng":140.94681,"version":"13.0b/18.0a"},{"town":"古川桜ノ目","koaza":"沢目","lat":38.601867,"lng":140.9484,"version":"13.0b/18.0a"},{"town":"古川桜ノ目","koaza":"飯塚江","lat":38.60417,"lng":140.947042,"version":"13.0b/18.0a"},{"town":"古川稲葉","koaza":"中立江","lat":38.572004,"lng":140.946053,"version":"13.0b/18.0a"},{"town":"古川小泉","koaza":"泉","lat":38.588678,"lng":140.948277,"version":"13.0b/18.0a"},{"town":"古川","koaza":"五壇原","lat":38.5897,"lng":140.945606,"version":"13.0b/18.0a"},{"town":"古川稲葉","koaza":"鴻ノ巣","lat":38.556071,"lng":140.948684,"version":"13.0b/18.0a"},{"town":"古川桜ノ目","koaza":"高谷地","lat":38.598559,"lng":140.947017,"version":"13.0b/18.0a"},{"town":"古川桜ノ目","koaza":"新鹿島伝","lat":38.606435,"lng":140.946434,"version":"13.0b/18.0a"},{"town":"古川","koaza":"上古川沢目","lat":38.586489,"lng":140.946147,"version":"13.0b/18.0a"},{"town":"古川小泉","koaza":"下大小","lat":38.589982,"lng":140.947955,"version":"13.0b/18.0a"},{"town":"古川桜ノ目","koaza":"下り松","lat":38.605185,"lng":140.948222,"version":"13.0b/18.0a"},{"town":"三本木","koaza":"東浦","lat":38.531791,"lng":140.948034,"version":"13.0b/18.0a"},{"town":"古川稲葉","koaza":"浦田","lat":38.556315,"lng":140.947455,"version":"13.0b/18.0a"},{"town":"古川稲葉","koaza":"新堀","lat":38.553702,"lng":140.948959,"version":"13.0b/18.0a"},{"town":"三本木高柳","koaza":"腕挽","lat":38.542087,"lng":140.947925,"version":"13.0b/18.0a"},{"town":"古川","koaza":"上古川屋敷","lat":38.586087,"lng":140.946832,"version":"13.0b/18.0a"},{"town":"古川桜ノ目","koaza":"新小谷地","lat":38.60768,"lng":140.950302,"version":"13.0b/18.0a"},{"town":"三本木蒜袋","koaza":"畑合","lat":38.544029,"lng":140.947892,"version":"13.0b/18.0a"},{"town":"古川","koaza":"大奥防","lat":38.586815,"lng":140.94874,"version":"13.0b/18.0a"},{"town":"古川桜ノ目","koaza":"新下り松","lat":38.605324,"lng":140.949433,"version":"13.0b/18.0a"},{"town":"三本木","koaza":"町浦","lat":38.529032,"lng":140.94885,"version":"13.0b/18.0a"},{"town":"三本木","koaza":"寺橋","lat":38.529884,"lng":140.946923,"version":"13.0b/18.0a"},{"town":"三本木","koaza":"吉田","lat":38.535752,"lng":140.947946,"version":"13.0b/18.0a"},{"town":"古川米袋","koaza":"大上","lat":38.54707,"lng":140.948793,"version":"13.0b/18.0a"},{"town":"三本木","koaza":"西沢","lat":38.525157,"lng":140.948361,"version":"13.0b/18.0a"},{"town":"古川桜ノ目","koaza":"新下釜","lat":38.600447,"lng":140.950359,"version":"13.0b/18.0a"},{"town":"三本木","koaza":"大谷","lat":38.527781,"lng":140.948511,"version":"13.0b/18.0a"},{"town":"三本木蒜袋","koaza":"鷺沼","lat":38.540513,"lng":140.949976,"version":"13.0b/18.0a"},{"town":"古川米袋","koaza":"唐橋","lat":38.545521,"lng":140.950024,"version":"13.0b/18.0a"},{"town":"古川桜ノ目","koaza":"遠田江渕","lat":38.599869,"lng":140.953722,"version":"13.0b/18.0a"},{"town":"古川桜ノ目","koaza":"新高谷地","lat":38.597589,"lng":140.954078,"version":"13.0b/18.0a"},{"town":"三本木桑折","koaza":"相ノ沢","lat":38.525156,"lng":140.950329,"version":"13.0b/18.0a"},{"town":"三本木桑折","koaza":"沼下","lat":38.523123,"lng":140.953059,"version":"13.0b/18.0a"},{"town":"古川米袋","koaza":"明神","lat":38.549588,"lng":140.950819,"version":"13.0b/18.0a"},{"town":"古川桜ノ目","koaza":"下釜","lat":38.6031,"lng":140.950752,"version":"13.0b/18.0a"},{"town":"三本木蒜袋","koaza":"東谷地","lat":38.542048,"lng":140.952625,"version":"13.0b/18.0a"},{"town":"古川稲葉","koaza":"前田","lat":38.551715,"lng":140.950924,"version":"13.0b/18.0a"},{"town":"古川米袋","koaza":"大窪","lat":38.546357,"lng":140.950569,"version":"13.0b/18.0a"},{"town":"古川稲葉","koaza":"鴻ノ巣浦","lat":38.554544,"lng":140.950196,"version":"13.0b/18.0a"},{"town":"古川桜ノ目","koaza":"新又戸","lat":38.605779,"lng":140.951185,"version":"13.0b/18.0a"},{"town":"古川桜ノ目","koaza":"又戸","lat":38.606595,"lng":140.951535,"version":"13.0b/18.0a"},{"town":"三本木","koaza":"町東","lat":38.527267,"lng":140.956161,"version":"13.0b/18.0a"},{"town":"三本木蒜袋","koaza":"筒向","lat":38.5427,"lng":140.950954,"version":"13.0b/18.0a"},{"town":"古川稲葉","koaza":"前田東","lat":38.554219,"lng":140.951563,"version":"13.0b/18.0a"},{"town":"古川米袋","koaza":"水押","lat":38.545905,"lng":140.951753,"version":"13.0b/18.0a"},{"town":"古川福浦","koaza":"道ノ上","lat":38.591462,"lng":140.957273,"version":"13.0b/18.0a"},{"town":"古川桜ノ目","koaza":"新二ツ谷","lat":38.601264,"lng":140.957469,"version":"13.0b/18.0a"},{"town":"古川米袋","koaza":"水車","lat":38.549677,"lng":140.952516,"version":"13.0b/18.0a"},{"town":"古川米袋","koaza":"堤内","lat":38.546141,"lng":140.95308,"version":"13.0b/18.0a"},{"town":"古川桜ノ目","koaza":"二ツ谷","lat":38.601595,"lng":140.952559,"version":"13.0b/18.0a"},{"town":"古川米袋","koaza":"注意","lat":38.54879,"lng":140.95294,"version":"13.0b/18.0a"},{"town":"古川桜ノ目","koaza":"新七反町","lat":38.604728,"lng":140.957789,"version":"13.0b/18.0a"},{"town":"古川桜ノ目","koaza":"新札場","lat":38.606422,"lng":140.957733,"version":"13.0b/18.0a"},{"town":"古川稲葉","koaza":"土手内","lat":38.550328,"lng":140.953537,"version":"13.0b/18.0a"},{"town":"古川稲葉","koaza":"角田","lat":38.552656,"lng":140.953121,"version":"13.0b/18.0a"},{"town":"三本木蒜袋","koaza":"長堀","lat":38.542417,"lng":140.957181,"version":"13.0b/18.0a"},{"town":"古川米袋","koaza":"中江下","lat":38.546441,"lng":140.955793,"version":"13.0b/18.0a"},{"town":"古川境野宮","koaza":"横風","lat":38.55027,"lng":140.957271,"version":"13.0b/18.0a"},{"town":"古川福浦","koaza":"土手外沼上","lat":38.593802,"lng":140.956541,"version":"13.0b/18.0a"},{"town":"古川福浦","koaza":"高谷地","lat":38.596225,"lng":140.957007,"version":"13.0b/18.0a"},{"town":"古川福浦","koaza":"阿弥陀","lat":38.59349,"lng":140.956308,"version":"13.0b/18.0a"},{"town":"三本木桑折","koaza":"上屋敷","lat":38.523825,"lng":140.957675,"version":"13.0b/18.0a"},{"town":"古川師山","koaza":"百目木","lat":38.545059,"lng":140.961557,"version":"13.0b/18.0a"},{"town":"古川境野宮","koaza":"泥屋敷","lat":38.554436,"lng":140.958309,"version":"13.0b/18.0a"},{"town":"古川福浦","koaza":"土手内","lat":38.593085,"lng":140.958772,"version":"13.0b/18.0a"},{"town":"三本木桑折","koaza":"山下","lat":38.52233,"lng":140.95804,"version":"13.0b/18.0a"},{"town":"三本木","koaza":"南無縁所","lat":38.529464,"lng":140.957341,"version":"13.0b/18.0a"},{"town":"古川沢田","koaza":"上河原","lat":38.597082,"lng":140.961026,"version":"13.0b/18.0a"},{"town":"古川桜ノ目","koaza":"飯塚","lat":38.599642,"lng":140.959039,"version":"13.0b/18.0a"},{"town":"古川桜ノ目","koaza":"新飯塚","lat":38.600034,"lng":140.961183,"version":"13.0b/18.0a"},{"town":"古川境野宮","koaza":"高田","lat":38.548738,"lng":140.959757,"version":"13.0b/18.0a"},{"town":"古川境野宮","koaza":"前屋敷","lat":38.555466,"lng":140.960735,"version":"13.0b/18.0a"},{"town":"古川境野宮","koaza":"北屋敷","lat":38.556813,"lng":140.962391,"version":"13.0b/18.0a"},{"town":"古川師山","koaza":"高田","lat":38.547492,"lng":140.962019,"version":"13.0b/18.0a"},{"town":"古川境野宮","koaza":"新田","lat":38.556811,"lng":140.963636,"version":"13.0b/18.0a"},{"town":"古川福浦","koaza":"新土手外","lat":38.593198,"lng":140.962603,"version":"13.0b/18.0a"},{"town":"古川境野宮","koaza":"前田","lat":38.553251,"lng":140.960775,"version":"13.0b/18.0a"},{"town":"三本木桑折","koaza":"八幡西","lat":38.523469,"lng":140.959821,"version":"13.0b/18.0a"},{"town":"古川宮内","koaza":"西柳原","lat":38.550447,"lng":140.962292,"version":"13.0b/18.0a"},{"town":"古川師山","koaza":"北横風","lat":38.549444,"lng":140.962006,"version":"13.0b/18.0a"},{"town":"古川沢田","koaza":"新田","lat":38.604763,"lng":140.962538,"version":"13.0b/18.0a"},{"town":"古川沢田","koaza":"新志引","lat":38.600046,"lng":140.964438,"version":"13.0b/18.0a"},{"town":"古川福浦","koaza":"大谷地","lat":38.594016,"lng":140.963128,"version":"13.0b/18.0a"},{"town":"古川宮内","koaza":"西高畑","lat":38.553375,"lng":140.966253,"version":"13.0b/18.0a"},{"town":"古川沢田","koaza":"新原際","lat":38.598853,"lng":140.967736,"version":"13.0b/18.0a"},{"town":"古川沢田","koaza":"新田中","lat":38.60352,"lng":140.964447,"version":"13.0b/18.0a"},{"town":"古川宮内","koaza":"高畑","lat":38.555136,"lng":140.963789,"version":"13.0b/18.0a"},{"town":"古川沢田","koaza":"神守","lat":38.604015,"lng":140.966006,"version":"13.0b/18.0a"},{"town":"古川宮内","koaza":"上供輪堂","lat":38.556647,"lng":140.970757,"version":"13.0b/18.0a"},{"town":"古川大幡","koaza":"新田","lat":38.556238,"lng":140.964572,"version":"13.0b/18.0a"},{"town":"古川大幡","koaza":"道上","lat":38.557382,"lng":140.966572,"version":"13.0b/18.0a"},{"town":"古川大幡","koaza":"道下","lat":38.558982,"lng":140.966062,"version":"13.0b/18.0a"},{"town":"古川大幡","koaza":"原田","lat":38.558896,"lng":140.969472,"version":"13.0b/18.0a"},{"town":"古川宮内","koaza":"東柳原","lat":38.549047,"lng":140.969486,"version":"13.0b/18.0a"},{"town":"古川中里","koaza":"江添","lat":38.565191,"lng":140.968614,"version":"13.0b/18.0a"},{"town":"古川大幡","koaza":"月蔵","lat":38.562169,"lng":140.968294,"version":"13.0b/18.0a"},{"town":"古川沢田","koaza":"中河原","lat":38.596176,"lng":140.96764,"version":"13.0b/18.0a"},{"town":"古川大幡","koaza":"新道上","lat":38.555777,"lng":140.967791,"version":"13.0b/18.0a"},{"town":"古川師山","koaza":"北浦","lat":38.545843,"lng":140.97402,"version":"13.0b/18.0a"},{"town":"古川沢田","koaza":"北方","lat":38.604878,"lng":140.967293,"version":"13.0b/18.0a"},{"town":"古川沢田","koaza":"中門","lat":38.603425,"lng":140.968237,"version":"13.0b/18.0a"},{"town":"古川宮内","koaza":"東高畑","lat":38.551728,"lng":140.971361,"version":"13.0b/18.0a"},{"town":"古川沢田","koaza":"古舘前","lat":38.599495,"lng":140.969548,"version":"13.0b/18.0a"},{"town":"古川師山","koaza":"高崎","lat":38.541268,"lng":140.96982,"version":"13.0b/18.0a"},{"town":"古川大幡","koaza":"道下東","lat":38.557289,"lng":140.970426,"version":"13.0b/18.0a"},{"town":"古川師山","koaza":"薬師浦","lat":38.544162,"lng":140.97436,"version":"13.0b/18.0a"},{"town":"古川師山","koaza":"薬師","lat":38.541757,"lng":140.97301,"version":"13.0b/18.0a"},{"town":"古川沢田","koaza":"大手","lat":38.601167,"lng":140.968412,"version":"13.0b/18.0a"},{"town":"古川沢田","koaza":"新北方","lat":38.604423,"lng":140.969506,"version":"13.0b/18.0a"},{"town":"古川沢田","koaza":"沼ノ上","lat":38.595881,"lng":140.970229,"version":"13.0b/18.0a"},{"town":"古川沢田","koaza":"小村渕","lat":38.600887,"lng":140.970138,"version":"13.0b/18.0a"},{"town":"古川宮内","koaza":"筏畑","lat":38.554703,"lng":140.971533,"version":"13.0b/18.0a"},{"town":"古川蓑口沼","koaza":"分田","lat":38.564252,"lng":140.970819,"version":"13.0b/18.0a"},{"town":"古川沢田","koaza":"立海道","lat":38.603251,"lng":140.973786,"version":"13.0b/18.0a"},{"town":"古川沢田","koaza":"舞台","lat":38.601809,"lng":140.972851,"version":"13.0b/18.0a"},{"town":"古川沢田","koaza":"筒場浦","lat":38.599206,"lng":140.973545,"version":"13.0b/18.0a"},{"town":"古川沢田","koaza":"樋口","lat":38.604292,"lng":140.969591,"version":"13.0b/18.0a"},{"town":"古川沢田","koaza":"筒場","lat":38.596293,"lng":140.971313,"version":"13.0b/18.0a"},{"town":"古川沢田","koaza":"三ツ江","lat":38.595456,"lng":140.972736,"version":"13.0b/18.0a"},{"town":"古川沢田","koaza":"新平作","lat":38.605857,"lng":140.971522,"version":"13.0b/18.0a"},{"town":"古川沢田","koaza":"搦","lat":38.60186,"lng":140.970343,"version":"13.0b/18.0a"},{"town":"古川沢田","koaza":"下河原","lat":38.594359,"lng":140.971198,"version":"13.0b/18.0a"},{"town":"古川師山","koaza":"観音","lat":38.538958,"lng":140.97317,"version":"13.0b/18.0a"},{"town":"古川宮内","koaza":"下供輪堂","lat":38.551383,"lng":140.975343,"version":"13.0b/18.0a"},{"town":"古川楡木","koaza":"上谷地","lat":38.558872,"lng":140.97574,"version":"13.0b/18.0a"},{"town":"古川沢田","koaza":"上貝沼","lat":38.607183,"lng":140.973327,"version":"13.0b/18.0a"},{"town":"古川楡木","koaza":"新田","lat":38.551854,"lng":140.975486,"version":"13.0b/18.0a"},{"town":"古川休塚","koaza":"土手外","lat":38.592876,"lng":140.972895,"version":"13.0b/18.0a"},{"town":"古川楡木","koaza":"明神","lat":38.556958,"lng":140.972971,"version":"13.0b/18.0a"},{"town":"古川宮内","koaza":"松木畑","lat":38.55167,"lng":140.973712,"version":"13.0b/18.0a"},{"town":"古川楡木","koaza":"天神","lat":38.55575,"lng":140.972724,"version":"13.0b/18.0a"},{"town":"古川馬寄","koaza":"南田","lat":38.561418,"lng":140.976566,"version":"13.0b/18.0a"},{"town":"古川休塚","koaza":"三ツ江","lat":38.594134,"lng":140.974181,"version":"13.0b/18.0a"},{"town":"古川宮内","koaza":"赤沼","lat":38.546994,"lng":140.973539,"version":"13.0b/18.0a"},{"town":"古川荒谷","koaza":"新大江","lat":38.608408,"lng":140.975049,"version":"13.0b/18.0a"},{"town":"古川師山","koaza":"浦見","lat":38.539925,"lng":140.973322,"version":"13.0b/18.0a"},{"town":"古川楡木","koaza":"松任江","lat":38.559391,"lng":140.978287,"version":"13.0b/18.0a"},{"town":"古川沢田","koaza":"新貝沼","lat":38.6042,"lng":140.976023,"version":"13.0b/18.0a"},{"town":"古川休塚","koaza":"舞台","lat":38.598719,"lng":140.97378,"version":"13.0b/18.0a"},{"town":"古川師山","koaza":"沢目","lat":38.547605,"lng":140.975662,"version":"13.0b/18.0a"},{"town":"古川宮内","koaza":"沢目","lat":38.549113,"lng":140.975905,"version":"13.0b/18.0a"},{"town":"古川楡木","koaza":"岡江","lat":38.553667,"lng":140.979555,"version":"13.0b/18.0a"},{"town":"古川休塚","koaza":"南川原","lat":38.591341,"lng":140.975535,"version":"13.0b/18.0a"},{"town":"古川休塚","koaza":"中谷地","lat":38.592456,"lng":140.976961,"version":"13.0b/18.0a"},{"town":"古川荒谷","koaza":"樋ノ口","lat":38.615896,"lng":140.975512,"version":"13.0b/18.0a"},{"town":"古川師山","koaza":"丸山","lat":38.542344,"lng":140.975463,"version":"13.0b/18.0a"},{"town":"古川休塚","koaza":"南田","lat":38.594124,"lng":140.977295,"version":"13.0b/18.0a"},{"town":"古川楡木","koaza":"街道南","lat":38.551234,"lng":140.978314,"version":"13.0b/18.0a"},{"town":"古川渕尻","koaza":"江合","lat":38.590404,"lng":140.976602,"version":"13.0b/18.0a"},{"town":"古川楡木","koaza":"諏訪","lat":38.553583,"lng":140.976107,"version":"13.0b/18.0a"},{"town":"古川休塚","koaza":"要害前","lat":38.596591,"lng":140.976259,"version":"13.0b/18.0a"},{"town":"古川休塚","koaza":"寺西","lat":38.598454,"lng":140.975541,"version":"13.0b/18.0a"},{"town":"古川渕尻","koaza":"新田西","lat":38.589171,"lng":140.975883,"version":"13.0b/18.0a"},{"town":"古川師山","koaza":"久保前","lat":38.541121,"lng":140.977431,"version":"13.0b/18.0a"},{"town":"古川休塚","koaza":"要害西","lat":38.597396,"lng":140.975771,"version":"13.0b/18.0a"},{"town":"古川師山","koaza":"八幡","lat":38.544978,"lng":140.978891,"version":"13.0b/18.0a"},{"town":"古川馬寄","koaza":"河西","lat":38.561573,"lng":140.977645,"version":"13.0b/18.0a"},{"town":"古川荒谷","koaza":"新芋川","lat":38.604584,"lng":140.978511,"version":"13.0b/18.0a"},{"town":"古川休塚","koaza":"寺浦","lat":38.598295,"lng":140.976122,"version":"13.0b/18.0a"},{"town":"古川師山","koaza":"城山","lat":38.544767,"lng":140.978121,"version":"13.0b/18.0a"},{"town":"古川休塚","koaza":"後田","lat":38.599878,"lng":140.976977,"version":"13.0b/18.0a"},{"town":"古川師山","koaza":"柳町","lat":38.545465,"lng":140.981736,"version":"13.0b/18.0a"},{"town":"古川休塚","koaza":"新西田","lat":38.601432,"lng":140.977655,"version":"13.0b/18.0a"},{"town":"古川楡木","koaza":"前河原","lat":38.549507,"lng":140.981291,"version":"13.0b/18.0a"},{"town":"古川渕尻","koaza":"新田前","lat":38.587415,"lng":140.977871,"version":"13.0b/18.0a"},{"town":"古川休塚","koaza":"要害","lat":38.597799,"lng":140.977166,"version":"13.0b/18.0a"},{"town":"古川師山","koaza":"古川新田","lat":38.547337,"lng":140.979854,"version":"13.0b/18.0a"},{"town":"古川楡木","koaza":"中谷地","lat":38.555345,"lng":140.981089,"version":"13.0b/18.0a"},{"town":"古川休塚","koaza":"目見田","lat":38.598289,"lng":140.978906,"version":"13.0b/18.0a"},{"town":"古川渕尻","koaza":"新田","lat":38.591189,"lng":140.977647,"version":"13.0b/18.0a"},{"town":"古川休塚","koaza":"午房田","lat":38.595866,"lng":140.978283,"version":"13.0b/18.0a"},{"town":"古川休塚","koaza":"二ツ江","lat":38.595428,"lng":140.97907,"version":"13.0b/18.0a"},{"town":"古川休塚","koaza":"要害東","lat":38.59737,"lng":140.97805,"version":"13.0b/18.0a"},{"town":"古川渕尻","koaza":"宮田","lat":38.585036,"lng":140.978365,"version":"13.0b/18.0a"},{"town":"古川渕尻","koaza":"新不二","lat":38.586303,"lng":140.982188,"version":"13.0b/18.0a"},{"town":"古川休塚","koaza":"童子川","lat":38.600316,"lng":140.979694,"version":"13.0b/18.0a"},{"town":"古川楡木","koaza":"街道北","lat":38.552315,"lng":140.978993,"version":"13.0b/18.0a"},{"town":"古川師山","koaza":"城前","lat":38.543756,"lng":140.978549,"version":"13.0b/18.0a"},{"town":"古川休塚","koaza":"沢目","lat":38.597772,"lng":140.979513,"version":"13.0b/18.0a"},{"town":"古川荒谷","koaza":"新竹ノ花","lat":38.606823,"lng":140.981075,"version":"13.0b/18.0a"},{"town":"古川狐塚","koaza":"西田","lat":38.60257,"lng":140.98073,"version":"13.0b/18.0a"},{"town":"古川休塚","koaza":"下山","lat":38.594187,"lng":140.981239,"version":"13.0b/18.0a"},{"town":"古川休塚","koaza":"郷士田","lat":38.592474,"lng":140.982898,"version":"13.0b/18.0a"},{"town":"古川休塚","koaza":"熊ノ前","lat":38.596311,"lng":140.979694,"version":"13.0b/18.0a"},{"town":"古川楡木","koaza":"梅屋敷","lat":38.550954,"lng":140.983772,"version":"13.0b/18.0a"},{"town":"古川荒谷","koaza":"竹ノ花","lat":38.608106,"lng":140.980971,"version":"13.0b/18.0a"},{"town":"古川休塚","koaza":"熊野","lat":38.597057,"lng":140.980086,"version":"13.0b/18.0a"},{"town":"古川休塚","koaza":"東田","lat":38.599468,"lng":140.982069,"version":"13.0b/18.0a"},{"town":"古川楡木","koaza":"見渡","lat":38.549391,"lng":140.983679,"version":"13.0b/18.0a"},{"town":"古川師山","koaza":"寺東","lat":38.546446,"lng":140.982593,"version":"13.0b/18.0a"},{"town":"古川荒谷","koaza":"本町","lat":38.61365,"lng":140.980834,"version":"13.0b/18.0a"},{"town":"古川渕尻","koaza":"西田","lat":38.583078,"lng":140.982235,"version":"13.0b/18.0a"},{"town":"古川荒谷","koaza":"芋川","lat":38.605358,"lng":140.981125,"version":"13.0b/18.0a"},{"town":"古川休塚","koaza":"段ノ越","lat":38.597698,"lng":140.982119,"version":"13.0b/18.0a"},{"town":"古川休塚","koaza":"熊ノ越","lat":38.596553,"lng":140.981834,"version":"13.0b/18.0a"},{"town":"古川馬寄","koaza":"新見輪","lat":38.564517,"lng":140.982783,"version":"13.0b/18.0a"},{"town":"古川狐塚","koaza":"天神浦","lat":38.604423,"lng":140.981909,"version":"13.0b/18.0a"},{"town":"古川李埣","koaza":"東田","lat":38.56838,"lng":140.983842,"version":"13.0b/18.0a"},{"town":"古川馬寄","koaza":"見輪","lat":38.566978,"lng":140.981952,"version":"13.0b/18.0a"},{"town":"古川狐塚","koaza":"押堀","lat":38.601773,"lng":140.982599,"version":"13.0b/18.0a"},{"town":"古川荒谷","koaza":"新町東","lat":38.607411,"lng":140.982339,"version":"13.0b/18.0a"},{"town":"古川楡木","koaza":"殿裏","lat":38.552914,"lng":140.981862,"version":"13.0b/18.0a"},{"town":"古川狐塚","koaza":"稲荷","lat":38.60622,"lng":140.982594,"version":"13.0b/18.0a"},{"town":"古川鶴ケ埣","koaza":"北粟蒔","lat":38.578966,"lng":140.984071,"version":"13.0b/18.0a"},{"town":"古川李埣","koaza":"前田","lat":38.571921,"lng":140.984986,"version":"13.0b/18.0a"},{"town":"古川鶴ケ埣","koaza":"新粟蒔","lat":38.57678,"lng":140.984397,"version":"13.0b/18.0a"},{"town":"古川狐塚","koaza":"前田","lat":38.600968,"lng":140.983224,"version":"13.0b/18.0a"},{"town":"古川渕尻","koaza":"大見","lat":38.5817,"lng":140.984561,"version":"13.0b/18.0a"},{"town":"古川馬寄","koaza":"屋敷","lat":38.565098,"lng":140.983448,"version":"13.0b/18.0a"},{"town":"古川馬寄","koaza":"東田","lat":38.559626,"lng":140.985741,"version":"13.0b/18.0a"},{"town":"古川荒谷","koaza":"本町東","lat":38.615272,"lng":140.983139,"version":"13.0b/18.0a"},{"town":"古川李埣","koaza":"金山","lat":38.572938,"lng":140.98358,"version":"13.0b/18.0a"},{"town":"古川李埣","koaza":"土手下","lat":38.57395,"lng":140.984931,"version":"13.0b/18.0a"},{"town":"古川狐塚","koaza":"押堀浦","lat":38.602688,"lng":140.984228,"version":"13.0b/18.0a"},{"town":"古川李埣","koaza":"粟蒔","lat":38.574707,"lng":140.983738,"version":"13.0b/18.0a"},{"town":"古川馬寄","koaza":"高田","lat":38.561427,"lng":140.983261,"version":"13.0b/18.0a"},{"town":"古川休塚","koaza":"花ノ木","lat":38.595247,"lng":140.983319,"version":"13.0b/18.0a"},{"town":"古川馬寄","koaza":"新東田","lat":38.559354,"lng":140.985385,"version":"13.0b/18.0a"},{"town":"古川楡木","koaza":"臼筒","lat":38.553822,"lng":140.984325,"version":"13.0b/18.0a"},{"town":"古川休塚","koaza":"一丁下","lat":38.597175,"lng":140.986399,"version":"13.0b/18.0a"},{"town":"古川馬寄","koaza":"南屋敷","lat":38.560576,"lng":140.984346,"version":"13.0b/18.0a"},{"town":"古川狐塚","koaza":"沢目","lat":38.607438,"lng":140.985409,"version":"13.0b/18.0a"},{"town":"古川狐塚","koaza":"中田","lat":38.603954,"lng":140.985128,"version":"13.0b/18.0a"},{"town":"古川富長","koaza":"要害","lat":38.589241,"lng":140.984896,"version":"13.0b/18.0a"},{"town":"古川富長","koaza":"原嶋","lat":38.590752,"lng":140.985264,"version":"13.0b/18.0a"},{"town":"古川李埣","koaza":"道祖神","lat":38.570215,"lng":140.984299,"version":"13.0b/18.0a"},{"town":"古川馬寄","koaza":"明神","lat":38.562374,"lng":140.985831,"version":"13.0b/18.0a"},{"town":"古川富長","koaza":"新五右衛門","lat":38.594823,"lng":140.986577,"version":"13.0b/18.0a"},{"town":"古川富長","koaza":"五右エ門","lat":38.593589,"lng":140.987236,"version":"13.0b/18.0a"},{"town":"古川休塚","koaza":"中屋敷","lat":38.596094,"lng":140.985006,"version":"13.0b/18.0a"},{"town":"古川李埣","koaza":"山王","lat":38.569855,"lng":140.984284,"version":"13.0b/18.0a"},{"town":"古川馬寄","koaza":"江合","lat":38.555581,"lng":140.986362,"version":"13.0b/18.0a"},{"town":"古川休塚","koaza":"松ノ木浦","lat":38.598329,"lng":140.98613,"version":"13.0b/18.0a"},{"town":"古川富長","koaza":"山王","lat":38.593185,"lng":140.986383,"version":"13.0b/18.0a"},{"town":"古川馬寄","koaza":"南釜","lat":38.564015,"lng":140.984402,"version":"13.0b/18.0a"},{"town":"古川馬寄","koaza":"新釜","lat":38.565259,"lng":140.986548,"version":"13.0b/18.0a"},{"town":"古川師山","koaza":"台新田","lat":38.547869,"lng":140.98542,"version":"13.0b/18.0a"},{"town":"古川師山","koaza":"柴橋","lat":38.547361,"lng":140.985656,"version":"13.0b/18.0a"},{"town":"古川師山","koaza":"伊達ケ森","lat":38.542697,"lng":140.986261,"version":"13.0b/18.0a"},{"town":"古川休塚","koaza":"中屋敷浦","lat":38.596644,"lng":140.985095,"version":"13.0b/18.0a"},{"town":"古川師山","koaza":"庚申","lat":38.537761,"lng":140.985107,"version":"13.0b/18.0a"},{"town":"古川楡木","koaza":"見渡前","lat":38.549232,"lng":140.985161,"version":"13.0b/18.0a"},{"town":"古川富長","koaza":"松見","lat":38.589417,"lng":140.986909,"version":"13.0b/18.0a"},{"town":"古川師山","koaza":"丈競","lat":38.537464,"lng":140.98628,"version":"13.0b/18.0a"},{"town":"古川休塚","koaza":"中屋敷東","lat":38.595826,"lng":140.986495,"version":"13.0b/18.0a"},{"town":"古川鶴ケ埣","koaza":"南粟蒔","lat":38.574222,"lng":140.986139,"version":"13.0b/18.0a"},{"town":"古川鶴ケ埣","koaza":"小谷地","lat":38.57341,"lng":140.985947,"version":"13.0b/18.0a"},{"town":"古川鶴ケ埣","koaza":"北窪","lat":38.578842,"lng":140.98668,"version":"13.0b/18.0a"},{"town":"古川鶴ケ埣","koaza":"新江北","lat":38.570553,"lng":140.989743,"version":"13.0b/18.0a"},{"town":"古川上埣","koaza":"三丈堂","lat":38.581463,"lng":140.987469,"version":"13.0b/18.0a"},{"town":"古川富長","koaza":"佐貫田","lat":38.587776,"lng":140.986947,"version":"13.0b/18.0a"},{"town":"古川富長","koaza":"遠久根","lat":38.591474,"lng":140.987752,"version":"13.0b/18.0a"},{"town":"古川渕尻","koaza":"不二","lat":38.588168,"lng":140.986892,"version":"13.0b/18.0a"},{"town":"古川石森","koaza":"鶴巻西","lat":38.549055,"lng":140.993674,"version":"13.0b/18.0a"},{"town":"古川鶴ケ埣","koaza":"薬師堂","lat":38.57461,"lng":140.987924,"version":"13.0b/18.0a"},{"town":"古川鶴ケ埣","koaza":"南原","lat":38.573671,"lng":140.989354,"version":"13.0b/18.0a"},{"town":"古川渕尻","koaza":"東田","lat":38.582883,"lng":140.987799,"version":"13.0b/18.0a"},{"town":"古川鶴ケ埣","koaza":"新江南","lat":38.567376,"lng":140.99217,"version":"13.0b/18.0a"},{"town":"古川富長","koaza":"孫屋敷","lat":38.588322,"lng":140.987611,"version":"13.0b/18.0a"},{"town":"古川石森","koaza":"半在家西","lat":38.554926,"lng":140.990402,"version":"13.0b/18.0a"},{"town":"古川鶴ケ埣","koaza":"新江","lat":38.572676,"lng":140.987687,"version":"13.0b/18.0a"},{"town":"古川鶴ケ埣","koaza":"新北窪","lat":38.578239,"lng":140.989502,"version":"13.0b/18.0a"},{"town":"古川鶴ケ埣","koaza":"新薬師","lat":38.576152,"lng":140.990941,"version":"13.0b/18.0a"},{"town":"古川深沼","koaza":"大巻","lat":38.561397,"lng":140.989132,"version":"13.0b/18.0a"},{"town":"古川鶴ケ埣","koaza":"北原","lat":38.574321,"lng":140.990252,"version":"13.0b/18.0a"},{"town":"古川鶴ケ埣","koaza":"大面","lat":38.564864,"lng":140.992089,"version":"13.0b/18.0a"},{"town":"古川鶴ケ埣","koaza":"川戸沼","lat":38.563623,"lng":140.991,"version":"13.0b/18.0a"},{"town":"古川富長","koaza":"午房堀","lat":38.589345,"lng":140.988338,"version":"13.0b/18.0a"},{"town":"古川石森","koaza":"南西原","lat":38.547259,"lng":140.989947,"version":"13.0b/18.0a"},{"town":"古川上埣","koaza":"北海道","lat":38.582205,"lng":140.987951,"version":"13.0b/18.0a"},{"town":"古川富長","koaza":"馬頭観音","lat":38.593123,"lng":140.990813,"version":"13.0b/18.0a"},{"town":"古川深沼","koaza":"松ノ木","lat":38.559074,"lng":140.990832,"version":"13.0b/18.0a"},{"town":"古川休塚","koaza":"新田","lat":38.596383,"lng":140.989533,"version":"13.0b/18.0a"},{"town":"古川石森","koaza":"金沼","lat":38.554532,"lng":140.993296,"version":"13.0b/18.0a"},{"town":"古川石森","koaza":"北西原","lat":38.547135,"lng":140.991462,"version":"13.0b/18.0a"},{"town":"古川富長","koaza":"新北田","lat":38.594535,"lng":140.991583,"version":"13.0b/18.0a"},{"town":"古川富長","koaza":"川童堀","lat":38.591135,"lng":140.989867,"version":"13.0b/18.0a"},{"town":"古川鶴ケ埣","koaza":"儘下","lat":38.572489,"lng":140.98927,"version":"13.0b/18.0a"},{"town":"古川鶴ケ埣","koaza":"鶴田","lat":38.570089,"lng":140.993777,"version":"13.0b/18.0a"},{"town":"古川深沼","koaza":"甲新田","lat":38.556505,"lng":140.992264,"version":"13.0b/18.0a"},{"town":"古川鶴ケ埣","koaza":"新南原","lat":38.572423,"lng":140.994042,"version":"13.0b/18.0a"},{"town":"古川石森","koaza":"石神","lat":38.543827,"lng":140.993254,"version":"13.0b/18.0a"},{"town":"古川馬放","koaza":"針崎","lat":38.59637,"lng":140.990806,"version":"13.0b/18.0a"},{"town":"古川富長","koaza":"古山王","lat":38.592719,"lng":140.992413,"version":"13.0b/18.0a"},{"town":"古川石森","koaza":"西原","lat":38.546096,"lng":140.993057,"version":"13.0b/18.0a"},{"town":"古川深沼","koaza":"江戸田","lat":38.561609,"lng":140.993255,"version":"13.0b/18.0a"},{"town":"古川鶴ケ埣","koaza":"新北原","lat":38.57427,"lng":140.993799,"version":"13.0b/18.0a"},{"town":"古川富長","koaza":"北田","lat":38.593628,"lng":140.991787,"version":"13.0b/18.0a"},{"town":"古川深沼","koaza":"谷地際","lat":38.557416,"lng":140.994566,"version":"13.0b/18.0a"},{"town":"古川石森","koaza":"外谷地","lat":38.55367,"lng":140.993038,"version":"13.0b/18.0a"},{"town":"古川石森","koaza":"半在家東","lat":38.552136,"lng":140.996593,"version":"13.0b/18.0a"},{"town":"古川深沼","koaza":"上谷地","lat":38.563625,"lng":140.995097,"version":"13.0b/18.0a"},{"town":"古川石森","koaza":"宮在家","lat":38.545803,"lng":140.995974,"version":"13.0b/18.0a"},{"town":"古川富長","koaza":"新森子田","lat":38.59469,"lng":140.994038,"version":"13.0b/18.0a"},{"town":"古川石森","koaza":"鶴巻","lat":38.546806,"lng":140.994677,"version":"13.0b/18.0a"},{"town":"古川石森","koaza":"川北","lat":38.553367,"lng":140.997813,"version":"13.0b/18.0a"},{"town":"古川深沼","koaza":"甲","lat":38.556473,"lng":140.994562,"version":"13.0b/18.0a"},{"town":"古川深沼","koaza":"熊野堂","lat":38.559951,"lng":140.996306,"version":"13.0b/18.0a"},{"town":"古川下中目","koaza":"町浦","lat":38.54136,"lng":140.996373,"version":"13.0b/18.0a"},{"town":"古川下中目","koaza":"六軒丁","lat":38.539936,"lng":140.996235,"version":"13.0b/18.0a"},{"town":"古川石森","koaza":"天王山","lat":38.543377,"lng":140.994672,"version":"13.0b/18.0a"},{"town":"古川鶴ケ埣","koaza":"漆谷地","lat":38.573987,"lng":140.99666,"version":"13.0b/18.0a"},{"town":"古川石森","koaza":"諏訪","lat":38.542915,"lng":140.99483,"version":"13.0b/18.0a"},{"town":"古川石森","koaza":"横山","lat":38.550402,"lng":140.995113,"version":"13.0b/18.0a"},{"town":"古川富長","koaza":"森子田","lat":38.593612,"lng":140.994356,"version":"13.0b/18.0a"},{"town":"古川深沼","koaza":"大谷地","lat":38.560729,"lng":140.997008,"version":"13.0b/18.0a"},{"town":"古川深沼","koaza":"新堤下","lat":38.554485,"lng":141.000145,"version":"13.0b/18.0a"},{"town":"古川深沼","koaza":"上組","lat":38.556498,"lng":140.995883,"version":"13.0b/18.0a"},{"town":"古川石森","koaza":"宮崎","lat":38.543022,"lng":140.995952,"version":"13.0b/18.0a"},{"town":"古川石森","koaza":"本宮崎","lat":38.543664,"lng":140.996045,"version":"13.0b/18.0a"},{"town":"古川石森","koaza":"北森","lat":38.550599,"lng":140.999833,"version":"13.0b/18.0a"},{"town":"古川深沼","koaza":"堤下","lat":38.554981,"lng":141.000075,"version":"13.0b/18.0a"},{"town":"古川石森","koaza":"東田","lat":38.551131,"lng":141.000453,"version":"13.0b/18.0a"},{"town":"古川桑針","koaza":"元村","lat":38.556974,"lng":141.006831,"version":"13.0b/18.0a"},{"town":"鹿島台広長","koaza":"杢師前","lat":38.48919,"lng":141.084584,"version":"13.0b/18.0a"},{"town":"鹿島台広長","koaza":"坪下沢","lat":38.482715,"lng":141.085355,"version":"13.0b/18.0a"},{"town":"鹿島台広長","koaza":"鳥屋場","lat":38.484182,"lng":141.087226,"version":"13.0b/18.0a"},{"town":"鹿島台広長","koaza":"内ノ浦","lat":38.4612,"lng":141.089021,"version":"13.0b/18.0a"},{"town":"鹿島台広長","koaza":"鹿島","lat":38.478434,"lng":141.088919,"version":"13.0b/18.0a"},{"town":"鹿島台広長","koaza":"権七前","lat":38.479473,"lng":141.087488,"version":"13.0b/18.0a"},{"town":"鹿島台広長","koaza":"無清水","lat":38.489626,"lng":141.088928,"version":"13.0b/18.0a"},{"town":"鹿島台広長","koaza":"宮下畑","lat":38.478625,"lng":141.086934,"version":"13.0b/18.0a"},{"town":"鹿島台広長","koaza":"尻掛杉ケ崎","lat":38.468357,"lng":141.090238,"version":"13.0b/18.0a"},{"town":"鹿島台広長","koaza":"吹上三ツ壇","lat":38.472396,"lng":141.089382,"version":"13.0b/18.0a"},{"town":"鹿島台平渡","koaza":"上敷","lat":38.486642,"lng":141.093282,"version":"13.0b/18.0a"},{"town":"鹿島台広長","koaza":"琵琶原","lat":38.482248,"lng":141.089944,"version":"13.0b/18.0a"},{"town":"鹿島台平渡","koaza":"吹上","lat":38.473246,"lng":141.090942,"version":"13.0b/18.0a"},{"town":"鹿島台平渡","koaza":"長根","lat":38.481168,"lng":141.093935,"version":"13.0b/18.0a"},{"town":"鹿島台平渡","koaza":"大沢","lat":38.491322,"lng":141.094972,"version":"13.0b/18.0a"},{"town":"鹿島台平渡","koaza":"中里","lat":38.478928,"lng":141.09337,"version":"13.0b/18.0a"},{"town":"鹿島台平渡","koaza":"狸沢","lat":38.474228,"lng":141.093541,"version":"13.0b/18.0a"},{"town":"鹿島台平渡","koaza":"小沢","lat":38.483708,"lng":141.094203,"version":"13.0b/18.0a"},{"town":"鹿島台広長","koaza":"山沼","lat":38.49111,"lng":141.092729,"version":"13.0b/18.0a"},{"town":"鹿島台平渡","koaza":"杉ケ崎","lat":38.467925,"lng":141.093553,"version":"13.0b/18.0a"},{"town":"鹿島台平渡","koaza":"新屋敷","lat":38.482979,"lng":141.096705,"version":"13.0b/18.0a"},{"town":"鹿島台平渡","koaza":"銭神","lat":38.470196,"lng":141.095904,"version":"13.0b/18.0a"},{"town":"鹿島台平渡","koaza":"八助","lat":38.488193,"lng":141.094043,"version":"13.0b/18.0a"},{"town":"鹿島台平渡","koaza":"西銭神","lat":38.475528,"lng":141.094949,"version":"13.0b/18.0a"},{"town":"鹿島台木間塚","koaza":"銭神","lat":38.465407,"lng":141.094229,"version":"13.0b/18.0a"},{"town":"鹿島台木間塚","koaza":"上地","lat":38.462522,"lng":141.094801,"version":"13.0b/18.0a"},{"town":"鹿島台平渡","koaza":"鷹待嶽","lat":38.491051,"lng":141.095916,"version":"13.0b/18.0a"},{"town":"鹿島台平渡","koaza":"巳待田","lat":38.488276,"lng":141.094923,"version":"13.0b/18.0a"},{"town":"鹿島台平渡","koaza":"三嶽","lat":38.488833,"lng":141.096067,"version":"13.0b/18.0a"},{"town":"鹿島台平渡","koaza":"上戸","lat":38.478635,"lng":141.094946,"version":"13.0b/18.0a"},{"town":"鹿島台平渡","koaza":"西要害","lat":38.480196,"lng":141.095989,"version":"13.0b/18.0a"},{"town":"鹿島台平渡","koaza":"並柳","lat":38.471805,"lng":141.095582,"version":"13.0b/18.0a"},{"town":"鹿島台平渡","koaza":"西宮ノ沢","lat":38.480853,"lng":141.096365,"version":"13.0b/18.0a"},{"town":"鹿島台平渡","koaza":"西新屋敷前","lat":38.481538,"lng":141.09633,"version":"13.0b/18.0a"},{"town":"鹿島台平渡","koaza":"東銭神","lat":38.473535,"lng":141.096736,"version":"13.0b/18.0a"},{"town":"鹿島台平渡","koaza":"庄兵衛","lat":38.487653,"lng":141.098274,"version":"13.0b/18.0a"},{"town":"鹿島台木間塚","koaza":"刎龍","lat":38.462894,"lng":141.10037,"version":"13.0b/18.0a"},{"town":"鹿島台平渡","koaza":"佐野前","lat":38.475647,"lng":141.097506,"version":"13.0b/18.0a"},{"town":"鹿島台平渡","koaza":"上戸下","lat":38.477566,"lng":141.097381,"version":"13.0b/18.0a"},{"town":"鹿島台平渡","koaza":"新屋敷下","lat":38.477993,"lng":141.097805,"version":"13.0b/18.0a"},{"town":"鹿島台平渡","koaza":"東要害","lat":38.479951,"lng":141.098285,"version":"13.0b/18.0a"},{"town":"鹿島台木間塚","koaza":"築道","lat":38.47272,"lng":141.098757,"version":"13.0b/18.0a"},{"town":"鹿島台平渡","koaza":"字サンタウン","lat":38.479531,"lng":141.099553,"version":"13.0b/18.0a"},{"town":"鹿島台平渡","koaza":"長沢","lat":38.49094,"lng":141.101115,"version":"13.0b/18.0a"},{"town":"鹿島台平渡","koaza":"小敷田","lat":38.488323,"lng":141.101013,"version":"13.0b/18.0a"},{"town":"鹿島台木間塚","koaza":"福芦","lat":38.473351,"lng":141.101609,"version":"13.0b/18.0a"},{"town":"鹿島台木間塚","koaza":"長沢","lat":38.493648,"lng":141.102292,"version":"13.0b/18.0a"},{"town":"鹿島台木間塚","koaza":"姥ケ沢","lat":38.47949,"lng":141.102341,"version":"13.0b/18.0a"},{"town":"鹿島台木間塚","koaza":"小谷地","lat":38.477367,"lng":141.104285,"version":"13.0b/18.0a"},{"town":"鹿島台木間塚","koaza":"出町","lat":38.481837,"lng":141.106415,"version":"13.0b/18.0a"},{"town":"鹿島台木間塚","koaza":"念佛山","lat":38.487381,"lng":141.103492,"version":"13.0b/18.0a"},{"town":"鹿島台木間塚","koaza":"長町","lat":38.481753,"lng":141.102527,"version":"13.0b/18.0a"},{"town":"鹿島台木間塚","koaza":"長沢前","lat":38.494988,"lng":141.104764,"version":"13.0b/18.0a"},{"town":"鹿島台木間塚","koaza":"鴻ノ巣","lat":38.488263,"lng":141.10659,"version":"13.0b/18.0a"},{"town":"鹿島台木間塚","koaza":"石名坂","lat":38.489985,"lng":141.108103,"version":"13.0b/18.0a"},{"town":"鹿島台木間塚","koaza":"西沢","lat":38.484433,"lng":141.107858,"version":"13.0b/18.0a"},{"town":"鹿島台木間塚","koaza":"古館","lat":38.486133,"lng":141.110714,"version":"13.0b/18.0a"},{"town":"鹿島台木間塚","koaza":"新屋敷","lat":38.489707,"lng":141.11178,"version":"13.0b/18.0a"},{"town":"古川師山","koaza":"一宮","lat":38.544649,"lng":140.957399,"version":"13.0b/18.0a"},{"town":"鹿島台木間塚","koaza":"新西沢","lat":38.483769,"lng":141.110591,"version":"13.0b/18.0a"},{"town":"古川宮袋","koaza":"","lat":38.586634,"lng":140.949843,"version":"14.0b/19.0a"},{"town":"古川蓑口沼","koaza":"","lat":38.564835,"lng":140.969953,"version":"14.0b/19.0a"},{"town":"古川中里","koaza":"","lat":38.564601,"lng":140.969,"version":"14.0b/19.0a"},{"town":"古川川端","koaza":"","lat":38.574752,"lng":140.95789,"version":"14.0b/19.0a"},{"town":"古川駅前大通四丁目","koaza":"","lat":38.575447,"lng":140.965973,"version":"14.0b/19.0a"},{"town":"古川三日町一丁目","koaza":"","lat":38.574622,"lng":140.955783,"version":"14.0b/19.0a"},{"town":"古川駅前大通五丁目","koaza":"","lat":38.576994,"lng":140.966463,"version":"14.0b/19.0a"},{"town":"古川荒川小金町","koaza":"","lat":38.572926,"lng":140.958754,"version":"14.0b/19.0a"},{"town":"古川浦町","koaza":"","lat":38.57738,"lng":140.959153,"version":"14.0b/19.0a"},{"town":"古川駅前大通三丁目","koaza":"","lat":38.573836,"lng":140.966829,"version":"14.0b/19.0a"},{"town":"古川東町","koaza":"","lat":38.575878,"lng":140.963338,"version":"14.0b/19.0a"},{"town":"古川江合寿町二丁目","koaza":"","lat":38.587691,"lng":140.965228,"version":"14.0b/19.0a"},{"town":"古川駅前大通六丁目","koaza":"","lat":38.57902,"lng":140.967092,"version":"14.0b/19.0a"},{"town":"古川西館一丁目","koaza":"","lat":38.57462,"lng":140.953738,"version":"14.0b/19.0a"},{"town":"古川江合錦町三丁目","koaza":"","lat":38.584909,"lng":140.97123,"version":"14.0b/19.0a"},{"town":"古川旭六丁目","koaza":"","lat":38.566214,"lng":140.978826,"version":"14.0b/19.0a"},{"town":"古川駅南二丁目","koaza":"","lat":38.56773,"lng":140.968981,"version":"14.0b/19.0a"},{"town":"古川駅南一丁目","koaza":"","lat":38.569313,"lng":140.969521,"version":"14.0b/19.0a"},{"town":"古川十日町","koaza":"","lat":38.57564,"lng":140.960509,"version":"14.0b/19.0a"},{"town":"古川大宮五丁目","koaza":"","lat":38.582739,"lng":140.959676,"version":"14.0b/19.0a"},{"town":"古川駅前大通二丁目","koaza":"","lat":38.572777,"lng":140.966078,"version":"14.0b/19.0a"},{"town":"古川三日町二丁目","koaza":"","lat":38.573,"lng":140.955473,"version":"14.0b/19.0a"},{"town":"古川南町二丁目","koaza":"","lat":38.57065,"lng":140.956863,"version":"14.0b/19.0a"},{"town":"古川駅東四丁目","koaza":"","lat":38.57045,"lng":140.978644,"version":"14.0b/19.0a"},{"town":"古川幸町二丁目","koaza":"","lat":38.578898,"lng":140.969207,"version":"14.0b/19.0a"},{"town":"古川駅南三丁目","koaza":"","lat":38.566183,"lng":140.96865,"version":"14.0b/19.0a"},{"town":"古川江合寿町三丁目","koaza":"","lat":38.586649,"lng":140.967337,"version":"14.0b/19.0a"},{"town":"古川福浦二丁目","koaza":"","lat":38.590417,"lng":140.963488,"version":"14.0b/19.0a"},{"town":"古川城西二丁目","koaza":"","lat":38.578378,"lng":140.94734,"version":"14.0b/19.0a"},{"town":"古川台町","koaza":"","lat":38.574418,"lng":140.962926,"version":"14.0b/19.0a"},{"town":"古川北町二丁目","koaza":"","lat":38.579167,"lng":140.963575,"version":"14.0b/19.0a"},{"town":"古川南町一丁目","koaza":"","lat":38.571924,"lng":140.955932,"version":"14.0b/19.0a"},{"town":"古川江合錦町二丁目","koaza":"","lat":38.585899,"lng":140.969667,"version":"14.0b/19.0a"},{"town":"古川旭三丁目","koaza":"","lat":38.568635,"lng":140.975776,"version":"14.0b/19.0a"},{"town":"古川幸町一丁目","koaza":"","lat":38.575872,"lng":140.968348,"version":"14.0b/19.0a"},{"town":"古川若葉町一丁目","koaza":"","lat":38.588491,"lng":140.951293,"version":"14.0b/19.0a"},{"town":"古川江合錦町一丁目","koaza":"","lat":38.583191,"lng":140.96947,"version":"14.0b/19.0a"},{"town":"古川西館二丁目","koaza":"","lat":38.574147,"lng":140.951946,"version":"14.0b/19.0a"},{"town":"古川七日町","koaza":"","lat":38.576291,"lng":140.957063,"version":"14.0b/19.0a"},{"town":"古川大宮七丁目","koaza":"","lat":38.586838,"lng":140.958553,"version":"14.0b/19.0a"},{"town":"古川大宮四丁目","koaza":"","lat":38.584667,"lng":140.957871,"version":"14.0b/19.0a"},{"town":"古川旭五丁目","koaza":"","lat":38.567699,"lng":140.97816,"version":"14.0b/19.0a"},{"town":"古川稲葉二丁目","koaza":"","lat":38.556072,"lng":140.952012,"version":"14.0b/19.0a"},{"town":"古川李埣三丁目","koaza":"","lat":38.572918,"lng":140.980156,"version":"14.0b/19.0a"},{"town":"古川諏訪三丁目","koaza":"","lat":38.58434,"lng":140.95005,"version":"14.0b/19.0a"},{"town":"古川稲葉三丁目","koaza":"","lat":38.557088,"lng":140.954162,"version":"14.0b/19.0a"},{"town":"古川北町三丁目","koaza":"","lat":38.581342,"lng":140.964065,"version":"14.0b/19.0a"},{"town":"古川千手寺町二丁目","koaza":"","lat":38.579925,"lng":140.956839,"version":"14.0b/19.0a"},{"town":"古川北町一丁目","koaza":"","lat":38.577646,"lng":140.962734,"version":"14.0b/19.0a"},{"town":"古川千手寺町一丁目","koaza":"","lat":38.579778,"lng":140.954254,"version":"14.0b/19.0a"},{"town":"古川江合寿町一丁目","koaza":"","lat":38.585515,"lng":140.965187,"version":"14.0b/19.0a"},{"town":"古川南新町","koaza":"","lat":38.567576,"lng":140.957459,"version":"14.0b/19.0a"},{"town":"古川南町四丁目","koaza":"","lat":38.571027,"lng":140.950261,"version":"14.0b/19.0a"},{"town":"古川旭一丁目","koaza":"","lat":38.568996,"lng":140.972563,"version":"14.0b/19.0a"},{"town":"古川前田町","koaza":"","lat":38.579627,"lng":140.959885,"version":"14.0b/19.0a"},{"town":"古川李埣二丁目","koaza":"","lat":38.575183,"lng":140.97629,"version":"14.0b/19.0a"},{"town":"古川旭二丁目","koaza":"","lat":38.566129,"lng":140.972097,"version":"14.0b/19.0a"},{"town":"古川大宮一丁目","koaza":"","lat":38.582798,"lng":140.956647,"version":"14.0b/19.0a"},{"town":"古川駅前大通一丁目","koaza":"","lat":38.57171,"lng":140.965664,"version":"14.0b/19.0a"},{"town":"古川大宮二丁目","koaza":"","lat":38.584699,"lng":140.953125,"version":"14.0b/19.0a"},{"town":"古川駅東三丁目","koaza":"","lat":38.572903,"lng":140.976269,"version":"14.0b/19.0a"},{"town":"古川金五輪二丁目","koaza":"","lat":38.558107,"lng":140.960036,"version":"14.0b/19.0a"},{"town":"古川大宮八丁目","koaza":"","lat":38.588431,"lng":140.956544,"version":"14.0b/19.0a"},{"town":"古川穂波一丁目","koaza":"","lat":38.570959,"lng":140.944503,"version":"14.0b/19.0a"},{"town":"古川大宮六丁目","koaza":"","lat":38.585608,"lng":140.961467,"version":"14.0b/19.0a"},{"town":"古川江合本町一丁目","koaza":"","lat":38.588807,"lng":140.968175,"version":"14.0b/19.0a"},{"town":"古川大宮三丁目","koaza":"","lat":38.587039,"lng":140.953863,"version":"14.0b/19.0a"},{"town":"古川中里一丁目","koaza":"","lat":38.572865,"lng":140.961469,"version":"14.0b/19.0a"},{"town":"古川穂波八丁目","koaza":"","lat":38.570849,"lng":140.940056,"version":"14.0b/19.0a"},{"town":"古川諏訪一丁目","koaza":"","lat":38.580313,"lng":140.951486,"version":"14.0b/19.0a"},{"town":"古川城西一丁目","koaza":"","lat":38.576211,"lng":140.948184,"version":"14.0b/19.0a"},{"town":"古川穂波七丁目","koaza":"","lat":38.568034,"lng":140.940479,"version":"14.0b/19.0a"},{"town":"古川北稲葉二丁目","koaza":"","lat":38.561692,"lng":140.953783,"version":"14.0b/19.0a"},{"town":"古川若葉町二丁目","koaza":"","lat":38.590754,"lng":140.953963,"version":"14.0b/19.0a"},{"town":"古川稲葉一丁目","koaza":"","lat":38.558548,"lng":140.951244,"version":"14.0b/19.0a"},{"town":"古川中里二丁目","koaza":"","lat":38.569192,"lng":140.960658,"version":"14.0b/19.0a"},{"town":"古川北町四丁目","koaza":"","lat":38.582852,"lng":140.962713,"version":"14.0b/19.0a"},{"town":"古川北稲葉一丁目","koaza":"","lat":38.564533,"lng":140.953701,"version":"14.0b/19.0a"},{"town":"古川南町三丁目","koaza":"","lat":38.568215,"lng":140.954955,"version":"14.0b/19.0a"},{"town":"古川北町五丁目","koaza":"","lat":38.581876,"lng":140.967634,"version":"14.0b/19.0a"},{"town":"古川西館三丁目","koaza":"","lat":38.573207,"lng":140.94891,"version":"14.0b/19.0a"},{"town":"古川中里三丁目","koaza":"","lat":38.565354,"lng":140.961004,"version":"14.0b/19.0a"},{"town":"古川穂波五丁目","koaza":"","lat":38.561838,"lng":140.939808,"version":"14.0b/19.0a"},{"town":"古川小稲葉町","koaza":"","lat":38.568349,"lng":140.952173,"version":"14.0b/19.0a"},{"town":"古川二ノ構","koaza":"","lat":38.577311,"lng":140.952192,"version":"14.0b/19.0a"},{"town":"古川旭四丁目","koaza":"","lat":38.565058,"lng":140.974129,"version":"14.0b/19.0a"},{"town":"古川李埣一丁目","koaza":"","lat":38.577567,"lng":140.971402,"version":"14.0b/19.0a"},{"town":"古川中島町","koaza":"","lat":38.563366,"lng":140.957445,"version":"14.0b/19.0a"},{"town":"古川穂波二丁目","koaza":"","lat":38.568335,"lng":140.944978,"version":"14.0b/19.0a"},{"town":"古川金五輪一丁目","koaza":"","lat":38.560133,"lng":140.958423,"version":"14.0b/19.0a"},{"town":"三本木新町二丁目","koaza":"","lat":38.516083,"lng":140.933888,"version":"14.0b/19.0a"},{"town":"古川駅東一丁目","koaza":"","lat":38.571524,"lng":140.972008,"version":"14.0b/19.0a"},{"town":"古川栄町","koaza":"","lat":38.567838,"lng":140.949096,"version":"14.0b/19.0a"},{"town":"三本木新町一丁目","koaza":"","lat":38.519336,"lng":140.933092,"version":"14.0b/19.0a"},{"town":"古川駅東二丁目","koaza":"","lat":38.573626,"lng":140.971668,"version":"14.0b/19.0a"},{"town":"古川福浦一丁目","koaza":"","lat":38.588736,"lng":140.962045,"version":"14.0b/19.0a"},{"town":"古川穂波四丁目","koaza":"","lat":38.559428,"lng":140.942476,"version":"14.0b/19.0a"},{"town":"古川中里四丁目","koaza":"","lat":38.561118,"lng":140.96152,"version":"14.0b/19.0a"},{"town":"古川福浦三丁目","koaza":"","lat":38.592456,"lng":140.965956,"version":"14.0b/19.0a"},{"town":"古川稲葉四丁目","koaza":"","lat":38.554625,"lng":140.955955,"version":"14.0b/19.0a"},{"town":"古川福沼三丁目","koaza":"","lat":38.577869,"lng":140.975113,"version":"14.0b/19.0a"},{"town":"古川北稲葉三丁目","koaza":"","lat":38.562808,"lng":140.949933,"version":"14.0b/19.0a"},{"town":"古川穂波六丁目","koaza":"","lat":38.565199,"lng":140.940567,"version":"14.0b/19.0a"},{"town":"古川中里六丁目","koaza":"","lat":38.56856,"lng":140.964835,"version":"14.0b/19.0a"},{"town":"田尻北高城","koaza":"","lat":38.592487,"lng":141.044581,"version":"14.0b/19.0a"},{"town":"古川諏訪二丁目","koaza":"","lat":38.581656,"lng":140.94943,"version":"14.0b/19.0a"},{"town":"古川中里五丁目","koaza":"","lat":38.563473,"lng":140.963902,"version":"14.0b/19.0a"},{"town":"古川穂波三丁目","koaza":"","lat":38.563948,"lng":140.945767,"version":"14.0b/19.0a"},{"town":"古川福沼二丁目","koaza":"","lat":38.578765,"lng":140.979119,"version":"14.0b/19.0a"},{"town":"古川米倉","koaza":"","lat":38.56798,"lng":140.936954,"version":"14.0b/19.0a"},{"town":"田尻桜田高野","koaza":"","lat":38.592085,"lng":141.051775,"version":"14.0b/19.0a"},{"town":"古川稲葉","koaza":"","lat":38.554193,"lng":140.950212,"version":"14.0b/19.0a"},{"town":"古川福浦","koaza":"","lat":38.592944,"lng":140.958594,"version":"14.0b/19.0a"},{"town":"古川李埣","koaza":"","lat":38.571798,"lng":140.983874,"version":"14.0b/19.0a"},{"town":"古川上中目","koaza":"","lat":38.572428,"lng":140.901855,"version":"14.0b/19.0a"},{"town":"古川境野宮","koaza":"","lat":38.552634,"lng":140.959533,"version":"14.0b/19.0a"},{"town":"古川米袋","koaza":"","lat":38.547105,"lng":140.952598,"version":"14.0b/19.0a"},{"town":"田尻諏訪峠","koaza":"","lat":38.61718,"lng":140.995096,"version":"14.0b/19.0a"},{"town":"古川下谷地","koaza":"","lat":38.571916,"lng":141.009839,"version":"14.0b/19.0a"},{"town":"古川大幡","koaza":"","lat":38.560149,"lng":140.969705,"version":"14.0b/19.0a"},{"town":"古川耳取","koaza":"","lat":38.582127,"lng":140.879949,"version":"14.0b/19.0a"},{"town":"古川南沢","koaza":"","lat":38.598717,"lng":140.886091,"version":"14.0b/19.0a"},{"town":"古川新堀","koaza":"","lat":38.57781,"lng":140.892021,"version":"14.0b/19.0a"},{"town":"田尻沼木","koaza":"","lat":38.613618,"lng":140.992833,"version":"14.0b/19.0a"},{"town":"三本木南谷地","koaza":"","lat":38.532257,"lng":140.938364,"version":"14.0b/19.0a"},{"town":"古川斎下","koaza":"","lat":38.598727,"lng":140.892233,"version":"14.0b/19.0a"},{"town":"田尻北牧目","koaza":"","lat":38.595634,"lng":141.042153,"version":"14.0b/19.0a"},{"town":"古川馬櫛","koaza":"","lat":38.580078,"lng":141.010122,"version":"14.0b/19.0a"},{"town":"古川長岡","koaza":"","lat":38.618564,"lng":140.962185,"version":"14.0b/19.0a"},{"town":"三本木上伊場野","koaza":"","lat":38.532762,"lng":140.978661,"version":"14.0b/19.0a"},{"town":"古川宮内","koaza":"","lat":38.55167,"lng":140.968576,"version":"14.0b/19.0a"},{"town":"古川荒田目","koaza":"","lat":38.58495,"lng":140.903386,"version":"14.0b/19.0a"},{"town":"古川長岡針","koaza":"","lat":38.593892,"lng":141.005077,"version":"14.0b/19.0a"},{"town":"古川深沼","koaza":"","lat":38.56052,"lng":140.993518,"version":"14.0b/19.0a"},{"town":"古川狐塚","koaza":"","lat":38.606359,"lng":140.986921,"version":"14.0b/19.0a"},{"town":"三本木高柳","koaza":"","lat":38.545548,"lng":140.939845,"version":"14.0b/19.0a"},{"town":"古川渕尻","koaza":"","lat":38.58559,"lng":140.981296,"version":"14.0b/19.0a"},{"town":"古川新沼","koaza":"","lat":38.548303,"lng":140.924708,"version":"14.0b/19.0a"},