[{"town":"妙見坂四丁目","koaza":"","lat":34.76458,"lng":135.678169,"version":"13.0b/18.0a"},{"town":"私市山手二丁目","koaza":"","lat":34.770594,"lng":135.690456,"version":"13.0b/18.0a"},{"town":"妙見坂五丁目","koaza":"","lat":34.765021,"lng":135.677019,"version":"13.0b/18.0a"},{"town":"天野が原町三丁目","koaza":"","lat":34.779981,"lng":135.674935,"version":"13.0b/18.0a"},{"town":"妙見東五丁目","koaza":"","lat":34.756206,"lng":135.682119,"version":"13.0b/18.0a"},{"town":"星田山手二丁目","koaza":"","lat":34.757055,"lng":135.666983,"version":"13.0b/18.0a"},{"town":"青山一丁目","koaza":"","lat":34.787605,"lng":135.688115,"version":"13.0b/18.0a"},{"town":"私市山手五丁目","koaza":"","lat":34.766419,"lng":135.690093,"version":"13.0b/18.0a"},{"town":"藤が尾三丁目","koaza":"","lat":34.768199,"lng":135.676292,"version":"13.0b/18.0a"},{"town":"妙見東一丁目","koaza":"","lat":34.76102,"lng":135.679573,"version":"13.0b/18.0a"},{"town":"妙見坂二丁目","koaza":"","lat":34.767553,"lng":135.678477,"version":"13.0b/18.0a"},{"town":"妙見坂六丁目","koaza":"","lat":34.764901,"lng":135.67531,"version":"13.0b/18.0a"},{"town":"星田山手五丁目","koaza":"","lat":34.75448,"lng":135.666656,"version":"13.0b/18.0a"},{"town":"妙見坂三丁目","koaza":"","lat":34.766961,"lng":135.676426,"version":"13.0b/18.0a"},{"town":"私市山手一丁目","koaza":"","lat":34.770424,"lng":135.688752,"version":"13.0b/18.0a"},{"town":"星田山手一丁目","koaza":"","lat":34.758342,"lng":135.667374,"version":"13.0b/18.0a"},{"town":"私市山手三丁目","koaza":"","lat":34.768129,"lng":135.687492,"version":"13.0b/18.0a"},{"town":"私市七丁目","koaza":"","lat":34.767638,"lng":135.682146,"version":"13.0b/18.0a"},{"town":"藤が尾六丁目","koaza":"","lat":34.770447,"lng":135.672718,"version":"13.0b/18.0a"},{"town":"森北二丁目","koaza":"","lat":34.779014,"lng":135.687561,"version":"13.0b/18.0a"},{"town":"藤が尾四丁目","koaza":"","lat":34.770348,"lng":135.675386,"version":"13.0b/18.0a"},{"town":"私市山手四丁目","koaza":"","lat":34.767587,"lng":135.689882,"version":"13.0b/18.0a"},{"town":"星田山手四丁目","koaza":"","lat":34.754395,"lng":135.664815,"version":"13.0b/18.0a"},{"town":"妙見東二丁目","koaza":"","lat":34.759115,"lng":135.680595,"version":"13.0b/18.0a"},{"town":"星田山手三丁目","koaza":"","lat":34.756365,"lng":135.665273,"version":"13.0b/18.0a"},{"town":"藤が尾一丁目","koaza":"","lat":34.772093,"lng":135.676412,"version":"13.0b/18.0a"},{"town":"藤が尾五丁目","koaza":"","lat":34.768406,"lng":135.673508,"version":"13.0b/18.0a"},{"town":"妙見坂一丁目","koaza":"","lat":34.765729,"lng":135.679233,"version":"13.0b/18.0a"},{"town":"南星台二丁目","koaza":"","lat":34.758101,"lng":135.670974,"version":"13.0b/18.0a"},{"town":"寺南野","koaza":"","lat":34.781016,"lng":135.688697,"version":"13.0b/18.0a"},{"town":"私部西四丁目","koaza":"","lat":34.783587,"lng":135.67142,"version":"13.0b/18.0a"},{"town":"私部三丁目","koaza":"","lat":34.788124,"lng":135.677511,"version":"13.0b/18.0a"},{"town":"東倉治一丁目","koaza":"","lat":34.792661,"lng":135.698933,"version":"13.0b/18.0a"},{"town":"青山五丁目","koaza":"","lat":34.78726,"lng":135.693447,"version":"13.0b/18.0a"},{"town":"妙見東四丁目","koaza":"","lat":34.757261,"lng":135.683175,"version":"13.0b/18.0a"},{"town":"南星台四丁目","koaza":"","lat":34.755873,"lng":135.674433,"version":"13.0b/18.0a"},{"town":"東倉治五丁目","koaza":"","lat":34.797208,"lng":135.704872,"version":"13.0b/18.0a"},{"town":"幾野五丁目","koaza":"","lat":34.798561,"lng":135.680978,"version":"13.0b/18.0a"},{"town":"星田北九丁目","koaza":"","lat":34.774701,"lng":135.663298,"version":"13.0b/18.0a"},{"town":"私部八丁目","koaza":"","lat":34.790934,"lng":135.687215,"version":"13.0b/18.0a"},{"town":"南星台一丁目","koaza":"","lat":34.760537,"lng":135.671445,"version":"13.0b/18.0a"},{"town":"幾野三丁目","koaza":"","lat":34.796207,"lng":135.680613,"version":"13.0b/18.0a"},{"town":"森南二丁目","koaza":"","lat":34.775218,"lng":135.688351,"version":"13.0b/18.0a"},{"town":"私部南一丁目","koaza":"","lat":34.782236,"lng":135.679879,"version":"13.0b/18.0a"},{"town":"星田北三丁目","koaza":"","lat":34.771294,"lng":135.669642,"version":"13.0b/18.0a"},{"town":"倉治九丁目","koaza":"","lat":34.799152,"lng":135.686434,"version":"13.0b/18.0a"},{"town":"私市五丁目","koaza":"","lat":34.771812,"lng":135.679227,"version":"13.0b/18.0a"},{"town":"南星台五丁目","koaza":"","lat":34.755361,"lng":135.675872,"version":"13.0b/18.0a"},{"town":"妙見坂七丁目","koaza":"","lat":34.762706,"lng":135.676486,"version":"13.0b/18.0a"},{"town":"藤が尾二丁目","koaza":"","lat":34.770217,"lng":135.677917,"version":"13.0b/18.0a"},{"town":"妙見東三丁目","koaza":"","lat":34.758051,"lng":135.681313,"version":"13.0b/18.0a"},{"town":"寺四丁目","koaza":"","lat":34.784951,"lng":135.694924,"version":"13.0b/18.0a"},{"town":"天野が原町四丁目","koaza":"","lat":34.776238,"lng":135.676886,"version":"13.0b/18.0a"},{"town":"幾野一丁目","koaza":"","lat":34.792303,"lng":135.681482,"version":"13.0b/18.0a"},{"town":"南星台三丁目","koaza":"","lat":34.757619,"lng":135.672779,"version":"13.0b/18.0a"},{"town":"幾野四丁目","koaza":"","lat":34.796615,"lng":135.683268,"version":"13.0b/18.0a"},{"town":"星田西五丁目","koaza":"","lat":34.750626,"lng":135.660726,"version":"13.0b/18.0a"},{"town":"森南一丁目","koaza":"","lat":34.776123,"lng":135.686417,"version":"13.0b/18.0a"},{"town":"私市三丁目","koaza":"","lat":34.772951,"lng":135.682336,"version":"13.0b/18.0a"},{"town":"星田西三丁目","koaza":"","lat":34.754657,"lng":135.662736,"version":"13.0b/18.0a"},{"town":"幾野二丁目","koaza":"","lat":34.794167,"lng":135.68191,"version":"13.0b/18.0a"},{"town":"私部南三丁目","koaza":"","lat":34.781585,"lng":135.686006,"version":"13.0b/18.0a"},{"town":"星田西四丁目","koaza":"","lat":34.754503,"lng":135.659995,"version":"13.0b/18.0a"},{"town":"私部南四丁目","koaza":"","lat":34.780132,"lng":135.683113,"version":"13.0b/18.0a"},{"town":"倉治五丁目","koaza":"","lat":34.797557,"lng":135.687896,"version":"13.0b/18.0a"},{"town":"私部南二丁目","koaza":"","lat":34.78277,"lng":135.682014,"version":"13.0b/18.0a"},{"town":"私部七丁目","koaza":"","lat":34.789047,"lng":135.686506,"version":"13.0b/18.0a"},{"town":"星田六丁目","koaza":"","lat":34.762644,"lng":135.662235,"version":"13.0b/18.0a"},{"town":"私部西三丁目","koaza":"","lat":34.784092,"lng":135.673289,"version":"13.0b/18.0a"},{"town":"森南三丁目","koaza":"","lat":34.778494,"lng":135.689583,"version":"13.0b/18.0a"},{"town":"倉治四丁目","koaza":"","lat":34.796672,"lng":135.686087,"version":"13.0b/18.0a"},{"town":"寺一丁目","koaza":"","lat":34.782745,"lng":135.692696,"version":"13.0b/18.0a"},{"town":"青山三丁目","koaza":"","lat":34.790148,"lng":135.690997,"version":"13.0b/18.0a"},{"town":"郡津四丁目","koaza":"","lat":34.792494,"lng":135.672825,"version":"13.0b/18.0a"},{"town":"私部五丁目","koaza":"","lat":34.789639,"lng":135.682682,"version":"13.0b/18.0a"},{"town":"青山二丁目","koaza":"","lat":34.787339,"lng":135.690801,"version":"13.0b/18.0a"},{"town":"天野が原町一丁目","koaza":"","lat":34.780211,"lng":135.679435,"version":"13.0b/18.0a"},{"town":"私市二丁目","koaza":"","lat":34.774421,"lng":135.682702,"version":"13.0b/18.0a"},{"town":"私部西五丁目","koaza":"","lat":34.780997,"lng":135.672585,"version":"13.0b/18.0a"},{"town":"私部六丁目","koaza":"","lat":34.790749,"lng":135.681492,"version":"13.0b/18.0a"},{"town":"星田四丁目","koaza":"","lat":34.764336,"lng":135.664722,"version":"13.0b/18.0a"},{"town":"青山四丁目","koaza":"","lat":34.79046,"lng":135.694601,"version":"13.0b/18.0a"},{"town":"星田三丁目","koaza":"","lat":34.76552,"lng":135.669955,"version":"13.0b/18.0a"},{"town":"星田北八丁目","koaza":"","lat":34.773354,"lng":135.661354,"version":"13.0b/18.0a"},{"town":"森北一丁目","koaza":"","lat":34.778089,"lng":135.68461,"version":"13.0b/18.0a"},{"town":"星田二丁目","koaza":"","lat":34.765837,"lng":135.67307,"version":"13.0b/18.0a"},{"town":"私市八丁目","koaza":"","lat":34.765013,"lng":135.690588,"version":"13.0b/18.0a"},{"town":"私部西二丁目","koaza":"","lat":34.783811,"lng":135.675989,"version":"13.0b/18.0a"},{"town":"倉治三丁目","koaza":"","lat":34.793878,"lng":135.686069,"version":"13.0b/18.0a"},{"town":"星田北七丁目","koaza":"","lat":34.769773,"lng":135.663098,"version":"13.0b/18.0a"},{"town":"向井田一丁目","koaza":"","lat":34.784647,"lng":135.684601,"version":"13.0b/18.0a"},{"town":"私部西一丁目","koaza":"","lat":34.787304,"lng":135.673675,"version":"13.0b/18.0a"},{"town":"私市一丁目","koaza":"","lat":34.772531,"lng":135.688483,"version":"13.0b/18.0a"},{"town":"星田五丁目","koaza":"","lat":34.765855,"lng":135.663066,"version":"13.0b/18.0a"},{"town":"星田西二丁目","koaza":"","lat":34.758474,"lng":135.664466,"version":"13.0b/18.0a"},{"town":"向井田二丁目","koaza":"","lat":34.784397,"lng":135.688139,"version":"13.0b/18.0a"},{"town":"星田北一丁目","koaza":"","lat":34.776186,"lng":135.674324,"version":"13.0b/18.0a"},{"town":"倉治八丁目","koaza":"","lat":34.799241,"lng":135.693376,"version":"13.0b/18.0a"},{"town":"梅が枝","koaza":"","lat":34.789686,"lng":135.670918,"version":"13.0b/18.0a"},{"town":"神宮寺二丁目","koaza":"","lat":34.789679,"lng":135.699489,"version":"13.0b/18.0a"},{"town":"向井田三丁目","koaza":"","lat":34.783935,"lng":135.690799,"version":"13.0b/18.0a"},{"town":"天野が原町五丁目","koaza":"","lat":34.776318,"lng":135.680584,"version":"13.0b/18.0a"},{"town":"私部二丁目","koaza":"","lat":34.786078,"lng":135.67834,"version":"13.0b/18.0a"},{"town":"私部四丁目","koaza":"","lat":34.789799,"lng":135.675766,"version":"13.0b/18.0a"},{"town":"寺三丁目","koaza":"","lat":34.784614,"lng":135.697455,"version":"13.0b/18.0a"},{"town":"倉治七丁目","koaza":"","lat":34.797341,"lng":135.69602,"version":"13.0b/18.0a"},{"town":"寺二丁目","koaza":"","lat":34.780996,"lng":135.694165,"version":"13.0b/18.0a"},{"town":"私市四丁目","koaza":"","lat":34.771409,"lng":135.6835,"version":"13.0b/18.0a"},{"town":"天野が原町二丁目","koaza":"","lat":34.779276,"lng":135.677398,"version":"13.0b/18.0a"},{"town":"東倉治三丁目","koaza":"","lat":34.795138,"lng":135.702688,"version":"13.0b/18.0a"},{"town":"神宮寺一丁目","koaza":"","lat":34.789655,"lng":135.6972,"version":"13.0b/18.0a"},{"town":"倉治六丁目","koaza":"","lat":34.797102,"lng":135.692159,"version":"13.0b/18.0a"},{"town":"郡津三丁目","koaza":"","lat":34.796485,"lng":135.674358,"version":"13.0b/18.0a"},{"town":"星田一丁目","koaza":"","lat":34.768608,"lng":135.669653,"version":"13.0b/18.0a"},{"town":"倉治二丁目","koaza":"","lat":34.793084,"lng":135.688753,"version":"13.0b/18.0a"},{"town":"私市六丁目","koaza":"","lat":34.768699,"lng":135.68449,"version":"13.0b/18.0a"},{"town":"星田北四丁目","koaza":"","lat":34.775453,"lng":135.671008,"version":"13.0b/18.0a"},{"town":"星田七丁目","koaza":"","lat":34.760899,"lng":135.666851,"version":"13.0b/18.0a"},{"town":"東倉治四丁目","koaza":"","lat":34.798018,"lng":135.700427,"version":"13.0b/18.0a"},{"town":"星田北二丁目","koaza":"","lat":34.773135,"lng":135.674092,"version":"13.0b/18.0a"},{"town":"星田八丁目","koaza":"","lat":34.763,"lng":135.669436,"version":"13.0b/18.0a"},{"town":"倉治一丁目","koaza":"","lat":34.793363,"lng":135.69422,"version":"13.0b/18.0a"},{"town":"東倉治二丁目","koaza":"","lat":34.793777,"lng":135.699635,"version":"13.0b/18.0a"},{"town":"幾野六丁目","koaza":"","lat":34.800872,"lng":135.677283,"version":"13.0b/18.0a"},{"town":"郡津一丁目","koaza":"","lat":34.792821,"lng":135.676639,"version":"13.0b/18.0a"},{"town":"私部一丁目","koaza":"","lat":34.786475,"lng":135.682888,"version":"13.0b/18.0a"},{"town":"星田北五丁目","koaza":"","lat":34.775061,"lng":135.66733,"version":"13.0b/18.0a"},{"town":"星田北六丁目","koaza":"","lat":34.771754,"lng":135.6654,"version":"13.0b/18.0a"},{"town":"松塚","koaza":"","lat":34.793832,"lng":135.668093,"version":"13.0b/18.0a"},{"town":"郡津二丁目","koaza":"","lat":34.797806,"lng":135.677336,"version":"13.0b/18.0a"},{"town":"郡津五丁目","koaza":"","lat":34.796602,"lng":135.670336,"version":"13.0b/18.0a"},{"town":"星田西一丁目","koaza":"","lat":34.758949,"lng":135.660989,"version":"13.0b/18.0a"},{"town":"星田九丁目","koaza":"","lat":34.758238,"lng":135.677725,"version":"13.0b/18.0a"},{"town":"私市九丁目","koaza":"","lat":34.754523,"lng":135.689786,"version":"13.0b/18.0a"},{"town":"大字傍示","koaza":"","lat":34.774262,"lng":135.705121,"version":"13.0b/18.0a"},{"town":"大字森","koaza":"","lat":34.774751,"lng":135.694858,"version":"13.0b/18.0a"},{"town":"大字寺","koaza":"","lat":34.780826,"lng":135.699766,"version":"13.0b/18.0a"},{"town":"大字私部","koaza":"","lat":34.764948,"lng":135.704602,"version":"13.0b/18.0a"},{"town":"大字倉治","koaza":"","lat":34.790619,"lng":135.709849,"version":"13.0b/18.0a"},{"town":"大字星田","koaza":"","lat":34.750327,"lng":135.676331,"version":"13.0b/18.0a"},{"town":"大字私市","koaza":"","lat":34.758638,"lng":135.694318,"version":"13.0b/18.0a"},{"town":"妙見坂四丁目","koaza":"","lat":34.76458,"lng":135.678169,"version":"14.0b/19.0a"},{"town":"私市山手二丁目","koaza":"","lat":34.770594,"lng":135.690456,"version":"14.0b/19.0a"},{"town":"妙見坂五丁目","koaza":"","lat":34.765021,"lng":135.677019,"version":"14.0b/19.0a"},{"town":"天野が原町三丁目","koaza":"","lat":34.779981,"lng":135.674935,"version":"14.0b/19.0a"},{"town":"妙見東五丁目","koaza":"","lat":34.756206,"lng":135.682119,"version":"14.0b/19.0a"},{"town":"星田山手二丁目","koaza":"","lat":34.757055,"lng":135.666983,"version":"14.0b/19.0a"},{"town":"青山一丁目","koaza":"","lat":34.787605,"lng":135.688115,"version":"14.0b/19.0a"},{"town":"私市山手五丁目","koaza":"","lat":34.766419,"lng":135.690093,"version":"14.0b/19.0a"},{"town":"藤が尾三丁目","koaza":"","lat":34.768199,"lng":135.676292,"version":"14.0b/19.0a"},{"town":"妙見東一丁目","koaza":"","lat":34.76102,"lng":135.679573,"version":"14.0b/19.0a"},{"town":"妙見坂二丁目","koaza":"","lat":34.767553,"lng":135.678477,"version":"14.0b/19.0a"},{"town":"妙見坂六丁目","koaza":"","lat":34.764901,"lng":135.67531,"version":"14.0b/19.0a"},{"town":"星田山手五丁目","koaza":"","lat":34.75448,"lng":135.666656,"version":"14.0b/19.0a"},{"town":"妙見坂三丁目","koaza":"","lat":34.766961,"lng":135.676426,"version":"14.0b/19.0a"},{"town":"私市山手一丁目","koaza":"","lat":34.770424,"lng":135.688752,"version":"14.0b/19.0a"},{"town":"星田山手一丁目","koaza":"","lat":34.758342,"lng":135.667374,"version":"14.0b/19.0a"},{"town":"私市山手三丁目","koaza":"","lat":34.768129,"lng":135.687492,"version":"14.0b/19.0a"},{"town":"私市七丁目","koaza":"","lat":34.767638,"lng":135.682146,"version":"14.0b/19.0a"},{"town":"藤が尾六丁目","koaza":"","lat":34.770447,"lng":135.672718,"version":"14.0b/19.0a"},{"town":"森北二丁目","koaza":"","lat":34.779014,"lng":135.687561,"version":"14.0b/19.0a"},{"town":"藤が尾四丁目","koaza":"","lat":34.770348,"lng":135.675386,"version":"14.0b/19.0a"},{"town":"私市山手四丁目","koaza":"","lat":34.767587,"lng":135.689882,"version":"14.0b/19.0a"},{"town":"星田山手四丁目","koaza":"","lat":34.754395,"lng":135.664815,"version":"14.0b/19.0a"},{"town":"妙見東二丁目","koaza":"","lat":34.759115,"lng":135.680595,"version":"14.0b/19.0a"},{"town":"星田山手三丁目","koaza":"","lat":34.756365,"lng":135.665273,"version":"14.0b/19.0a"},{"town":"藤が尾一丁目","koaza":"","lat":34.772093,"lng":135.676412,"version":"14.0b/19.0a"},{"town":"藤が尾五丁目","koaza":"","lat":34.768406,"lng":135.673508,"version":"14.0b/19.0a"},{"town":"妙見坂一丁目","koaza":"","lat":34.765729,"lng":135.679233,"version":"14.0b/19.0a"},{"town":"南星台二丁目","koaza":"","lat":34.758101,"lng":135.670974,"version":"14.0b/19.0a"},{"town":"寺南野","koaza":"","lat":34.781016,"lng":135.688697,"version":"14.0b/19.0a"},{"town":"私部西四丁目","koaza":"","lat":34.783587,"lng":135.67142,"version":"14.0b/19.0a"},{"town":"私部三丁目","koaza":"","lat":34.788124,"lng":135.677511,"version":"14.0b/19.0a"},{"town":"東倉治一丁目","koaza":"","lat":34.792661,"lng":135.698933,"version":"14.0b/19.0a"},{"town":"青山五丁目","koaza":"","lat":34.78726,"lng":135.693447,"version":"14.0b/19.0a"},{"town":"妙見東四丁目","koaza":"","lat":34.757261,"lng":135.683175,"version":"14.0b/19.0a"},{"town":"南星台四丁目","koaza":"","lat":34.755873,"lng":135.674433,"version":"14.0b/19.0a"},{"town":"東倉治五丁目","koaza":"","lat":34.797208,"lng":135.704872,"version":"14.0b/19.0a"},{"town":"幾野五丁目","koaza":"","lat":34.798561,"lng":135.680978,"version":"14.0b/19.0a"},{"town":"星田北九丁目","koaza":"","lat":34.774701,"lng":135.663298,"version":"14.0b/19.0a"},{"town":"私部八丁目","koaza":"","lat":34.790934,"lng":135.687215,"version":"14.0b/19.0a"},{"town":"南星台一丁目","koaza":"","lat":34.760537,"lng":135.671445,"version":"14.0b/19.0a"},{"town":"幾野三丁目","koaza":"","lat":34.796207,"lng":135.680613,"version":"14.0b/19.0a"},{"town":"森南二丁目","koaza":"","lat":34.775218,"lng":135.688351,"version":"14.0b/19.0a"},{"town":"私部南一丁目","koaza":"","lat":34.782236,"lng":135.679879,"version":"14.0b/19.0a"},{"town":"星田北三丁目","koaza":"","lat":34.771294,"lng":135.669642,"version":"14.0b/19.0a"},{"town":"倉治九丁目","koaza":"","lat":34.799152,"lng":135.686434,"version":"14.0b/19.0a"},{"town":"私市五丁目","koaza":"","lat":34.771812,"lng":135.679227,"version":"14.0b/19.0a"},{"town":"南星台五丁目","koaza":"","lat":34.755361,"lng":135.675872,"version":"14.0b/19.0a"},{"town":"妙見坂七丁目","koaza":"","lat":34.762706,"lng":135.676486,"version":"14.0b/19.0a"},{"town":"藤が尾二丁目","koaza":"","lat":34.770217,"lng":135.677917,"version":"14.0b/19.0a"},{"town":"妙見東三丁目","koaza":"","lat":34.758051,"lng":135.681313,"version":"14.0b/19.0a"},{"town":"寺四丁目","koaza":"","lat":34.784951,"lng":135.694924,"version":"14.0b/19.0a"},{"town":"天野が原町四丁目","koaza":"","lat":34.776238,"lng":135.676886,"version":"14.0b/19.0a"},{"town":"幾野一丁目","koaza":"","lat":34.792303,"lng":135.681482,"version":"14.0b/19.0a"},{"town":"南星台三丁目","koaza":"","lat":34.757619,"lng":135.672779,"version":"14.0b/19.0a"},{"town":"幾野四丁目","koaza":"","lat":34.796615,"lng":135.683268,"version":"14.0b/19.0a"},{"town":"星田西五丁目","koaza":"","lat":34.750626,"lng":135.660726,"version":"14.0b/19.0a"},{"town":"森南一丁目","koaza":"","lat":34.776123,"lng":135.686417,"version":"14.0b/19.0a"},{"town":"私市三丁目","koaza":"","lat":34.772951,"lng":135.682336,"version":"14.0b/19.0a"},{"town":"星田西三丁目","koaza":"","lat":34.754657,"lng":135.662736,"version":"14.0b/19.0a"},{"town":"幾野二丁目","koaza":"","lat":34.794167,"lng":135.68191,"version":"14.0b/19.0a"},{"town":"私部南三丁目","koaza":"","lat":34.781585,"lng":135.686006,"version":"14.0b/19.0a"},{"town":"星田西四丁目","koaza":"","lat":34.754503,"lng":135.659995,"version":"14.0b/19.0a"},{"town":"私部南四丁目","koaza":"","lat":34.780132,"lng":135.683113,"version":"14.0b/19.0a"},{"town":"倉治五丁目","koaza":"","lat":34.797557,"lng":135.687896,"version":"14.0b/19.0a"},{"town":"私部南二丁目","koaza":"","lat":34.78277,"lng":135.682014,"version":"14.0b/19.0a"},{"town":"私部七丁目","koaza":"","lat":34.789047,"lng":135.686506,"version":"14.0b/19.0a"},{"town":"星田六丁目","koaza":"","lat":34.762644,"lng":135.662235,"version":"14.0b/19.0a"},{"town":"私部西三丁目","koaza":"","lat":34.784092,"lng":135.673289,"version":"14.0b/19.0a"},{"town":"森南三丁目","koaza":"","lat":34.778494,"lng":135.689583,"version":"14.0b/19.0a"},{"town":"倉治四丁目","koaza":"","lat":34.796672,"lng":135.686087,"version":"14.0b/19.0a"},{"town":"寺一丁目","koaza":"","lat":34.782745,"lng":135.692696,"version":"14.0b/19.0a"},{"town":"青山三丁目","koaza":"","lat":34.790148,"lng":135.690997,"version":"14.0b/19.0a"},{"town":"郡津四丁目","koaza":"","lat":34.792494,"lng":135.672825,"version":"14.0b/19.0a"},{"town":"私部五丁目","koaza":"","lat":34.789639,"lng":135.682682,"version":"14.0b/19.0a"},{"town":"青山二丁目","koaza":"","lat":34.787339,"lng":135.690801,"version":"14.0b/19.0a"},{"town":"天野が原町一丁目","koaza":"","lat":34.780211,"lng":135.679435,"version":"14.0b/19.0a"},{"town":"私市二丁目","koaza":"","lat":34.774421,"lng":135.682702,"version":"14.0b/19.0a"},{"town":"私部西五丁目","koaza":"","lat":34.780997,"lng":135.672585,"version":"14.0b/19.0a"},{"town":"私部六丁目","koaza":"","lat":34.790749,"lng":135.681492,"version":"14.0b/19.0a"},{"town":"星田四丁目","koaza":"","lat":34.764336,"lng":135.664722,"version":"14.0b/19.0a"},{"town":"青山四丁目","koaza":"","lat":34.79046,"lng":135.694601,"version":"14.0b/19.0a"},{"town":"星田三丁目","koaza":"","lat":34.76552,"lng":135.669955,"version":"14.0b/19.0a"},{"town":"星田北八丁目","koaza":"","lat":34.773354,"lng":135.661354,"version":"14.0b/19.0a"},{"town":"森北一丁目","koaza":"","lat":34.778089,"lng":135.68461,"version":"14.0b/19.0a"},{"town":"星田二丁目","koaza":"","lat":34.765837,"lng":135.67307,"version":"14.0b/19.0a"},{"town":"私市八丁目","koaza":"","lat":34.765013,"lng":135.690588,"version":"14.0b/19.0a"},{"town":"私部西二丁目","koaza":"","lat":34.783811,"lng":135.675989,"version":"14.0b/19.0a"},{"town":"倉治三丁目","koaza":"","lat":34.793878,"lng":135.686069,"version":"14.0b/19.0a"},{"town":"星田北七丁目","koaza":"","lat":34.769773,"lng":135.663098,"version":"14.0b/19.0a"},{"town":"向井田一丁目","koaza":"","lat":34.784647,"lng":135.684601,"version":"14.0b/19.0a"},{"town":"私部西一丁目","koaza":"","lat":34.787304,"lng":135.673675,"version":"14.0b/19.0a"},{"town":"私市一丁目","koaza":"","lat":34.772531,"lng":135.688483,"version":"14.0b/19.0a"},{"town":"星田五丁目","koaza":"","lat":34.765855,"lng":135.663066,"version":"14.0b/19.0a"},{"town":"星田西二丁目","koaza":"","lat":34.758474,"lng":135.664466,"version":"14.0b/19.0a"},{"town":"向井田二丁目","koaza":"","lat":34.784397,"lng":135.688139,"version":"14.0b/19.0a"},{"town":"星田北一丁目","koaza":"","lat":34.776186,"lng":135.674324,"version":"14.0b/19.0a"},{"town":"倉治八丁目","koaza":"","lat":34.799241,"lng":135.693376,"version":"14.0b/19.0a"},{"town":"梅が枝","koaza":"","lat":34.789686,"lng":135.670918,"version":"14.0b/19.0a"},{"town":"神宮寺二丁目","koaza":"","lat":34.789679,"lng":135.699489,"version":"14.0b/19.0a"},{"town":"向井田三丁目","koaza":"","lat":34.783935,"lng":135.690799,"version":"14.0b/19.0a"},{"town":"天野が原町五丁目","koaza":"","lat":34.776318,"lng":135.680584,"version":"14.0b/19.0a"},{"town":"私部二丁目","koaza":"","lat":34.786078,"lng":135.67834,"version":"14.0b/19.0a"},{"town":"私部四丁目","koaza":"","lat":34.789799,"lng":135.675766,"version":"14.0b/19.0a"},{"town":"寺三丁目","koaza":"","lat":34.784614,"lng":135.697455,"version":"14.0b/19.0a"},{"town":"倉治七丁目","koaza":"","lat":34.797341,"lng":135.69602,"version":"14.0b/19.0a"},{"town":"寺二丁目","koaza":"","lat":34.780996,"lng":135.694165,"version":"14.0b/19.0a"},{"town":"私市四丁目","koaza":"","lat":34.771409,"lng":135.6835,"version":"14.0b/19.0a"},{"town":"天野が原町二丁目","koaza":"","lat":34.779276,"lng":135.677398,"version":"14.0b/19.0a"},{"town":"東倉治三丁目","koaza":"","lat":34.795138,"lng":135.702688,"version":"14.0b/19.0a"},{"town":"神宮寺一丁目","koaza":"","lat":34.789655,"lng":135.6972,"version":"14.0b/19.0a"},{"town":"倉治六丁目","koaza":"","lat":34.797102,"lng":135.692159,"version":"14.0b/19.0a"},{"town":"郡津三丁目","koaza":"","lat":34.796485,"lng":135.674358,"version":"14.0b/19.0a"},{"town":"星田一丁目","koaza":"","lat":34.768608,"lng":135.669653,"version":"14.0b/19.0a"},{"town":"倉治二丁目","koaza":"","lat":34.793084,"lng":135.688753,"version":"14.0b/19.0a"},{"town":"私市六丁目","koaza":"","lat":34.768699,"lng":135.68449,"version":"14.0b/19.0a"},{"town":"星田北四丁目","koaza":"","lat":34.775453,"lng":135.671008,"version":"14.0b/19.0a"},{"town":"星田七丁目","koaza":"","lat":34.760899,"lng":135.666851,"version":"14.0b/19.0a"},{"town":"東倉治四丁目","koaza":"","lat":34.798018,"lng":135.700427,"version":"14.0b/19.0a"},{"town":"星田北二丁目","koaza":"","lat":34.773135,"lng":135.674092,"version":"14.0b/19.0a"},{"town":"星田八丁目","koaza":"","lat":34.763,"lng":135.669436,"version":"14.0b/19.0a"},{"town":"倉治一丁目","koaza":"","lat":34.793363,"lng":135.69422,"version":"14.0b/19.0a"},{"town":"東倉治二丁目","koaza":"","lat":34.793777,"lng":135.699635,"version":"14.0b/19.0a"},{"town":"幾野六丁目","koaza":"","lat":34.800872,"lng":135.677283,"version":"14.0b/19.0a"},{"town":"郡津一丁目","koaza":"","lat":34.792821,"lng":135.676639,"version":"14.0b/19.0a"},{"town":"私部一丁目","koaza":"","lat":34.786475,"lng":135.682888,"version":"14.0b/19.0a"},{"town":"星田北五丁目","koaza":"","lat":34.775061,"lng":135.66733,"version":"14.0b/19.0a"},{"town":"星田北六丁目","koaza":"","lat":34.771754,"lng":135.6654,"version":"14.0b/19.0a"},{"town":"松塚","koaza":"","lat":34.793832,"lng":135.668093,"version":"14.0b/19.0a"},{"town":"郡津二丁目","koaza":"","lat":34.797806,"lng":135.677336,"version":"14.0b/19.0a"},{"town":"郡津五丁目","koaza":"","lat":34.796602,"lng":135.670336,"version":"14.0b/19.0a"},{"town":"星田西一丁目","koaza":"","lat":34.758949,"lng":135.660989,"version":"14.0b/19.0a"},{"town":"星田九丁目","koaza":"","lat":34.758238,"lng":135.677725,"version":"14.0b/19.0a"},{"town":"私市九丁目","koaza":"","lat":34.754523,"lng":135.689786,"version":"14.0b/19.0a"},{"town":"大字傍示","koaza":"","lat":34.774262,"lng":135.705121,"version":"14.0b/19.0a"},{"town":"大字森","koaza":"","lat":34.774751,"lng":135.694858,"version":"14.0b/19.0a"},{"town":"大字寺","koaza":"","lat":34.780826,"lng":135.699766,"version":"14.0b/19.0a"},{"town":"大字私部","koaza":"","lat":34.764948,"lng":135.704602,"version":"14.0b/19.0a"},{"town":"大字倉治","koaza":"","lat":34.790619,"lng":135.709849,"version":"14.0b/19.0a"},{"town":"大字星田","koaza":"","lat":34.750327,"lng":135.676331,"version":"14.0b/19.0a"},{"town":"大字私市","koaza":"","lat":34.758638,"lng":135.694318,"version":"14.0b/19.0a"}]