[{"town":"浜五丁目","koaza":"","lat":34.71437,"lng":135.582075,"version":"13.0b/18.0a"},{"town":"今津中四丁目","koaza":"","lat":34.691927,"lng":135.57757,"version":"13.0b/18.0a"},{"town":"今津南三丁目","koaza":"","lat":34.689382,"lng":135.574355,"version":"13.0b/18.0a"},{"town":"徳庵二丁目","koaza":"","lat":34.698531,"lng":135.583109,"version":"13.0b/18.0a"},{"town":"徳庵一丁目","koaza":"","lat":34.698873,"lng":135.581669,"version":"13.0b/18.0a"},{"town":"緑四丁目","koaza":"","lat":34.716229,"lng":135.5645,"version":"13.0b/18.0a"},{"town":"今津中五丁目","koaza":"","lat":34.691988,"lng":135.579644,"version":"13.0b/18.0a"},{"town":"安田四丁目","koaza":"","lat":34.707441,"lng":135.589667,"version":"13.0b/18.0a"},{"town":"中茶屋二丁目","koaza":"","lat":34.701048,"lng":135.588365,"version":"13.0b/18.0a"},{"town":"今津南四丁目","koaza":"","lat":34.689584,"lng":135.577754,"version":"13.0b/18.0a"},{"town":"今津北五丁目","koaza":"","lat":34.694772,"lng":135.581152,"version":"13.0b/18.0a"},{"town":"今津南二丁目","koaza":"","lat":34.689086,"lng":135.57112,"version":"13.0b/18.0a"},{"town":"諸口五丁目","koaza":"","lat":34.70344,"lng":135.583694,"version":"13.0b/18.0a"},{"town":"諸口三丁目","koaza":"","lat":34.702786,"lng":135.576516,"version":"13.0b/18.0a"},{"town":"浜二丁目","koaza":"","lat":34.708396,"lng":135.582358,"version":"13.0b/18.0a"},{"town":"安田三丁目","koaza":"","lat":34.707502,"lng":135.587754,"version":"13.0b/18.0a"},{"town":"今津中一丁目","koaza":"","lat":34.691812,"lng":135.567809,"version":"13.0b/18.0a"},{"town":"今津中三丁目","koaza":"","lat":34.691922,"lng":135.574874,"version":"13.0b/18.0a"},{"town":"今津南一丁目","koaza":"","lat":34.689036,"lng":135.567842,"version":"13.0b/18.0a"},{"town":"今津北二丁目","koaza":"","lat":34.694962,"lng":135.571283,"version":"13.0b/18.0a"},{"town":"緑二丁目","koaza":"","lat":34.709732,"lng":135.56543,"version":"13.0b/18.0a"},{"town":"鶴見六丁目","koaza":"","lat":34.708114,"lng":135.564177,"version":"13.0b/18.0a"},{"town":"今津北一丁目","koaza":"","lat":34.694813,"lng":135.567775,"version":"13.0b/18.0a"},{"town":"浜四丁目","koaza":"","lat":34.711945,"lng":135.584157,"version":"13.0b/18.0a"},{"town":"諸口四丁目","koaza":"","lat":34.703173,"lng":135.580303,"version":"13.0b/18.0a"},{"town":"今津中二丁目","koaza":"","lat":34.692109,"lng":135.571325,"version":"13.0b/18.0a"},{"town":"焼野三丁目","koaza":"","lat":34.72086,"lng":135.584982,"version":"13.0b/18.0a"},{"town":"今津北四丁目","koaza":"","lat":34.695036,"lng":135.578361,"version":"13.0b/18.0a"},{"town":"今津北三丁目","koaza":"","lat":34.694931,"lng":135.574835,"version":"13.0b/18.0a"},{"town":"茨田大宮三丁目","koaza":"","lat":34.708459,"lng":135.595445,"version":"13.0b/18.0a"},{"town":"焼野一丁目","koaza":"","lat":34.715405,"lng":135.583828,"version":"13.0b/18.0a"},{"town":"安田一丁目","koaza":"","lat":34.70369,"lng":135.587402,"version":"13.0b/18.0a"},{"town":"横堤三丁目","koaza":"","lat":34.700911,"lng":135.573488,"version":"13.0b/18.0a"},{"town":"中茶屋一丁目","koaza":"","lat":34.700754,"lng":135.584971,"version":"13.0b/18.0a"},{"town":"諸口二丁目","koaza":"","lat":34.699876,"lng":135.580168,"version":"13.0b/18.0a"},{"town":"鶴見三丁目","koaza":"","lat":34.701426,"lng":135.563207,"version":"13.0b/18.0a"},{"town":"浜一丁目","koaza":"","lat":34.706602,"lng":135.580401,"version":"13.0b/18.0a"},{"town":"鶴見五丁目","koaza":"","lat":34.706852,"lng":135.564114,"version":"13.0b/18.0a"},{"town":"鶴見二丁目","koaza":"","lat":34.699558,"lng":135.563432,"version":"13.0b/18.0a"},{"town":"焼野二丁目","koaza":"","lat":34.716589,"lng":135.586454,"version":"13.0b/18.0a"},{"town":"放出東二丁目","koaza":"","lat":34.691586,"lng":135.562656,"version":"13.0b/18.0a"},{"town":"緑一丁目","koaza":"","lat":34.711977,"lng":135.561553,"version":"13.0b/18.0a"},{"town":"横堤五丁目","koaza":"","lat":34.706363,"lng":135.573067,"version":"13.0b/18.0a"},{"town":"安田二丁目","koaza":"","lat":34.703958,"lng":135.591977,"version":"13.0b/18.0a"},{"town":"横堤一丁目","koaza":"","lat":34.70064,"lng":135.568606,"version":"13.0b/18.0a"},{"town":"茨田大宮四丁目","koaza":"","lat":34.71228,"lng":135.596639,"version":"13.0b/18.0a"},{"town":"浜三丁目","koaza":"","lat":34.707936,"lng":135.584858,"version":"13.0b/18.0a"},{"town":"茨田大宮一丁目","koaza":"","lat":34.710879,"lng":135.589496,"version":"13.0b/18.0a"},{"town":"茨田大宮二丁目","koaza":"","lat":34.71062,"lng":135.592895,"version":"13.0b/18.0a"},{"town":"諸口一丁目","koaza":"","lat":34.699124,"lng":135.576614,"version":"13.0b/18.0a"},{"town":"放出東一丁目","koaza":"","lat":34.694468,"lng":135.562719,"version":"13.0b/18.0a"},{"town":"諸口六丁目","koaza":"","lat":34.706398,"lng":135.57672,"version":"13.0b/18.0a"},{"town":"横堤二丁目","koaza":"","lat":34.699902,"lng":135.571188,"version":"13.0b/18.0a"},{"town":"鶴見一丁目","koaza":"","lat":34.697479,"lng":135.56427,"version":"13.0b/18.0a"},{"town":"放出東三丁目","koaza":"","lat":34.689199,"lng":135.562517,"version":"13.0b/18.0a"},{"town":"横堤四丁目","koaza":"","lat":34.706857,"lng":135.569918,"version":"13.0b/18.0a"},{"town":"鶴見四丁目","koaza":"","lat":34.704078,"lng":135.563898,"version":"13.0b/18.0a"},{"town":"緑三丁目","koaza":"","lat":34.714087,"lng":135.566023,"version":"13.0b/18.0a"},{"town":"緑地公園","koaza":"","lat":34.713146,"lng":135.579597,"version":"13.0b/18.0a"},{"town":"浜五丁目","koaza":"","lat":34.71437,"lng":135.582075,"version":"14.0b/19.0a"},{"town":"今津中四丁目","koaza":"","lat":34.691927,"lng":135.57757,"version":"14.0b/19.0a"},{"town":"今津南三丁目","koaza":"","lat":34.689382,"lng":135.574355,"version":"14.0b/19.0a"},{"town":"徳庵二丁目","koaza":"","lat":34.698531,"lng":135.583109,"version":"14.0b/19.0a"},{"town":"徳庵一丁目","koaza":"","lat":34.698873,"lng":135.581669,"version":"14.0b/19.0a"},{"town":"緑四丁目","koaza":"","lat":34.716229,"lng":135.5645,"version":"14.0b/19.0a"},{"town":"今津中五丁目","koaza":"","lat":34.691988,"lng":135.579644,"version":"14.0b/19.0a"},{"town":"安田四丁目","koaza":"","lat":34.707441,"lng":135.589667,"version":"14.0b/19.0a"},{"town":"中茶屋二丁目","koaza":"","lat":34.701048,"lng":135.588365,"version":"14.0b/19.0a"},{"town":"今津南四丁目","koaza":"","lat":34.689584,"lng":135.577754,"version":"14.0b/19.0a"},{"town":"今津北五丁目","koaza":"","lat":34.694772,"lng":135.581152,"version":"14.0b/19.0a"},{"town":"今津南二丁目","koaza":"","lat":34.689086,"lng":135.57112,"version":"14.0b/19.0a"},{"town":"諸口五丁目","koaza":"","lat":34.70344,"lng":135.583694,"version":"14.0b/19.0a"},{"town":"諸口三丁目","koaza":"","lat":34.702786,"lng":135.576516,"version":"14.0b/19.0a"},{"town":"浜二丁目","koaza":"","lat":34.708396,"lng":135.582358,"version":"14.0b/19.0a"},{"town":"安田三丁目","koaza":"","lat":34.707502,"lng":135.587754,"version":"14.0b/19.0a"},{"town":"今津中一丁目","koaza":"","lat":34.691812,"lng":135.567809,"version":"14.0b/19.0a"},{"town":"今津中三丁目","koaza":"","lat":34.691922,"lng":135.574874,"version":"14.0b/19.0a"},{"town":"今津南一丁目","koaza":"","lat":34.689036,"lng":135.567842,"version":"14.0b/19.0a"},{"town":"今津北二丁目","koaza":"","lat":34.694962,"lng":135.571283,"version":"14.0b/19.0a"},{"town":"緑二丁目","koaza":"","lat":34.709732,"lng":135.56543,"version":"14.0b/19.0a"},{"town":"鶴見六丁目","koaza":"","lat":34.708114,"lng":135.564177,"version":"14.0b/19.0a"},{"town":"今津北一丁目","koaza":"","lat":34.694813,"lng":135.567775,"version":"14.0b/19.0a"},{"town":"浜四丁目","koaza":"","lat":34.711945,"lng":135.584157,"version":"14.0b/19.0a"},{"town":"諸口四丁目","koaza":"","lat":34.703173,"lng":135.580303,"version":"14.0b/19.0a"},{"town":"今津中二丁目","koaza":"","lat":34.692109,"lng":135.571325,"version":"14.0b/19.0a"},{"town":"焼野三丁目","koaza":"","lat":34.72086,"lng":135.584982,"version":"14.0b/19.0a"},{"town":"今津北四丁目","koaza":"","lat":34.695036,"lng":135.578361,"version":"14.0b/19.0a"},{"town":"今津北三丁目","koaza":"","lat":34.694931,"lng":135.574835,"version":"14.0b/19.0a"},{"town":"茨田大宮三丁目","koaza":"","lat":34.708459,"lng":135.595445,"version":"14.0b/19.0a"},{"town":"焼野一丁目","koaza":"","lat":34.715405,"lng":135.583828,"version":"14.0b/19.0a"},{"town":"安田一丁目","koaza":"","lat":34.70369,"lng":135.587402,"version":"14.0b/19.0a"},{"town":"横堤三丁目","koaza":"","lat":34.700911,"lng":135.573488,"version":"14.0b/19.0a"},{"town":"中茶屋一丁目","koaza":"","lat":34.700754,"lng":135.584971,"version":"14.0b/19.0a"},{"town":"諸口二丁目","koaza":"","lat":34.699876,"lng":135.580168,"version":"14.0b/19.0a"},{"town":"鶴見三丁目","koaza":"","lat":34.701426,"lng":135.563207,"version":"14.0b/19.0a"},{"town":"浜一丁目","koaza":"","lat":34.706602,"lng":135.580401,"version":"14.0b/19.0a"},{"town":"鶴見五丁目","koaza":"","lat":34.706852,"lng":135.564114,"version":"14.0b/19.0a"},{"town":"鶴見二丁目","koaza":"","lat":34.699558,"lng":135.563432,"version":"14.0b/19.0a"},{"town":"焼野二丁目","koaza":"","lat":34.716589,"lng":135.586454,"version":"14.0b/19.0a"},{"town":"放出東二丁目","koaza":"","lat":34.691586,"lng":135.562656,"version":"14.0b/19.0a"},{"town":"緑一丁目","koaza":"","lat":34.711977,"lng":135.561553,"version":"14.0b/19.0a"},{"town":"横堤五丁目","koaza":"","lat":34.706363,"lng":135.573067,"version":"14.0b/19.0a"},{"town":"安田二丁目","koaza":"","lat":34.703958,"lng":135.591977,"version":"14.0b/19.0a"},{"town":"横堤一丁目","koaza":"","lat":34.70064,"lng":135.568606,"version":"14.0b/19.0a"},{"town":"茨田大宮四丁目","koaza":"","lat":34.71228,"lng":135.596639,"version":"14.0b/19.0a"},{"town":"浜三丁目","koaza":"","lat":34.707936,"lng":135.584858,"version":"14.0b/19.0a"},{"town":"茨田大宮一丁目","koaza":"","lat":34.710879,"lng":135.589496,"version":"14.0b/19.0a"},{"town":"茨田大宮二丁目","koaza":"","lat":34.71062,"lng":135.592895,"version":"14.0b/19.0a"},{"town":"諸口一丁目","koaza":"","lat":34.699124,"lng":135.576614,"version":"14.0b/19.0a"},{"town":"放出東一丁目","koaza":"","lat":34.694468,"lng":135.562719,"version":"14.0b/19.0a"},{"town":"諸口六丁目","koaza":"","lat":34.706398,"lng":135.57672,"version":"14.0b/19.0a"},{"town":"横堤二丁目","koaza":"","lat":34.699902,"lng":135.571188,"version":"14.0b/19.0a"},{"town":"鶴見一丁目","koaza":"","lat":34.697479,"lng":135.56427,"version":"14.0b/19.0a"},{"town":"放出東三丁目","koaza":"","lat":34.689199,"lng":135.562517,"version":"14.0b/19.0a"},{"town":"横堤四丁目","koaza":"","lat":34.706857,"lng":135.569918,"version":"14.0b/19.0a"},{"town":"鶴見四丁目","koaza":"","lat":34.704078,"lng":135.563898,"version":"14.0b/19.0a"},{"town":"緑三丁目","koaza":"","lat":34.714087,"lng":135.566023,"version":"14.0b/19.0a"},{"town":"緑地公園","koaza":"","lat":34.713146,"lng":135.579597,"version":"14.0b/19.0a"}]