[{"town":"鳴滝","koaza":"","lat":34.373508,"lng":135.275194,"version":"13.0b/18.0a"},{"town":"馬場","koaza":"","lat":34.360966,"lng":135.271601,"version":"13.0b/18.0a"},{"town":"樽井","koaza":"","lat":34.362486,"lng":135.273831,"version":"13.0b/18.0a"},{"town":"幡代","koaza":"","lat":34.34749,"lng":135.265826,"version":"13.0b/18.0a"},{"town":"鳴滝二丁目","koaza":"","lat":34.373564,"lng":135.27373,"version":"13.0b/18.0a"},{"town":"鳴滝一丁目","koaza":"","lat":34.3723,"lng":135.273345,"version":"13.0b/18.0a"},{"town":"鳴滝三丁目","koaza":"","lat":34.374311,"lng":135.271788,"version":"13.0b/18.0a"},{"town":"男里","koaza":"","lat":34.375987,"lng":135.251777,"version":"13.0b/18.0a"},{"town":"北野一丁目","koaza":"","lat":34.38178,"lng":135.2817,"version":"13.0b/18.0a"},{"town":"中小路三丁目","koaza":"","lat":34.37586,"lng":135.275517,"version":"13.0b/18.0a"},{"town":"樽井九丁目","koaza":"","lat":34.370322,"lng":135.272479,"version":"13.0b/18.0a"},{"town":"岡田七丁目","koaza":"","lat":34.391853,"lng":135.281536,"version":"13.0b/18.0a"},{"town":"男里二丁目","koaza":"","lat":34.361957,"lng":135.259331,"version":"13.0b/18.0a"},{"town":"男里一丁目","koaza":"","lat":34.356143,"lng":135.260784,"version":"13.0b/18.0a"},{"town":"樽井八丁目","koaza":"","lat":34.37512,"lng":135.268698,"version":"13.0b/18.0a"},{"town":"男里三丁目","koaza":"","lat":34.361063,"lng":135.256138,"version":"13.0b/18.0a"},{"town":"樽井一丁目","koaza":"","lat":34.368487,"lng":135.270888,"version":"13.0b/18.0a"},{"town":"中小路一丁目","koaza":"","lat":34.377965,"lng":135.280481,"version":"13.0b/18.0a"},{"town":"馬場三丁目","koaza":"","lat":34.358389,"lng":135.27022,"version":"13.0b/18.0a"},{"town":"岡田四丁目","koaza":"","lat":34.384538,"lng":135.282566,"version":"13.0b/18.0a"},{"town":"北野","koaza":"","lat":34.381127,"lng":135.288659,"version":"13.0b/18.0a"},{"town":"岡田三丁目","koaza":"","lat":34.383188,"lng":135.278203,"version":"13.0b/18.0a"},{"town":"幡代三丁目","koaza":"","lat":34.355856,"lng":135.270122,"version":"13.0b/18.0a"},{"town":"樽井六丁目","koaza":"","lat":34.372364,"lng":135.264046,"version":"13.0b/18.0a"},{"town":"馬場一丁目","koaza":"","lat":34.362067,"lng":135.268893,"version":"13.0b/18.0a"},{"town":"男里六丁目","koaza":"","lat":34.368769,"lng":135.251869,"version":"13.0b/18.0a"},{"town":"幡代二丁目","koaza":"","lat":34.34991,"lng":135.265248,"version":"13.0b/18.0a"},{"town":"岡田五丁目","koaza":"","lat":34.385556,"lng":135.276634,"version":"13.0b/18.0a"},{"town":"岡田二丁目","koaza":"","lat":34.380513,"lng":135.275003,"version":"13.0b/18.0a"},{"town":"中小路二丁目","koaza":"","lat":34.374425,"lng":135.280097,"version":"13.0b/18.0a"},{"town":"樽井五丁目","koaza":"","lat":34.371528,"lng":135.261241,"version":"13.0b/18.0a"},{"town":"男里七丁目","koaza":"","lat":34.371642,"lng":135.253972,"version":"13.0b/18.0a"},{"town":"樽井七丁目","koaza":"","lat":34.374739,"lng":135.265225,"version":"13.0b/18.0a"},{"town":"男里五丁目","koaza":"","lat":34.367856,"lng":135.255767,"version":"13.0b/18.0a"},{"town":"樽井三丁目","koaza":"","lat":34.364918,"lng":135.263984,"version":"13.0b/18.0a"},{"town":"岡田一丁目","koaza":"","lat":34.378235,"lng":135.27218,"version":"13.0b/18.0a"},{"town":"岡田六丁目","koaza":"","lat":34.389418,"lng":135.279553,"version":"13.0b/18.0a"},{"town":"北野二丁目","koaza":"","lat":34.380055,"lng":135.284715,"version":"13.0b/18.0a"},{"town":"馬場二丁目","koaza":"","lat":34.360922,"lng":135.263991,"version":"13.0b/18.0a"},{"town":"樽井四丁目","koaza":"","lat":34.369758,"lng":135.259097,"version":"13.0b/18.0a"},{"town":"男里四丁目","koaza":"","lat":34.363634,"lng":135.253791,"version":"13.0b/18.0a"},{"town":"幡代一丁目","koaza":"","lat":34.355482,"lng":135.26415,"version":"13.0b/18.0a"},{"town":"樽井二丁目","koaza":"","lat":34.366158,"lng":135.269098,"version":"13.0b/18.0a"},{"town":"別所","koaza":"","lat":34.363715,"lng":135.318101,"version":"13.0b/18.0a"},{"town":"信達大苗代","koaza":"","lat":34.370936,"lng":135.290362,"version":"13.0b/18.0a"},{"town":"兎田","koaza":"","lat":34.373118,"lng":135.31366,"version":"13.0b/18.0a"},{"town":"りんくう南浜","koaza":"","lat":34.38293,"lng":135.268806,"version":"13.0b/18.0a"},{"town":"信達牧野","koaza":"","lat":34.35918,"lng":135.278849,"version":"13.0b/18.0a"},{"town":"泉州空港南","koaza":"","lat":34.421154,"lng":135.228884,"version":"13.0b/18.0a"},{"town":"信達六尾","koaza":"","lat":34.343764,"lng":135.299173,"version":"13.0b/18.0a"},{"town":"信達金熊寺","koaza":"","lat":34.333394,"lng":135.290484,"version":"13.0b/18.0a"},{"town":"信達市場","koaza":"","lat":34.360622,"lng":135.290033,"version":"13.0b/18.0a"},{"town":"信達童子畑","koaza":"","lat":34.325474,"lng":135.307999,"version":"13.0b/18.0a"},{"town":"信達岡中","koaza":"","lat":34.336896,"lng":135.274859,"version":"13.0b/18.0a"},{"town":"信達楠畑","koaza":"","lat":34.314938,"lng":135.294508,"version":"13.0b/18.0a"},{"town":"信達葛畑","koaza":"","lat":34.328115,"lng":135.326012,"version":"13.0b/18.0a"},{"town":"新家","koaza":"","lat":34.358445,"lng":135.307721,"version":"13.0b/18.0a"},{"town":"鳴滝","koaza":"","lat":34.373508,"lng":135.275194,"version":"14.0b/19.0a"},{"town":"馬場","koaza":"","lat":34.360966,"lng":135.271601,"version":"14.0b/19.0a"},{"town":"樽井","koaza":"","lat":34.362486,"lng":135.273831,"version":"14.0b/19.0a"},{"town":"幡代","koaza":"","lat":34.34749,"lng":135.265826,"version":"14.0b/19.0a"},{"town":"鳴滝二丁目","koaza":"","lat":34.373564,"lng":135.27373,"version":"14.0b/19.0a"},{"town":"鳴滝一丁目","koaza":"","lat":34.3723,"lng":135.273345,"version":"14.0b/19.0a"},{"town":"鳴滝三丁目","koaza":"","lat":34.374311,"lng":135.271788,"version":"14.0b/19.0a"},{"town":"男里","koaza":"","lat":34.375987,"lng":135.251777,"version":"14.0b/19.0a"},{"town":"北野一丁目","koaza":"","lat":34.38178,"lng":135.2817,"version":"14.0b/19.0a"},{"town":"中小路三丁目","koaza":"","lat":34.37586,"lng":135.275517,"version":"14.0b/19.0a"},{"town":"樽井九丁目","koaza":"","lat":34.370322,"lng":135.272479,"version":"14.0b/19.0a"},{"town":"岡田七丁目","koaza":"","lat":34.391853,"lng":135.281536,"version":"14.0b/19.0a"},{"town":"男里二丁目","koaza":"","lat":34.361957,"lng":135.259331,"version":"14.0b/19.0a"},{"town":"男里一丁目","koaza":"","lat":34.356143,"lng":135.260784,"version":"14.0b/19.0a"},{"town":"樽井八丁目","koaza":"","lat":34.37512,"lng":135.268698,"version":"14.0b/19.0a"},{"town":"男里三丁目","koaza":"","lat":34.361063,"lng":135.256138,"version":"14.0b/19.0a"},{"town":"樽井一丁目","koaza":"","lat":34.368487,"lng":135.270888,"version":"14.0b/19.0a"},{"town":"中小路一丁目","koaza":"","lat":34.377965,"lng":135.280481,"version":"14.0b/19.0a"},{"town":"馬場三丁目","koaza":"","lat":34.358389,"lng":135.27022,"version":"14.0b/19.0a"},{"town":"岡田四丁目","koaza":"","lat":34.384538,"lng":135.282566,"version":"14.0b/19.0a"},{"town":"北野","koaza":"","lat":34.381127,"lng":135.288659,"version":"14.0b/19.0a"},{"town":"岡田三丁目","koaza":"","lat":34.383188,"lng":135.278203,"version":"14.0b/19.0a"},{"town":"幡代三丁目","koaza":"","lat":34.355856,"lng":135.270122,"version":"14.0b/19.0a"},{"town":"樽井六丁目","koaza":"","lat":34.372364,"lng":135.264046,"version":"14.0b/19.0a"},{"town":"馬場一丁目","koaza":"","lat":34.362067,"lng":135.268893,"version":"14.0b/19.0a"},{"town":"男里六丁目","koaza":"","lat":34.368769,"lng":135.251869,"version":"14.0b/19.0a"},{"town":"幡代二丁目","koaza":"","lat":34.34991,"lng":135.265248,"version":"14.0b/19.0a"},{"town":"岡田五丁目","koaza":"","lat":34.385556,"lng":135.276634,"version":"14.0b/19.0a"},{"town":"岡田二丁目","koaza":"","lat":34.380513,"lng":135.275003,"version":"14.0b/19.0a"},{"town":"中小路二丁目","koaza":"","lat":34.374425,"lng":135.280097,"version":"14.0b/19.0a"},{"town":"樽井五丁目","koaza":"","lat":34.371528,"lng":135.261241,"version":"14.0b/19.0a"},{"town":"男里七丁目","koaza":"","lat":34.371642,"lng":135.253972,"version":"14.0b/19.0a"},{"town":"樽井七丁目","koaza":"","lat":34.374739,"lng":135.265225,"version":"14.0b/19.0a"},{"town":"男里五丁目","koaza":"","lat":34.367856,"lng":135.255767,"version":"14.0b/19.0a"},{"town":"樽井三丁目","koaza":"","lat":34.364918,"lng":135.263984,"version":"14.0b/19.0a"},{"town":"岡田一丁目","koaza":"","lat":34.378235,"lng":135.27218,"version":"14.0b/19.0a"},{"town":"岡田六丁目","koaza":"","lat":34.389418,"lng":135.279553,"version":"14.0b/19.0a"},{"town":"北野二丁目","koaza":"","lat":34.380055,"lng":135.284715,"version":"14.0b/19.0a"},{"town":"馬場二丁目","koaza":"","lat":34.360922,"lng":135.263991,"version":"14.0b/19.0a"},{"town":"樽井四丁目","koaza":"","lat":34.369758,"lng":135.259097,"version":"14.0b/19.0a"},{"town":"男里四丁目","koaza":"","lat":34.363634,"lng":135.253791,"version":"14.0b/19.0a"},{"town":"幡代一丁目","koaza":"","lat":34.355482,"lng":135.26415,"version":"14.0b/19.0a"},{"town":"樽井二丁目","koaza":"","lat":34.366158,"lng":135.269098,"version":"14.0b/19.0a"},{"town":"別所","koaza":"","lat":34.363715,"lng":135.318101,"version":"14.0b/19.0a"},{"town":"信達大苗代","koaza":"","lat":34.370936,"lng":135.290362,"version":"14.0b/19.0a"},{"town":"兎田","koaza":"","lat":34.373118,"lng":135.31366,"version":"14.0b/19.0a"},{"town":"りんくう南浜","koaza":"","lat":34.38293,"lng":135.268806,"version":"14.0b/19.0a"},{"town":"信達牧野","koaza":"","lat":34.35918,"lng":135.278849,"version":"14.0b/19.0a"},{"town":"泉州空港南","koaza":"","lat":34.421154,"lng":135.228884,"version":"14.0b/19.0a"},{"town":"信達六尾","koaza":"","lat":34.343764,"lng":135.299173,"version":"14.0b/19.0a"},{"town":"信達金熊寺","koaza":"","lat":34.333394,"lng":135.290484,"version":"14.0b/19.0a"},{"town":"信達市場","koaza":"","lat":34.360622,"lng":135.290033,"version":"14.0b/19.0a"},{"town":"信達童子畑","koaza":"","lat":34.325474,"lng":135.307999,"version":"14.0b/19.0a"},{"town":"信達岡中","koaza":"","lat":34.336896,"lng":135.274859,"version":"14.0b/19.0a"},{"town":"信達楠畑","koaza":"","lat":34.314938,"lng":135.294508,"version":"14.0b/19.0a"},{"town":"信達葛畑","koaza":"","lat":34.328115,"lng":135.326012,"version":"14.0b/19.0a"},{"town":"新家","koaza":"","lat":34.358445,"lng":135.307721,"version":"14.0b/19.0a"}]