[{"town":"青野町","koaza":"","lat":34.632427,"lng":133.471816,"version":"13.0b/18.0a"},{"town":"井原町","koaza":"","lat":34.606008,"lng":133.448826,"version":"13.0b/18.0a"},{"town":"岩倉町","koaza":"","lat":34.565461,"lng":133.477628,"version":"13.0b/18.0a"},{"town":"大江町","koaza":"","lat":34.569955,"lng":133.442278,"version":"13.0b/18.0a"},{"town":"上出部町","koaza":"","lat":34.588966,"lng":133.462296,"version":"13.0b/18.0a"},{"town":"上出部町四季が丘","koaza":"","lat":34.583932,"lng":133.467368,"version":"13.0b/18.0a"},{"town":"上稲木町","koaza":"","lat":34.551395,"lng":133.45942,"version":"13.0b/18.0a"},{"town":"北山町","koaza":"","lat":34.609919,"lng":133.463938,"version":"13.0b/18.0a"},{"town":"木之子町","koaza":"","lat":34.586209,"lng":133.494509,"version":"13.0b/18.0a"},{"town":"神代町","koaza":"","lat":34.609522,"lng":133.525297,"version":"13.0b/18.0a"},{"town":"笹賀町","koaza":"","lat":34.591727,"lng":133.43919,"version":"13.0b/18.0a"},{"town":"笹賀町一丁目","koaza":"","lat":34.58819,"lng":133.440915,"version":"13.0b/18.0a"},{"town":"笹賀町二丁目","koaza":"","lat":34.59017,"lng":133.444787,"version":"13.0b/18.0a"},{"town":"下出部町","koaza":"","lat":34.584866,"lng":133.44909,"version":"13.0b/18.0a"},{"town":"下出部町一丁目","koaza":"","lat":34.586252,"lng":133.440719,"version":"13.0b/18.0a"},{"town":"下出部町二丁目","koaza":"","lat":34.582531,"lng":133.439625,"version":"13.0b/18.0a"},{"town":"下稲木町","koaza":"","lat":34.568198,"lng":133.464232,"version":"13.0b/18.0a"},{"town":"高屋町","koaza":"","lat":34.605763,"lng":133.414521,"version":"13.0b/18.0a"},{"town":"高屋町一丁目","koaza":"","lat":34.57731,"lng":133.426064,"version":"13.0b/18.0a"},{"town":"高屋町二丁目","koaza":"","lat":34.578703,"lng":133.429309,"version":"13.0b/18.0a"},{"town":"高屋町三丁目","koaza":"","lat":34.580134,"lng":133.432741,"version":"13.0b/18.0a"},{"town":"高屋町四丁目","koaza":"","lat":34.581575,"lng":133.436006,"version":"13.0b/18.0a"},{"town":"高屋町五丁目","koaza":"","lat":34.577685,"lng":133.433021,"version":"13.0b/18.0a"},{"town":"七日市町","koaza":"","lat":34.590129,"lng":133.477553,"version":"13.0b/18.0a"},{"town":"西江原町","koaza":"","lat":34.616078,"lng":133.488168,"version":"13.0b/18.0a"},{"town":"西方町","koaza":"","lat":34.569718,"lng":133.483053,"version":"13.0b/18.0a"},{"town":"野上町","koaza":"","lat":34.63994,"lng":133.498414,"version":"13.0b/18.0a"},{"town":"稗原町","koaza":"","lat":34.628162,"lng":133.455094,"version":"13.0b/18.0a"},{"town":"東江原町","koaza":"","lat":34.606924,"lng":133.508856,"version":"13.0b/18.0a"},{"town":"美星町宇戸","koaza":"","lat":34.686403,"lng":133.578611,"version":"13.0b/18.0a"},{"town":"美星町烏頭","koaza":"","lat":34.694093,"lng":133.580457,"version":"13.0b/18.0a"},{"town":"美星町宇戸谷","koaza":"","lat":34.70602,"lng":133.571229,"version":"13.0b/18.0a"},{"town":"美星町大倉","koaza":"","lat":34.671993,"lng":133.552077,"version":"13.0b/18.0a"},{"town":"美星町上高末","koaza":"","lat":34.705805,"lng":133.598455,"version":"13.0b/18.0a"},{"town":"美星町黒木","koaza":"","lat":34.640667,"lng":133.524552,"version":"13.0b/18.0a"},{"town":"美星町黒忠","koaza":"","lat":34.691182,"lng":133.498772,"version":"13.0b/18.0a"},{"town":"美星町西水砂","koaza":"","lat":34.659689,"lng":133.532886,"version":"13.0b/18.0a"},{"town":"美星町東水砂","koaza":"","lat":34.655109,"lng":133.549487,"version":"13.0b/18.0a"},{"town":"美星町星田","koaza":"","lat":34.660381,"lng":133.505231,"version":"13.0b/18.0a"},{"town":"美星町三山","koaza":"","lat":34.685735,"lng":133.551192,"version":"13.0b/18.0a"},{"town":"美星町明治","koaza":"","lat":34.70944,"lng":133.537004,"version":"13.0b/18.0a"},{"town":"門田町","koaza":"","lat":34.56828,"lng":133.495437,"version":"13.0b/18.0a"},{"town":"芳井町池谷","koaza":"","lat":34.674521,"lng":133.438439,"version":"13.0b/18.0a"},{"town":"芳井町井山","koaza":"","lat":34.661978,"lng":133.421683,"version":"13.0b/18.0a"},{"town":"芳井町宇戸川","koaza":"","lat":34.646433,"lng":133.451086,"version":"13.0b/18.0a"},{"town":"芳井町梶江","koaza":"","lat":34.621877,"lng":133.444528,"version":"13.0b/18.0a"},{"town":"芳井町片塚","koaza":"","lat":34.653789,"lng":133.43669,"version":"13.0b/18.0a"},{"town":"芳井町上鴫","koaza":"","lat":34.6982,"lng":133.385988,"version":"13.0b/18.0a"},{"town":"芳井町川相","koaza":"","lat":34.655293,"lng":133.407267,"version":"13.0b/18.0a"},{"town":"芳井町佐屋","koaza":"","lat":34.689883,"lng":133.43817,"version":"13.0b/18.0a"},{"town":"芳井町下鴫","koaza":"","lat":34.683397,"lng":133.400238,"version":"13.0b/18.0a"},{"town":"芳井町種","koaza":"","lat":34.676681,"lng":133.461592,"version":"13.0b/18.0a"},{"town":"芳井町天神山","koaza":"","lat":34.631951,"lng":133.40664,"version":"13.0b/18.0a"},{"town":"芳井町西三原","koaza":"","lat":34.720825,"lng":133.375459,"version":"13.0b/18.0a"},{"town":"芳井町花滝","koaza":"","lat":34.672698,"lng":133.476331,"version":"13.0b/18.0a"},{"town":"芳井町東三原","koaza":"","lat":34.727643,"lng":133.391805,"version":"13.0b/18.0a"},{"town":"芳井町簗瀬","koaza":"","lat":34.617303,"lng":133.430314,"version":"13.0b/18.0a"},{"town":"芳井町山村","koaza":"","lat":34.694764,"lng":133.418585,"version":"13.0b/18.0a"},{"town":"芳井町与井","koaza":"","lat":34.62755,"lng":133.43959,"version":"13.0b/18.0a"},{"town":"芳井町吉井","koaza":"","lat":34.629551,"lng":133.426509,"version":"13.0b/18.0a"},{"town":"笹賀町","koaza":"弐反田","lat":34.593423,"lng":133.457071,"version":"13.0b/18.0a"},{"town":"青野町","koaza":"","lat":34.632427,"lng":133.471816,"version":"14.0b/19.0a"},{"town":"井原町","koaza":"","lat":34.606008,"lng":133.448826,"version":"14.0b/19.0a"},{"town":"岩倉町","koaza":"","lat":34.565461,"lng":133.477628,"version":"14.0b/19.0a"},{"town":"大江町","koaza":"","lat":34.569955,"lng":133.442278,"version":"14.0b/19.0a"},{"town":"上出部町","koaza":"","lat":34.588966,"lng":133.462296,"version":"14.0b/19.0a"},{"town":"上出部町四季が丘","koaza":"","lat":34.583932,"lng":133.467368,"version":"14.0b/19.0a"},{"town":"上稲木町","koaza":"","lat":34.551395,"lng":133.45942,"version":"14.0b/19.0a"},{"town":"北山町","koaza":"","lat":34.609919,"lng":133.463938,"version":"14.0b/19.0a"},{"town":"木之子町","koaza":"","lat":34.586209,"lng":133.494509,"version":"14.0b/19.0a"},{"town":"神代町","koaza":"","lat":34.609522,"lng":133.525297,"version":"14.0b/19.0a"},{"town":"笹賀町","koaza":"","lat":34.591727,"lng":133.43919,"version":"14.0b/19.0a"},{"town":"笹賀町一丁目","koaza":"","lat":34.58819,"lng":133.440915,"version":"14.0b/19.0a"},{"town":"笹賀町二丁目","koaza":"","lat":34.59017,"lng":133.444787,"version":"14.0b/19.0a"},{"town":"下出部町","koaza":"","lat":34.584866,"lng":133.44909,"version":"14.0b/19.0a"},{"town":"下出部町一丁目","koaza":"","lat":34.586252,"lng":133.440719,"version":"14.0b/19.0a"},{"town":"下出部町二丁目","koaza":"","lat":34.582531,"lng":133.439625,"version":"14.0b/19.0a"},{"town":"下稲木町","koaza":"","lat":34.568198,"lng":133.464232,"version":"14.0b/19.0a"},{"town":"高屋町","koaza":"","lat":34.605763,"lng":133.414521,"version":"14.0b/19.0a"},{"town":"高屋町一丁目","koaza":"","lat":34.57731,"lng":133.426064,"version":"14.0b/19.0a"},{"town":"高屋町二丁目","koaza":"","lat":34.578703,"lng":133.429309,"version":"14.0b/19.0a"},{"town":"高屋町三丁目","koaza":"","lat":34.580134,"lng":133.432741,"version":"14.0b/19.0a"},{"town":"高屋町四丁目","koaza":"","lat":34.581575,"lng":133.436006,"version":"14.0b/19.0a"},{"town":"高屋町五丁目","koaza":"","lat":34.577685,"lng":133.433021,"version":"14.0b/19.0a"},{"town":"七日市町","koaza":"","lat":34.590129,"lng":133.477553,"version":"14.0b/19.0a"},{"town":"西江原町","koaza":"","lat":34.616078,"lng":133.488168,"version":"14.0b/19.0a"},{"town":"西方町","koaza":"","lat":34.569718,"lng":133.483053,"version":"14.0b/19.0a"},{"town":"野上町","koaza":"","lat":34.63994,"lng":133.498414,"version":"14.0b/19.0a"},{"town":"稗原町","koaza":"","lat":34.628162,"lng":133.455094,"version":"14.0b/19.0a"},{"town":"東江原町","koaza":"","lat":34.606924,"lng":133.508856,"version":"14.0b/19.0a"},{"town":"美星町宇戸","koaza":"","lat":34.686403,"lng":133.578611,"version":"14.0b/19.0a"},{"town":"美星町烏頭","koaza":"","lat":34.694093,"lng":133.580457,"version":"14.0b/19.0a"},{"town":"美星町宇戸谷","koaza":"","lat":34.70602,"lng":133.571229,"version":"14.0b/19.0a"},{"town":"美星町大倉","koaza":"","lat":34.671993,"lng":133.552077,"version":"14.0b/19.0a"},{"town":"美星町上高末","koaza":"","lat":34.705805,"lng":133.598455,"version":"14.0b/19.0a"},{"town":"美星町黒木","koaza":"","lat":34.640667,"lng":133.524552,"version":"14.0b/19.0a"},{"town":"美星町黒忠","koaza":"","lat":34.691182,"lng":133.498772,"version":"14.0b/19.0a"},{"town":"美星町西水砂","koaza":"","lat":34.659689,"lng":133.532886,"version":"14.0b/19.0a"},{"town":"美星町東水砂","koaza":"","lat":34.655109,"lng":133.549487,"version":"14.0b/19.0a"},{"town":"美星町星田","koaza":"","lat":34.660381,"lng":133.505231,"version":"14.0b/19.0a"},{"town":"美星町三山","koaza":"","lat":34.685735,"lng":133.551192,"version":"14.0b/19.0a"},{"town":"美星町明治","koaza":"","lat":34.70944,"lng":133.537004,"version":"14.0b/19.0a"},{"town":"門田町","koaza":"","lat":34.56828,"lng":133.495437,"version":"14.0b/19.0a"},{"town":"芳井町池谷","koaza":"","lat":34.674521,"lng":133.438439,"version":"14.0b/19.0a"},{"town":"芳井町井山","koaza":"","lat":34.661978,"lng":133.421683,"version":"14.0b/19.0a"},{"town":"芳井町宇戸川","koaza":"","lat":34.646433,"lng":133.451086,"version":"14.0b/19.0a"},{"town":"芳井町梶江","koaza":"","lat":34.621877,"lng":133.444528,"version":"14.0b/19.0a"},{"town":"芳井町片塚","koaza":"","lat":34.653789,"lng":133.43669,"version":"14.0b/19.0a"},{"town":"芳井町上鴫","koaza":"","lat":34.6982,"lng":133.385988,"version":"14.0b/19.0a"},{"town":"芳井町川相","koaza":"","lat":34.655293,"lng":133.407267,"version":"14.0b/19.0a"},{"town":"芳井町佐屋","koaza":"","lat":34.689883,"lng":133.43817,"version":"14.0b/19.0a"},{"town":"芳井町下鴫","koaza":"","lat":34.683397,"lng":133.400238,"version":"14.0b/19.0a"},{"town":"芳井町種","koaza":"","lat":34.676681,"lng":133.461592,"version":"14.0b/19.0a"},{"town":"芳井町天神山","koaza":"","lat":34.631951,"lng":133.40664,"version":"14.0b/19.0a"},{"town":"芳井町西三原","koaza":"","lat":34.720825,"lng":133.375459,"version":"14.0b/19.0a"},{"town":"芳井町花滝","koaza":"","lat":34.672698,"lng":133.476331,"version":"14.0b/19.0a"},{"town":"芳井町東三原","koaza":"","lat":34.727643,"lng":133.391805,"version":"14.0b/19.0a"},{"town":"芳井町簗瀬","koaza":"","lat":34.617303,"lng":133.430314,"version":"14.0b/19.0a"},{"town":"芳井町山村","koaza":"","lat":34.694764,"lng":133.418585,"version":"14.0b/19.0a"},{"town":"芳井町与井","koaza":"","lat":34.62755,"lng":133.43959,"version":"14.0b/19.0a"},{"town":"芳井町吉井","koaza":"","lat":34.629551,"lng":133.426509,"version":"14.0b/19.0a"},{"town":"笹賀町","koaza":"弐反田","lat":34.593423,"lng":133.457071,"version":"14.0b/19.0a"}]