[{"town":"間之町","koaza":"","lat":34.792855,"lng":133.61845,"version":"13.0b/18.0a"},{"town":"旭町","koaza":"","lat":34.788307,"lng":133.61539,"version":"13.0b/18.0a"},{"town":"伊賀町","koaza":"","lat":34.797658,"lng":133.623994,"version":"13.0b/18.0a"},{"town":"石火矢町","koaza":"","lat":34.799341,"lng":133.6183,"version":"13.0b/18.0a"},{"town":"有漢町有漢","koaza":"","lat":34.899272,"lng":133.663601,"version":"13.0b/18.0a"},{"town":"有漢町上有漢","koaza":"","lat":34.9295,"lng":133.68275,"version":"13.0b/18.0a"},{"town":"宇治町穴田","koaza":"","lat":34.816956,"lng":133.470169,"version":"13.0b/18.0a"},{"town":"宇治町宇治","koaza":"","lat":34.844555,"lng":133.49,"version":"13.0b/18.0a"},{"town":"宇治町遠原","koaza":"","lat":34.851511,"lng":133.506375,"version":"13.0b/18.0a"},{"town":"宇治町本郷","koaza":"","lat":34.837846,"lng":133.484045,"version":"13.0b/18.0a"},{"town":"内山下","koaza":"","lat":34.809562,"lng":133.6231,"version":"13.0b/18.0a"},{"town":"奥万田町","koaza":"","lat":34.796308,"lng":133.633716,"version":"13.0b/18.0a"},{"town":"落合町阿部","koaza":"","lat":34.784831,"lng":133.583982,"version":"13.0b/18.0a"},{"town":"落合町福地","koaza":"","lat":34.794712,"lng":133.548621,"version":"13.0b/18.0a"},{"town":"落合町近似","koaza":"","lat":34.795559,"lng":133.603012,"version":"13.0b/18.0a"},{"town":"落合町原田","koaza":"","lat":34.800958,"lng":133.578238,"version":"13.0b/18.0a"},{"town":"御前町","koaza":"","lat":34.799154,"lng":133.619594,"version":"13.0b/18.0a"},{"town":"柿木町","koaza":"","lat":34.795479,"lng":133.617408,"version":"13.0b/18.0a"},{"town":"鍜冶町","koaza":"","lat":34.794782,"lng":133.616187,"version":"13.0b/18.0a"},{"town":"片原町","koaza":"","lat":34.799188,"lng":133.617485,"version":"13.0b/18.0a"},{"town":"上谷町","koaza":"","lat":34.784355,"lng":133.62353,"version":"13.0b/18.0a"},{"town":"川上町大原","koaza":"","lat":34.747722,"lng":133.414451,"version":"13.0b/18.0a"},{"town":"川上町上大竹","koaza":"","lat":34.713881,"lng":133.433524,"version":"13.0b/18.0a"},{"town":"川上町高山","koaza":"","lat":34.745269,"lng":133.429813,"version":"13.0b/18.0a"},{"town":"川上町高山市","koaza":"","lat":34.748772,"lng":133.39035,"version":"13.0b/18.0a"},{"town":"川上町地頭","koaza":"","lat":34.733227,"lng":133.481223,"version":"13.0b/18.0a"},{"town":"川上町下大竹","koaza":"","lat":34.734591,"lng":133.454313,"version":"13.0b/18.0a"},{"town":"川上町臘数","koaza":"","lat":34.758552,"lng":133.509026,"version":"13.0b/18.0a"},{"town":"川上町七地","koaza":"","lat":34.759037,"lng":133.465406,"version":"13.0b/18.0a"},{"town":"川上町仁賀","koaza":"","lat":34.708401,"lng":133.467109,"version":"13.0b/18.0a"},{"town":"川上町三沢","koaza":"","lat":34.71923,"lng":133.505463,"version":"13.0b/18.0a"},{"town":"川上町吉木","koaza":"","lat":34.774957,"lng":133.50227,"version":"13.0b/18.0a"},{"town":"川上町領家","koaza":"","lat":34.757314,"lng":133.493135,"version":"13.0b/18.0a"},{"town":"川端町","koaza":"","lat":34.803075,"lng":133.615537,"version":"13.0b/18.0a"},{"town":"川面町","koaza":"","lat":34.859152,"lng":133.594702,"version":"13.0b/18.0a"},{"town":"甲賀町","koaza":"","lat":34.794111,"lng":133.616846,"version":"13.0b/18.0a"},{"town":"荒神町","koaza":"","lat":34.794751,"lng":133.61673,"version":"13.0b/18.0a"},{"town":"小高下町","koaza":"","lat":34.806956,"lng":133.639973,"version":"13.0b/18.0a"},{"town":"巨瀬町","koaza":"","lat":34.874612,"lng":133.635906,"version":"13.0b/18.0a"},{"town":"栄町","koaza":"","lat":34.790339,"lng":133.61544,"version":"13.0b/18.0a"},{"town":"下谷町","koaza":"","lat":34.781923,"lng":133.61784,"version":"13.0b/18.0a"},{"town":"下町","koaza":"","lat":34.794825,"lng":133.615451,"version":"13.0b/18.0a"},{"town":"新町","koaza":"","lat":34.798385,"lng":133.616991,"version":"13.0b/18.0a"},{"town":"大工町","koaza":"","lat":34.795718,"lng":133.616996,"version":"13.0b/18.0a"},{"town":"高倉町飯部","koaza":"","lat":34.858546,"lng":133.544042,"version":"13.0b/18.0a"},{"town":"高倉町大瀬八長","koaza":"","lat":34.812238,"lng":133.606738,"version":"13.0b/18.0a"},{"town":"高倉町田井","koaza":"","lat":34.83816,"lng":133.583358,"version":"13.0b/18.0a"},{"town":"玉川町下切","koaza":"","lat":34.752646,"lng":133.573613,"version":"13.0b/18.0a"},{"town":"玉川町玉","koaza":"","lat":34.755941,"lng":133.600396,"version":"13.0b/18.0a"},{"town":"玉川町増原","koaza":"","lat":34.733823,"lng":133.579872,"version":"13.0b/18.0a"},{"town":"段町","koaza":"","lat":34.779639,"lng":133.603816,"version":"13.0b/18.0a"},{"town":"中間町","koaza":"","lat":34.79505,"lng":133.614553,"version":"13.0b/18.0a"},{"town":"津川町今津","koaza":"","lat":34.823118,"lng":133.633204,"version":"13.0b/18.0a"},{"town":"津川町八川","koaza":"","lat":34.847489,"lng":133.630658,"version":"13.0b/18.0a"},{"town":"鉄砲町","koaza":"","lat":34.791414,"lng":133.613006,"version":"13.0b/18.0a"},{"town":"寺町","koaza":"","lat":34.795736,"lng":133.619353,"version":"13.0b/18.0a"},{"town":"中井町津々","koaza":"","lat":34.925704,"lng":133.603598,"version":"13.0b/18.0a"},{"town":"中井町西方","koaza":"","lat":34.898499,"lng":133.585423,"version":"13.0b/18.0a"},{"town":"中之町","koaza":"","lat":34.797275,"lng":133.618007,"version":"13.0b/18.0a"},{"town":"中原町","koaza":"","lat":34.785004,"lng":133.612226,"version":"13.0b/18.0a"},{"town":"成羽町相坂","koaza":"","lat":34.79555,"lng":133.471682,"version":"13.0b/18.0a"},{"town":"成羽町長地","koaza":"","lat":34.801666,"lng":133.46834,"version":"13.0b/18.0a"},{"town":"成羽町上日名","koaza":"","lat":34.74587,"lng":133.534644,"version":"13.0b/18.0a"},{"town":"成羽町小泉","koaza":"","lat":34.795284,"lng":133.492076,"version":"13.0b/18.0a"},{"town":"成羽町坂本","koaza":"","lat":34.865263,"lng":133.438451,"version":"13.0b/18.0a"},{"town":"成羽町佐々木","koaza":"","lat":34.774368,"lng":133.512804,"version":"13.0b/18.0a"},{"town":"成羽町下原","koaza":"","lat":34.770635,"lng":133.532996,"version":"13.0b/18.0a"},{"town":"成羽町下日名","koaza":"","lat":34.767627,"lng":133.552373,"version":"13.0b/18.0a"},{"town":"成羽町中野","koaza":"","lat":34.838603,"lng":133.460675,"version":"13.0b/18.0a"},{"town":"成羽町成羽","koaza":"","lat":34.789993,"lng":133.5271,"version":"13.0b/18.0a"},{"town":"成羽町羽根","koaza":"","lat":34.806637,"lng":133.485467,"version":"13.0b/18.0a"},{"town":"成羽町羽山","koaza":"","lat":34.810561,"lng":133.508012,"version":"13.0b/18.0a"},{"town":"成羽町吹屋","koaza":"","lat":34.868155,"lng":133.478685,"version":"13.0b/18.0a"},{"town":"成羽町布寄","koaza":"","lat":34.807151,"lng":133.44966,"version":"13.0b/18.0a"},{"town":"成羽町星原","koaza":"","lat":34.771825,"lng":133.524663,"version":"13.0b/18.0a"},{"town":"浜町","koaza":"","lat":34.789587,"lng":133.61864,"version":"13.0b/18.0a"},{"town":"原田北町","koaza":"","lat":34.78605,"lng":133.615927,"version":"13.0b/18.0a"},{"town":"原田南町","koaza":"","lat":34.782855,"lng":133.613023,"version":"13.0b/18.0a"},{"town":"東町","koaza":"","lat":34.792291,"lng":133.61581,"version":"13.0b/18.0a"},{"town":"備中町志藤用瀬","koaza":"","lat":34.781834,"lng":133.485247,"version":"13.0b/18.0a"},{"town":"備中町長屋","koaza":"","lat":34.788602,"lng":133.458989,"version":"13.0b/18.0a"},{"town":"備中町西山","koaza":"","lat":34.853305,"lng":133.356751,"version":"13.0b/18.0a"},{"town":"備中町西油野","koaza":"","lat":34.851737,"lng":133.4074,"version":"13.0b/18.0a"},{"town":"備中町東油野","koaza":"","lat":34.832545,"lng":133.428248,"version":"13.0b/18.0a"},{"town":"備中町平川","koaza":"","lat":34.796811,"lng":133.403962,"version":"13.0b/18.0a"},{"town":"備中町布賀","koaza":"","lat":34.774529,"lng":133.430878,"version":"13.0b/18.0a"},{"town":"備中町布瀬","koaza":"","lat":34.773168,"lng":133.460146,"version":"13.0b/18.0a"},{"town":"本町","koaza":"","lat":34.798375,"lng":133.615706,"version":"13.0b/18.0a"},{"town":"正宗町","koaza":"","lat":34.790473,"lng":133.617042,"version":"13.0b/18.0a"},{"town":"松原町大津寄","koaza":"","lat":34.809592,"lng":133.560389,"version":"13.0b/18.0a"},{"town":"松原町神原","koaza":"","lat":34.819921,"lng":133.584563,"version":"13.0b/18.0a"},{"town":"松原町春木","koaza":"","lat":34.831501,"lng":133.562116,"version":"13.0b/18.0a"},{"town":"松原町松岡","koaza":"","lat":34.821454,"lng":133.538337,"version":"13.0b/18.0a"},{"town":"松原通","koaza":"","lat":34.79233,"lng":133.617086,"version":"13.0b/18.0a"},{"town":"松山","koaza":"","lat":34.781205,"lng":133.641663,"version":"13.0b/18.0a"},{"town":"南町","koaza":"","lat":34.789365,"lng":133.613711,"version":"13.0b/18.0a"},{"town":"向町","koaza":"","lat":34.795379,"lng":133.618256,"version":"13.0b/18.0a"},{"town":"八幡町","koaza":"","lat":34.793682,"lng":133.616773,"version":"13.0b/18.0a"},{"town":"弓之町","koaza":"","lat":34.790993,"lng":133.613958,"version":"13.0b/18.0a"},{"town":"横町","koaza":"","lat":34.786496,"lng":133.610301,"version":"13.0b/18.0a"},{"town":"頼久寺町","koaza":"","lat":34.797379,"lng":133.619028,"version":"13.0b/18.0a"},{"town":"和田町","koaza":"","lat":34.792537,"lng":133.621285,"version":"13.0b/18.0a"},{"town":"間之町","koaza":"","lat":34.792855,"lng":133.61845,"version":"14.0b/19.0a"},{"town":"旭町","koaza":"","lat":34.788307,"lng":133.61539,"version":"14.0b/19.0a"},{"town":"伊賀町","koaza":"","lat":34.797658,"lng":133.623994,"version":"14.0b/19.0a"},{"town":"石火矢町","koaza":"","lat":34.799341,"lng":133.6183,"version":"14.0b/19.0a"},{"town":"有漢町有漢","koaza":"","lat":34.899272,"lng":133.663601,"version":"14.0b/19.0a"},{"town":"有漢町上有漢","koaza":"","lat":34.9295,"lng":133.68275,"version":"14.0b/19.0a"},{"town":"宇治町穴田","koaza":"","lat":34.816956,"lng":133.470169,"version":"14.0b/19.0a"},{"town":"宇治町宇治","koaza":"","lat":34.844555,"lng":133.49,"version":"14.0b/19.0a"},{"town":"宇治町遠原","koaza":"","lat":34.851511,"lng":133.506375,"version":"14.0b/19.0a"},{"town":"宇治町本郷","koaza":"","lat":34.837846,"lng":133.484045,"version":"14.0b/19.0a"},{"town":"内山下","koaza":"","lat":34.809562,"lng":133.6231,"version":"14.0b/19.0a"},{"town":"奥万田町","koaza":"","lat":34.796308,"lng":133.633716,"version":"14.0b/19.0a"},{"town":"落合町阿部","koaza":"","lat":34.784831,"lng":133.583982,"version":"14.0b/19.0a"},{"town":"落合町福地","koaza":"","lat":34.794712,"lng":133.548621,"version":"14.0b/19.0a"},{"town":"落合町近似","koaza":"","lat":34.795559,"lng":133.603012,"version":"14.0b/19.0a"},{"town":"落合町原田","koaza":"","lat":34.800958,"lng":133.578238,"version":"14.0b/19.0a"},{"town":"御前町","koaza":"","lat":34.799154,"lng":133.619594,"version":"14.0b/19.0a"},{"town":"柿木町","koaza":"","lat":34.795479,"lng":133.617408,"version":"14.0b/19.0a"},{"town":"鍜冶町","koaza":"","lat":34.794782,"lng":133.616187,"version":"14.0b/19.0a"},{"town":"片原町","koaza":"","lat":34.799188,"lng":133.617485,"version":"14.0b/19.0a"},{"town":"上谷町","koaza":"","lat":34.784355,"lng":133.62353,"version":"14.0b/19.0a"},{"town":"川上町大原","koaza":"","lat":34.747722,"lng":133.414451,"version":"14.0b/19.0a"},{"town":"川上町上大竹","koaza":"","lat":34.713881,"lng":133.433524,"version":"14.0b/19.0a"},{"town":"川上町高山","koaza":"","lat":34.745269,"lng":133.429813,"version":"14.0b/19.0a"},{"town":"川上町高山市","koaza":"","lat":34.748772,"lng":133.39035,"version":"14.0b/19.0a"},{"town":"川上町地頭","koaza":"","lat":34.733227,"lng":133.481223,"version":"14.0b/19.0a"},{"town":"川上町下大竹","koaza":"","lat":34.734591,"lng":133.454313,"version":"14.0b/19.0a"},{"town":"川上町臘数","koaza":"","lat":34.758552,"lng":133.509026,"version":"14.0b/19.0a"},{"town":"川上町七地","koaza":"","lat":34.759037,"lng":133.465406,"version":"14.0b/19.0a"},{"town":"川上町仁賀","koaza":"","lat":34.708401,"lng":133.467109,"version":"14.0b/19.0a"},{"town":"川上町三沢","koaza":"","lat":34.71923,"lng":133.505463,"version":"14.0b/19.0a"},{"town":"川上町吉木","koaza":"","lat":34.774957,"lng":133.50227,"version":"14.0b/19.0a"},{"town":"川上町領家","koaza":"","lat":34.757314,"lng":133.493135,"version":"14.0b/19.0a"},{"town":"川端町","koaza":"","lat":34.803075,"lng":133.615537,"version":"14.0b/19.0a"},{"town":"川面町","koaza":"","lat":34.859152,"lng":133.594702,"version":"14.0b/19.0a"},{"town":"甲賀町","koaza":"","lat":34.794111,"lng":133.616846,"version":"14.0b/19.0a"},{"town":"荒神町","koaza":"","lat":34.794751,"lng":133.61673,"version":"14.0b/19.0a"},{"town":"小高下町","koaza":"","lat":34.806956,"lng":133.639973,"version":"14.0b/19.0a"},{"town":"巨瀬町","koaza":"","lat":34.874612,"lng":133.635906,"version":"14.0b/19.0a"},{"town":"栄町","koaza":"","lat":34.790339,"lng":133.61544,"version":"14.0b/19.0a"},{"town":"下谷町","koaza":"","lat":34.781923,"lng":133.61784,"version":"14.0b/19.0a"},{"town":"下町","koaza":"","lat":34.794825,"lng":133.615451,"version":"14.0b/19.0a"},{"town":"新町","koaza":"","lat":34.798385,"lng":133.616991,"version":"14.0b/19.0a"},{"town":"大工町","koaza":"","lat":34.795718,"lng":133.616996,"version":"14.0b/19.0a"},{"town":"高倉町飯部","koaza":"","lat":34.858546,"lng":133.544042,"version":"14.0b/19.0a"},{"town":"高倉町大瀬八長","koaza":"","lat":34.812238,"lng":133.606738,"version":"14.0b/19.0a"},{"town":"高倉町田井","koaza":"","lat":34.83816,"lng":133.583358,"version":"14.0b/19.0a"},{"town":"玉川町下切","koaza":"","lat":34.752646,"lng":133.573613,"version":"14.0b/19.0a"},{"town":"玉川町玉","koaza":"","lat":34.755941,"lng":133.600396,"version":"14.0b/19.0a"},{"town":"玉川町増原","koaza":"","lat":34.733823,"lng":133.579872,"version":"14.0b/19.0a"},{"town":"段町","koaza":"","lat":34.779639,"lng":133.603816,"version":"14.0b/19.0a"},{"town":"中間町","koaza":"","lat":34.79505,"lng":133.614553,"version":"14.0b/19.0a"},{"town":"津川町今津","koaza":"","lat":34.823118,"lng":133.633204,"version":"14.0b/19.0a"},{"town":"津川町八川","koaza":"","lat":34.847489,"lng":133.630658,"version":"14.0b/19.0a"},{"town":"鉄砲町","koaza":"","lat":34.791414,"lng":133.613006,"version":"14.0b/19.0a"},{"town":"寺町","koaza":"","lat":34.795736,"lng":133.619353,"version":"14.0b/19.0a"},{"town":"中井町津々","koaza":"","lat":34.925704,"lng":133.603598,"version":"14.0b/19.0a"},{"town":"中井町西方","koaza":"","lat":34.898499,"lng":133.585423,"version":"14.0b/19.0a"},{"town":"中之町","koaza":"","lat":34.797275,"lng":133.618007,"version":"14.0b/19.0a"},{"town":"中原町","koaza":"","lat":34.785004,"lng":133.612226,"version":"14.0b/19.0a"},{"town":"成羽町相坂","koaza":"","lat":34.79555,"lng":133.471682,"version":"14.0b/19.0a"},{"town":"成羽町長地","koaza":"","lat":34.801666,"lng":133.46834,"version":"14.0b/19.0a"},{"town":"成羽町上日名","koaza":"","lat":34.74587,"lng":133.534644,"version":"14.0b/19.0a"},{"town":"成羽町小泉","koaza":"","lat":34.795284,"lng":133.492076,"version":"14.0b/19.0a"},{"town":"成羽町坂本","koaza":"","lat":34.865263,"lng":133.438451,"version":"14.0b/19.0a"},{"town":"成羽町佐々木","koaza":"","lat":34.774368,"lng":133.512804,"version":"14.0b/19.0a"},{"town":"成羽町下原","koaza":"","lat":34.770635,"lng":133.532996,"version":"14.0b/19.0a"},{"town":"成羽町下日名","koaza":"","lat":34.767627,"lng":133.552373,"version":"14.0b/19.0a"},{"town":"成羽町中野","koaza":"","lat":34.838603,"lng":133.460675,"version":"14.0b/19.0a"},{"town":"成羽町成羽","koaza":"","lat":34.789993,"lng":133.5271,"version":"14.0b/19.0a"},{"town":"成羽町羽根","koaza":"","lat":34.806637,"lng":133.485467,"version":"14.0b/19.0a"},{"town":"成羽町羽山","koaza":"","lat":34.810561,"lng":133.508012,"version":"14.0b/19.0a"},{"town":"成羽町吹屋","koaza":"","lat":34.868155,"lng":133.478685,"version":"14.0b/19.0a"},{"town":"成羽町布寄","koaza":"","lat":34.807151,"lng":133.44966,"version":"14.0b/19.0a"},{"town":"成羽町星原","koaza":"","lat":34.771825,"lng":133.524663,"version":"14.0b/19.0a"},{"town":"浜町","koaza":"","lat":34.789587,"lng":133.61864,"version":"14.0b/19.0a"},{"town":"原田北町","koaza":"","lat":34.78605,"lng":133.615927,"version":"14.0b/19.0a"},{"town":"原田南町","koaza":"","lat":34.782855,"lng":133.613023,"version":"14.0b/19.0a"},{"town":"東町","koaza":"","lat":34.792291,"lng":133.61581,"version":"14.0b/19.0a"},{"town":"備中町志藤用瀬","koaza":"","lat":34.781834,"lng":133.485247,"version":"14.0b/19.0a"},{"town":"備中町長屋","koaza":"","lat":34.788602,"lng":133.458989,"version":"14.0b/19.0a"},{"town":"備中町西山","koaza":"","lat":34.853305,"lng":133.356751,"version":"14.0b/19.0a"},{"town":"備中町西油野","koaza":"","lat":34.851737,"lng":133.4074,"version":"14.0b/19.0a"},{"town":"備中町東油野","koaza":"","lat":34.832545,"lng":133.428248,"version":"14.0b/19.0a"},{"town":"備中町平川","koaza":"","lat":34.796811,"lng":133.403962,"version":"14.0b/19.0a"},{"town":"備中町布賀","koaza":"","lat":34.774529,"lng":133.430878,"version":"14.0b/19.0a"},{"town":"備中町布瀬","koaza":"","lat":34.773168,"lng":133.460146,"version":"14.0b/19.0a"},{"town":"本町","koaza":"","lat":34.798375,"lng":133.615706,"version":"14.0b/19.0a"},{"town":"正宗町","koaza":"","lat":34.790473,"lng":133.617042,"version":"14.0b/19.0a"},{"town":"松原町大津寄","koaza":"","lat":34.809592,"lng":133.560389,"version":"14.0b/19.0a"},{"town":"松原町神原","koaza":"","lat":34.819921,"lng":133.584563,"version":"14.0b/19.0a"},{"town":"松原町春木","koaza":"","lat":34.831501,"lng":133.562116,"version":"14.0b/19.0a"},{"town":"松原町松岡","koaza":"","lat":34.821454,"lng":133.538337,"version":"14.0b/19.0a"},{"town":"松原通","koaza":"","lat":34.79233,"lng":133.617086,"version":"14.0b/19.0a"},{"town":"松山","koaza":"","lat":34.781205,"lng":133.641663,"version":"14.0b/19.0a"},{"town":"南町","koaza":"","lat":34.789365,"lng":133.613711,"version":"14.0b/19.0a"},{"town":"向町","koaza":"","lat":34.795379,"lng":133.618256,"version":"14.0b/19.0a"},{"town":"八幡町","koaza":"","lat":34.793682,"lng":133.616773,"version":"14.0b/19.0a"},{"town":"弓之町","koaza":"","lat":34.790993,"lng":133.613958,"version":"14.0b/19.0a"},{"town":"横町","koaza":"","lat":34.786496,"lng":133.610301,"version":"14.0b/19.0a"},{"town":"頼久寺町","koaza":"","lat":34.797379,"lng":133.619028,"version":"14.0b/19.0a"},{"town":"和田町","koaza":"","lat":34.792537,"lng":133.621285,"version":"14.0b/19.0a"}]