[{"town":"曙町一丁目","koaza":"","lat":35.155586,"lng":136.92985,"version":"13.0b/18.0a"},{"town":"曙町二丁目","koaza":"","lat":35.155173,"lng":136.932585,"version":"13.0b/18.0a"},{"town":"曙町三丁目","koaza":"","lat":35.154477,"lng":136.936569,"version":"13.0b/18.0a"},{"town":"阿由知通一丁目","koaza":"","lat":35.156799,"lng":136.935014,"version":"13.0b/18.0a"},{"town":"阿由知通二丁目","koaza":"","lat":35.153829,"lng":136.934464,"version":"13.0b/18.0a"},{"town":"阿由知通三丁目","koaza":"","lat":35.150937,"lng":136.933932,"version":"13.0b/18.0a"},{"town":"阿由知通四丁目","koaza":"","lat":35.148086,"lng":136.933574,"version":"13.0b/18.0a"},{"town":"阿由知通五丁目","koaza":"","lat":35.145654,"lng":136.933504,"version":"13.0b/18.0a"},{"town":"荒田町一丁目","koaza":"","lat":35.140098,"lng":136.939223,"version":"13.0b/18.0a"},{"town":"荒田町二丁目","koaza":"","lat":35.14007,"lng":136.940302,"version":"13.0b/18.0a"},{"town":"荒田町三丁目","koaza":"","lat":35.140188,"lng":136.941496,"version":"13.0b/18.0a"},{"town":"荒田町四丁目","koaza":"","lat":35.140199,"lng":136.942796,"version":"13.0b/18.0a"},{"town":"荒田町五丁目","koaza":"","lat":35.140268,"lng":136.94394,"version":"13.0b/18.0a"},{"town":"伊勝町一丁目","koaza":"","lat":35.155219,"lng":136.955174,"version":"13.0b/18.0a"},{"town":"伊勝町二丁目","koaza":"","lat":35.155283,"lng":136.957539,"version":"13.0b/18.0a"},{"town":"池端町一丁目","koaza":"","lat":35.143871,"lng":136.93003,"version":"13.0b/18.0a"},{"town":"池端町二丁目","koaza":"","lat":35.143948,"lng":136.931326,"version":"13.0b/18.0a"},{"town":"石仏町一丁目","koaza":"","lat":35.145951,"lng":136.936205,"version":"13.0b/18.0a"},{"town":"石仏町二丁目","koaza":"","lat":35.146197,"lng":136.93732,"version":"13.0b/18.0a"},{"town":"永金町一丁目","koaza":"","lat":35.142897,"lng":136.925959,"version":"13.0b/18.0a"},{"town":"永金町二丁目","koaza":"","lat":35.142245,"lng":136.926559,"version":"13.0b/18.0a"},{"town":"恵方町一丁目","koaza":"","lat":35.145554,"lng":136.927696,"version":"13.0b/18.0a"},{"town":"恵方町二丁目","koaza":"","lat":35.145145,"lng":136.9311,"version":"13.0b/18.0a"},{"town":"恵方町三丁目","koaza":"","lat":35.144685,"lng":136.934857,"version":"13.0b/18.0a"},{"town":"円上町","koaza":"","lat":35.142222,"lng":136.919891,"version":"13.0b/18.0a"},{"town":"折戸町一丁目","koaza":"","lat":35.157339,"lng":136.941431,"version":"13.0b/18.0a"},{"town":"折戸町二丁目","koaza":"","lat":35.156551,"lng":136.943185,"version":"13.0b/18.0a"},{"town":"折戸町三丁目","koaza":"","lat":35.155978,"lng":136.944616,"version":"13.0b/18.0a"},{"town":"折戸町四丁目","koaza":"","lat":35.155389,"lng":136.945821,"version":"13.0b/18.0a"},{"town":"折戸町五丁目","koaza":"","lat":35.155066,"lng":136.946948,"version":"13.0b/18.0a"},{"town":"折戸町六丁目","koaza":"","lat":35.154725,"lng":136.947823,"version":"13.0b/18.0a"},{"town":"神村町一丁目","koaza":"","lat":35.157779,"lng":136.956933,"version":"13.0b/18.0a"},{"town":"神村町二丁目","koaza":"","lat":35.157352,"lng":136.958279,"version":"13.0b/18.0a"},{"town":"上山町一丁目","koaza":"","lat":35.138574,"lng":136.946337,"version":"13.0b/18.0a"},{"town":"上山町二丁目","koaza":"","lat":35.138157,"lng":136.948085,"version":"13.0b/18.0a"},{"town":"上山町三丁目","koaza":"","lat":35.138057,"lng":136.949653,"version":"13.0b/18.0a"},{"town":"上山町四丁目","koaza":"","lat":35.138274,"lng":136.951084,"version":"13.0b/18.0a"},{"town":"川名町一丁目","koaza":"","lat":35.155526,"lng":136.940465,"version":"13.0b/18.0a"},{"town":"川名町二丁目","koaza":"","lat":35.154521,"lng":136.941589,"version":"13.0b/18.0a"},{"town":"川名町三丁目","koaza":"","lat":35.153718,"lng":136.942777,"version":"13.0b/18.0a"},{"town":"川名町四丁目","koaza":"","lat":35.153249,"lng":136.944498,"version":"13.0b/18.0a"},{"town":"川名町五丁目","koaza":"","lat":35.152678,"lng":136.945966,"version":"13.0b/18.0a"},{"town":"川名町六丁目","koaza":"","lat":35.151958,"lng":136.946834,"version":"13.0b/18.0a"},{"town":"川名本町一丁目","koaza":"","lat":35.152039,"lng":136.939376,"version":"13.0b/18.0a"},{"town":"川名本町二丁目","koaza":"","lat":35.151893,"lng":136.940315,"version":"13.0b/18.0a"},{"town":"川名本町三丁目","koaza":"","lat":35.151619,"lng":136.941578,"version":"13.0b/18.0a"},{"town":"川名本町四丁目","koaza":"","lat":35.150964,"lng":136.943536,"version":"13.0b/18.0a"},{"town":"川名本町五丁目","koaza":"","lat":35.150649,"lng":136.945196,"version":"13.0b/18.0a"},{"town":"川名本町六丁目","koaza":"","lat":35.15044,"lng":136.946306,"version":"13.0b/18.0a"},{"town":"川名山町","koaza":"","lat":35.146718,"lng":136.958295,"version":"13.0b/18.0a"},{"town":"川名山町一丁目","koaza":"","lat":35.146908,"lng":136.953945,"version":"13.0b/18.0a"},{"town":"川原通一丁目","koaza":"","lat":35.157323,"lng":136.952485,"version":"13.0b/18.0a"},{"town":"川原通二丁目","koaza":"","lat":35.155968,"lng":136.951825,"version":"13.0b/18.0a"},{"town":"川原通三丁目","koaza":"","lat":35.155209,"lng":136.951377,"version":"13.0b/18.0a"},{"town":"川原通四丁目","koaza":"","lat":35.154219,"lng":136.950889,"version":"13.0b/18.0a"},{"town":"川原通五丁目","koaza":"","lat":35.153512,"lng":136.950358,"version":"13.0b/18.0a"},{"town":"川原通六丁目","koaza":"","lat":35.152677,"lng":136.949854,"version":"13.0b/18.0a"},{"town":"川原通七丁目","koaza":"","lat":35.151756,"lng":136.949205,"version":"13.0b/18.0a"},{"town":"川原通八丁目","koaza":"","lat":35.150572,"lng":136.948137,"version":"13.0b/18.0a"},{"town":"菊園町一丁目","koaza":"","lat":35.138368,"lng":136.937723,"version":"13.0b/18.0a"},{"town":"菊園町二丁目","koaza":"","lat":35.138541,"lng":136.93909,"version":"13.0b/18.0a"},{"town":"菊園町三丁目","koaza":"","lat":35.13863,"lng":136.940413,"version":"13.0b/18.0a"},{"town":"菊園町四丁目","koaza":"","lat":35.138683,"lng":136.941593,"version":"13.0b/18.0a"},{"town":"菊園町五丁目","koaza":"","lat":35.138729,"lng":136.942877,"version":"13.0b/18.0a"},{"town":"菊園町六丁目","koaza":"","lat":35.138792,"lng":136.943915,"version":"13.0b/18.0a"},{"town":"北山町一丁目","koaza":"","lat":35.153771,"lng":136.929218,"version":"13.0b/18.0a"},{"town":"北山町二丁目","koaza":"","lat":35.152873,"lng":136.932054,"version":"13.0b/18.0a"},{"town":"北山町三丁目","koaza":"","lat":35.152243,"lng":136.936414,"version":"13.0b/18.0a"},{"town":"北山本町一丁目","koaza":"","lat":35.155361,"lng":136.928055,"version":"13.0b/18.0a"},{"town":"北山本町二丁目","koaza":"","lat":35.152918,"lng":136.927614,"version":"13.0b/18.0a"},{"town":"車田町一丁目","koaza":"","lat":35.157482,"lng":136.933943,"version":"13.0b/18.0a"},{"town":"車田町二丁目","koaza":"","lat":35.158139,"lng":136.933068,"version":"13.0b/18.0a"},{"town":"紅梅町一丁目","koaza":"","lat":35.148948,"lng":136.928275,"version":"13.0b/18.0a"},{"town":"紅梅町二丁目","koaza":"","lat":35.148918,"lng":136.931414,"version":"13.0b/18.0a"},{"town":"紅梅町三丁目","koaza":"","lat":35.148893,"lng":136.935628,"version":"13.0b/18.0a"},{"town":"御器所一丁目","koaza":"","lat":35.148842,"lng":136.918607,"version":"13.0b/18.0a"},{"town":"御器所二丁目","koaza":"","lat":35.148153,"lng":136.921571,"version":"13.0b/18.0a"},{"town":"御器所三丁目","koaza":"","lat":35.14776,"lng":136.924745,"version":"13.0b/18.0a"},{"town":"御器所四丁目","koaza":"","lat":35.145163,"lng":136.924101,"version":"13.0b/18.0a"},{"town":"御器所町","koaza":"","lat":35.156869,"lng":136.925226,"version":"13.0b/18.0a"},{"town":"御器所通一丁目","koaza":"","lat":35.149654,"lng":136.928203,"version":"13.0b/18.0a"},{"town":"御器所通二丁目","koaza":"","lat":35.149593,"lng":136.931505,"version":"13.0b/18.0a"},{"town":"御器所通三丁目","koaza":"","lat":35.149593,"lng":136.935902,"version":"13.0b/18.0a"},{"town":"五軒家町","koaza":"","lat":35.142905,"lng":136.949657,"version":"13.0b/18.0a"},{"town":"小坂町一丁目","koaza":"","lat":35.156642,"lng":136.935941,"version":"13.0b/18.0a"},{"town":"小坂町二丁目","koaza":"","lat":35.155664,"lng":136.936401,"version":"13.0b/18.0a"},{"town":"小坂町三丁目","koaza":"","lat":35.155139,"lng":136.936443,"version":"13.0b/18.0a"},{"town":"小桜町一丁目","koaza":"","lat":35.152158,"lng":136.928853,"version":"13.0b/18.0a"},{"town":"小桜町二丁目","koaza":"","lat":35.151569,"lng":136.931887,"version":"13.0b/18.0a"},{"town":"小桜町三丁目","koaza":"","lat":35.150865,"lng":136.935694,"version":"13.0b/18.0a"},{"town":"駒方町一丁目","koaza":"","lat":35.146276,"lng":136.947341,"version":"13.0b/18.0a"},{"town":"駒方町二丁目","koaza":"","lat":35.14675,"lng":136.948543,"version":"13.0b/18.0a"},{"town":"駒方町三丁目","koaza":"","lat":35.146379,"lng":136.950084,"version":"13.0b/18.0a"},{"town":"駒方町四丁目","koaza":"","lat":35.145735,"lng":136.951137,"version":"13.0b/18.0a"},{"town":"駒方町五丁目","koaza":"","lat":35.144847,"lng":136.952019,"version":"13.0b/18.0a"},{"town":"駒方町六丁目","koaza":"","lat":35.144227,"lng":136.952818,"version":"13.0b/18.0a"},{"town":"桜山町一丁目","koaza":"","lat":35.144429,"lng":136.933132,"version":"13.0b/18.0a"},{"town":"桜山町二丁目","koaza":"","lat":35.143682,"lng":136.933177,"version":"13.0b/18.0a"},{"town":"桜山町三丁目","koaza":"","lat":35.143019,"lng":136.933227,"version":"13.0b/18.0a"},{"town":"桜山町四丁目","koaza":"","lat":35.142209,"lng":136.933275,"version":"13.0b/18.0a"},{"town":"桜山町五丁目","koaza":"","lat":35.141304,"lng":136.93311,"version":"13.0b/18.0a"},{"town":"桜山町六丁目","koaza":"","lat":35.140581,"lng":136.933415,"version":"13.0b/18.0a"},{"town":"塩付通一丁目","koaza":"","lat":35.153154,"lng":136.938567,"version":"13.0b/18.0a"},{"town":"塩付通二丁目","koaza":"","lat":35.150925,"lng":136.938637,"version":"13.0b/18.0a"},{"town":"塩付通三丁目","koaza":"","lat":35.148232,"lng":136.938488,"version":"13.0b/18.0a"},{"town":"塩付通四丁目","koaza":"","lat":35.146287,"lng":136.938151,"version":"13.0b/18.0a"},{"town":"塩付通五丁目","koaza":"","lat":35.144797,"lng":136.938015,"version":"13.0b/18.0a"},{"town":"塩付通六丁目","koaza":"","lat":35.142699,"lng":136.937613,"version":"13.0b/18.0a"},{"town":"塩付通七丁目","koaza":"","lat":35.139878,"lng":136.937853,"version":"13.0b/18.0a"},{"town":"汐見町","koaza":"","lat":35.139836,"lng":136.948187,"version":"13.0b/18.0a"},{"town":"下構町一丁目","koaza":"","lat":35.142594,"lng":136.935032,"version":"13.0b/18.0a"},{"town":"下構町二丁目","koaza":"","lat":35.142622,"lng":136.936191,"version":"13.0b/18.0a"},{"town":"白金一丁目","koaza":"","lat":35.148698,"lng":136.915712,"version":"13.0b/18.0a"},{"town":"白金二丁目","koaza":"","lat":35.145664,"lng":136.916012,"version":"13.0b/18.0a"},{"town":"白金三丁目","koaza":"","lat":35.142165,"lng":136.916375,"version":"13.0b/18.0a"},{"town":"台町一丁目","koaza":"","lat":35.14801,"lng":136.928076,"version":"13.0b/18.0a"},{"town":"台町二丁目","koaza":"","lat":35.147805,"lng":136.931313,"version":"13.0b/18.0a"},{"town":"台町三丁目","koaza":"","lat":35.1478,"lng":136.934854,"version":"13.0b/18.0a"},{"town":"田面町一丁目","koaza":"","lat":35.157867,"lng":136.954005,"version":"13.0b/18.0a"},{"town":"田面町二丁目","koaza":"","lat":35.157736,"lng":136.955337,"version":"13.0b/18.0a"},{"town":"高辻町","koaza":"","lat":35.138652,"lng":136.916204,"version":"13.0b/18.0a"},{"town":"高峯町","koaza":"","lat":35.149564,"lng":136.967688,"version":"13.0b/18.0a"},{"town":"滝川町","koaza":"","lat":35.143003,"lng":136.958785,"version":"13.0b/18.0a"},{"town":"滝子町","koaza":"","lat":35.142166,"lng":136.923553,"version":"13.0b/18.0a"},{"town":"滝子通一丁目","koaza":"","lat":35.139742,"lng":136.920005,"version":"13.0b/18.0a"},{"town":"滝子通二丁目","koaza":"","lat":35.139899,"lng":136.921923,"version":"13.0b/18.0a"},{"town":"滝子通三丁目","koaza":"","lat":35.139791,"lng":136.924008,"version":"13.0b/18.0a"},{"town":"滝子通四丁目","koaza":"","lat":35.139837,"lng":136.925631,"version":"13.0b/18.0a"},{"town":"檀溪通一丁目","koaza":"","lat":35.147749,"lng":136.94702,"version":"13.0b/18.0a"},{"town":"檀溪通二丁目","koaza":"","lat":35.145847,"lng":136.946306,"version":"13.0b/18.0a"},{"town":"檀溪通三丁目","koaza":"","lat":35.144071,"lng":136.946163,"version":"13.0b/18.0a"},{"town":"檀溪通四丁目","koaza":"","lat":35.142426,"lng":136.945584,"version":"13.0b/18.0a"},{"town":"檀溪通五丁目","koaza":"","lat":35.140023,"lng":136.944798,"version":"13.0b/18.0a"},{"town":"鶴羽町一丁目","koaza":"","lat":35.152718,"lng":136.928891,"version":"13.0b/18.0a"},{"town":"鶴羽町二丁目","koaza":"","lat":35.15208,"lng":136.93182,"version":"13.0b/18.0a"},{"town":"鶴羽町三丁目","koaza":"","lat":35.151316,"lng":136.936275,"version":"13.0b/18.0a"},{"town":"鶴舞一丁目","koaza":"","lat":35.154938,"lng":136.920089,"version":"13.0b/18.0a"},{"town":"鶴舞二丁目","koaza":"","lat":35.152294,"lng":136.915535,"version":"13.0b/18.0a"},{"town":"鶴舞三丁目","koaza":"","lat":35.151458,"lng":136.919603,"version":"13.0b/18.0a"},{"town":"鶴舞四丁目","koaza":"","lat":35.151357,"lng":136.924558,"version":"13.0b/18.0a"},{"town":"鶴舞町","koaza":"","lat":35.157717,"lng":136.921245,"version":"13.0b/18.0a"},{"town":"出口町一丁目","koaza":"","lat":35.144706,"lng":136.926318,"version":"13.0b/18.0a"},{"town":"出口町二丁目","koaza":"","lat":35.144622,"lng":136.927276,"version":"13.0b/18.0a"},{"town":"出口町三丁目","koaza":"","lat":35.144555,"lng":136.928405,"version":"13.0b/18.0a"},{"town":"天神町一丁目","koaza":"","lat":35.148576,"lng":136.928117,"version":"13.0b/18.0a"},{"town":"天神町二丁目","koaza":"","lat":35.148388,"lng":136.931384,"version":"13.0b/18.0a"},{"town":"天神町三丁目","koaza":"","lat":35.148343,"lng":136.935591,"version":"13.0b/18.0a"},{"town":"東郊通九丁目","koaza":"","lat":35.139261,"lng":136.918729,"version":"13.0b/18.0a"},{"town":"陶生町一丁目","koaza":"","lat":35.14111,"lng":136.935157,"version":"13.0b/18.0a"},{"town":"陶生町二丁目","koaza":"","lat":35.141171,"lng":136.936261,"version":"13.0b/18.0a"},{"town":"東畑町一丁目","koaza":"","lat":35.15079,"lng":136.928304,"version":"13.0b/18.0a"},{"town":"東畑町二丁目","koaza":"","lat":35.15048,"lng":136.931558,"version":"13.0b/18.0a"},{"town":"戸田町一丁目","koaza":"","lat":35.141928,"lng":136.939028,"version":"13.0b/18.0a"},{"town":"戸田町二丁目","koaza":"","lat":35.142004,"lng":136.940042,"version":"13.0b/18.0a"},{"town":"戸田町三丁目","koaza":"","lat":35.142093,"lng":136.94134,"version":"13.0b/18.0a"},{"town":"戸田町四丁目","koaza":"","lat":35.142057,"lng":136.942645,"version":"13.0b/18.0a"},{"town":"戸田町五丁目","koaza":"","lat":35.142196,"lng":136.943978,"version":"13.0b/18.0a"},{"town":"長池町一丁目","koaza":"","lat":35.143153,"lng":136.938851,"version":"13.0b/18.0a"},{"town":"長池町二丁目","koaza":"","lat":35.143144,"lng":136.939944,"version":"13.0b/18.0a"},{"town":"長池町三丁目","koaza":"","lat":35.143153,"lng":136.941262,"version":"13.0b/18.0a"},{"town":"長池町四丁目","koaza":"","lat":35.143167,"lng":136.942553,"version":"13.0b/18.0a"},{"town":"長池町五丁目","koaza":"","lat":35.143394,"lng":136.944175,"version":"13.0b/18.0a"},{"town":"長戸町一丁目","koaza":"","lat":35.144621,"lng":136.938799,"version":"13.0b/18.0a"},{"town":"長戸町二丁目","koaza":"","lat":35.144693,"lng":136.939909,"version":"13.0b/18.0a"},{"town":"長戸町三丁目","koaza":"","lat":35.144642,"lng":136.941199,"version":"13.0b/18.0a"},{"town":"長戸町四丁目","koaza":"","lat":35.144502,"lng":136.942431,"version":"13.0b/18.0a"},{"town":"長戸町五丁目","koaza":"","lat":35.144517,"lng":136.943717,"version":"13.0b/18.0a"},{"town":"長戸町六丁目","koaza":"","lat":35.14466,"lng":136.945058,"version":"13.0b/18.0a"},{"town":"西畑町","koaza":"","lat":35.154676,"lng":136.953057,"version":"13.0b/18.0a"},{"town":"萩原町一丁目","koaza":"","lat":35.157535,"lng":136.949963,"version":"13.0b/18.0a"},{"town":"萩原町二丁目","koaza":"","lat":35.15667,"lng":136.950242,"version":"13.0b/18.0a"},{"town":"萩原町三丁目","koaza":"","lat":35.155769,"lng":136.949716,"version":"13.0b/18.0a"},{"town":"萩原町四丁目","koaza":"","lat":35.154899,"lng":136.949491,"version":"13.0b/18.0a"},{"town":"萩原町五丁目","koaza":"","lat":35.15393,"lng":136.949065,"version":"13.0b/18.0a"},{"town":"萩原町六丁目","koaza":"","lat":35.153057,"lng":136.94875,"version":"13.0b/18.0a"},{"town":"狭間町","koaza":"","lat":35.155551,"lng":136.926335,"version":"13.0b/18.0a"},{"town":"花見通一丁目","koaza":"","lat":35.15013,"lng":136.950021,"version":"13.0b/18.0a"},{"town":"花見通二丁目","koaza":"","lat":35.147186,"lng":136.951308,"version":"13.0b/18.0a"},{"town":"花見通三丁目","koaza":"","lat":35.145354,"lng":136.952594,"version":"13.0b/18.0a"},{"town":"隼人町","koaza":"","lat":35.142617,"lng":136.954363,"version":"13.0b/18.0a"},{"town":"広池町","koaza":"","lat":35.143041,"lng":136.928048,"version":"13.0b/18.0a"},{"town":"広路町","koaza":"","lat":35.138594,"lng":136.958913,"version":"13.0b/18.0a"},{"town":"広路通一丁目","koaza":"","lat":35.149456,"lng":136.938528,"version":"13.0b/18.0a"},{"town":"広路通二丁目","koaza":"","lat":35.149505,"lng":136.939971,"version":"13.0b/18.0a"},{"town":"広路通三丁目","koaza":"","lat":35.149579,"lng":136.941087,"version":"13.0b/18.0a"},{"town":"広路通四丁目","koaza":"","lat":35.149763,"lng":136.942195,"version":"13.0b/18.0a"},{"town":"広路通五丁目","koaza":"","lat":35.149257,"lng":136.944305,"version":"13.0b/18.0a"},{"town":"広路通六丁目","koaza":"","lat":35.149098,"lng":136.945948,"version":"13.0b/18.0a"},{"town":"広路通七丁目","koaza":"","lat":35.148854,"lng":136.947603,"version":"13.0b/18.0a"},{"town":"広路通八丁目","koaza":"","lat":35.148542,"lng":136.949495,"version":"13.0b/18.0a"},{"town":"広路本町一丁目","koaza":"","lat":35.148228,"lng":136.939196,"version":"13.0b/18.0a"},{"town":"広路本町二丁目","koaza":"","lat":35.148242,"lng":136.940027,"version":"13.0b/18.0a"},{"town":"広路本町三丁目","koaza":"","lat":35.148229,"lng":136.941183,"version":"13.0b/18.0a"},{"town":"広路本町四丁目","koaza":"","lat":35.148198,"lng":136.942486,"version":"13.0b/18.0a"},{"town":"広路本町五丁目","koaza":"","lat":35.148167,"lng":136.943997,"version":"13.0b/18.0a"},{"town":"広路本町六丁目","koaza":"","lat":35.147946,"lng":136.945571,"version":"13.0b/18.0a"},{"town":"広瀬町一丁目","koaza":"","lat":35.155043,"lng":136.930044,"version":"13.0b/18.0a"},{"town":"広瀬町二丁目","koaza":"","lat":35.154564,"lng":136.932407,"version":"13.0b/18.0a"},{"town":"広瀬町三丁目","koaza":"","lat":35.153837,"lng":136.936475,"version":"13.0b/18.0a"},{"town":"広見町一丁目","koaza":"","lat":35.140424,"lng":136.92583,"version":"13.0b/18.0a"},{"town":"広見町二丁目","koaza":"","lat":35.140441,"lng":136.926997,"version":"13.0b/18.0a"},{"town":"広見町三丁目","koaza":"","lat":35.140522,"lng":136.928036,"version":"13.0b/18.0a"},{"town":"広見町四丁目","koaza":"","lat":35.140539,"lng":136.929191,"version":"13.0b/18.0a"},{"town":"広見町五丁目","koaza":"","lat":35.140626,"lng":136.930388,"version":"13.0b/18.0a"},{"town":"広見町六丁目","koaza":"","lat":35.140627,"lng":136.931701,"version":"13.0b/18.0a"},{"town":"吹上一丁目","koaza":"","lat":35.157619,"lng":136.924237,"version":"13.0b/18.0a"},{"town":"吹上二丁目","koaza":"","lat":35.157479,"lng":136.93035,"version":"13.0b/18.0a"},{"town":"吹上町一丁目","koaza":"","lat":35.157143,"lng":136.9285,"version":"13.0b/18.0a"},{"town":"吹上町二丁目","koaza":"","lat":35.156073,"lng":136.932739,"version":"13.0b/18.0a"},{"town":"福江一丁目","koaza":"","lat":35.148446,"lng":136.912423,"version":"13.0b/18.0a"},{"town":"福江二丁目","koaza":"","lat":35.145623,"lng":136.912487,"version":"13.0b/18.0a"},{"town":"福江三丁目","koaza":"","lat":35.142001,"lng":136.913821,"version":"13.0b/18.0a"},{"town":"福原町一丁目","koaza":"","lat":35.157253,"lng":136.959227,"version":"13.0b/18.0a"},{"town":"福原町二丁目","koaza":"","lat":35.156936,"lng":136.960338,"version":"13.0b/18.0a"},{"town":"福原町三丁目","koaza":"","lat":35.156682,"lng":136.961263,"version":"13.0b/18.0a"},{"town":"藤成通一丁目","koaza":"","lat":35.141053,"lng":136.937566,"version":"13.0b/18.0a"},{"town":"藤成通二丁目","koaza":"","lat":35.141156,"lng":136.939003,"version":"13.0b/18.0a"},{"town":"藤成通三丁目","koaza":"","lat":35.141175,"lng":136.940214,"version":"13.0b/18.0a"},{"town":"藤成通四丁目","koaza":"","lat":35.141279,"lng":136.941402,"version":"13.0b/18.0a"},{"town":"藤成通五丁目","koaza":"","lat":35.141311,"lng":136.942685,"version":"13.0b/18.0a"},{"town":"藤成通六丁目","koaza":"","lat":35.14137,"lng":136.943966,"version":"13.0b/18.0a"},{"town":"前山町一丁目","koaza":"","lat":35.1528,"lng":136.95542,"version":"13.0b/18.0a"},{"town":"前山町二丁目","koaza":"","lat":35.152483,"lng":136.957073,"version":"13.0b/18.0a"},{"town":"前山町三丁目","koaza":"","lat":35.151791,"lng":136.957797,"version":"13.0b/18.0a"},{"town":"松風町一丁目","koaza":"","lat":35.146623,"lng":136.928009,"version":"13.0b/18.0a"},{"town":"松風町二丁目","koaza":"","lat":35.146224,"lng":136.931243,"version":"13.0b/18.0a"},{"town":"松風町三丁目","koaza":"","lat":35.145879,"lng":136.9348,"version":"13.0b/18.0a"},{"town":"丸屋町一丁目","koaza":"","lat":35.141335,"lng":136.92581,"version":"13.0b/18.0a"},{"town":"丸屋町二丁目","koaza":"","lat":35.141434,"lng":136.926922,"version":"13.0b/18.0a"},{"town":"丸屋町三丁目","koaza":"","lat":35.141455,"lng":136.927955,"version":"13.0b/18.0a"},{"town":"丸屋町四丁目","koaza":"","lat":35.14208,"lng":136.929067,"version":"13.0b/18.0a"},{"town":"丸屋町五丁目","koaza":"","lat":35.14211,"lng":136.930274,"version":"13.0b/18.0a"},{"town":"丸屋町六丁目","koaza":"","lat":35.142189,"lng":136.931458,"version":"13.0b/18.0a"},{"town":"緑町一丁目","koaza":"","lat":35.151552,"lng":136.928907,"version":"13.0b/18.0a"},{"town":"緑町二丁目","koaza":"","lat":35.151066,"lng":136.931634,"version":"13.0b/18.0a"},{"town":"緑町三丁目","koaza":"","lat":35.150382,"lng":136.936189,"version":"13.0b/18.0a"},{"town":"南山町","koaza":"","lat":35.140081,"lng":136.953525,"version":"13.0b/18.0a"},{"town":"南分町一丁目","koaza":"","lat":35.146418,"lng":136.93896,"version":"13.0b/18.0a"},{"town":"南分町二丁目","koaza":"","lat":35.146225,"lng":136.939986,"version":"13.0b/18.0a"},{"town":"南分町三丁目","koaza":"","lat":35.1464,"lng":136.941185,"version":"13.0b/18.0a"},{"town":"南分町四丁目","koaza":"","lat":35.146395,"lng":136.942475,"version":"13.0b/18.0a"},{"town":"南分町五丁目","koaza":"","lat":35.146342,"lng":136.943798,"version":"13.0b/18.0a"},{"town":"南分町六丁目","koaza":"","lat":35.146219,"lng":136.945106,"version":"13.0b/18.0a"},{"town":"宮東町","koaza":"","lat":35.154022,"lng":136.96,"version":"13.0b/18.0a"},{"town":"妙見町","koaza":"","lat":35.143887,"lng":136.966785,"version":"13.0b/18.0a"},{"town":"向山町一丁目","koaza":"","lat":35.151196,"lng":136.953619,"version":"13.0b/18.0a"},{"town":"向山町二丁目","koaza":"","lat":35.150485,"lng":136.954933,"version":"13.0b/18.0a"},{"town":"向山町三丁目","koaza":"","lat":35.149883,"lng":136.955604,"version":"13.0b/18.0a"},{"town":"村雲町","koaza":"","lat":35.145584,"lng":136.919943,"version":"13.0b/18.0a"},{"town":"明月町一丁目","koaza":"","lat":35.147324,"lng":136.928011,"version":"13.0b/18.0a"},{"town":"明月町二丁目","koaza":"","lat":35.147029,"lng":136.931272,"version":"13.0b/18.0a"},{"town":"明月町三丁目","koaza":"","lat":35.146811,"lng":136.934836,"version":"13.0b/18.0a"},{"town":"元宮町一丁目","koaza":"","lat":35.157581,"lng":136.941992,"version":"13.0b/18.0a"},{"town":"元宮町二丁目","koaza":"","lat":35.157333,"lng":136.943425,"version":"13.0b/18.0a"},{"town":"元宮町三丁目","koaza":"","lat":35.157926,"lng":136.945381,"version":"13.0b/18.0a"},{"town":"元宮町四丁目","koaza":"","lat":35.157694,"lng":136.94663,"version":"13.0b/18.0a"},{"town":"元宮町五丁目","koaza":"","lat":35.15734,"lng":136.947742,"version":"13.0b/18.0a"},{"town":"元宮町六丁目","koaza":"","lat":35.157241,"lng":136.948674,"version":"13.0b/18.0a"},{"town":"八雲町","koaza":"","lat":35.150785,"lng":136.962827,"version":"13.0b/18.0a"},{"town":"八事富士見","koaza":"","lat":35.144193,"lng":136.970302,"version":"13.0b/18.0a"},{"town":"八事本町","koaza":"","lat":35.140571,"lng":136.963208,"version":"13.0b/18.0a"},{"town":"安田通一丁目","koaza":"","lat":35.157045,"lng":136.940713,"version":"13.0b/18.0a"},{"town":"安田通二丁目","koaza":"","lat":35.155943,"lng":136.942765,"version":"13.0b/18.0a"},{"town":"安田通三丁目","koaza":"","lat":35.154994,"lng":136.943978,"version":"13.0b/18.0a"},{"town":"安田通四丁目","koaza":"","lat":35.154226,"lng":136.94527,"version":"13.0b/18.0a"},{"town":"安田通五丁目","koaza":"","lat":35.153562,"lng":136.946445,"version":"13.0b/18.0a"},{"town":"安田通六丁目","koaza":"","lat":35.152999,"lng":136.947228,"version":"13.0b/18.0a"},{"town":"安田通七丁目","koaza":"","lat":35.15249,"lng":136.948069,"version":"13.0b/18.0a"},{"town":"山里町","koaza":"","lat":35.146089,"lng":136.962606,"version":"13.0b/18.0a"},{"town":"大和町一丁目","koaza":"","lat":35.143868,"lng":136.93495,"version":"13.0b/18.0a"},{"town":"大和町二丁目","koaza":"","lat":35.143876,"lng":136.935662,"version":"13.0b/18.0a"},{"town":"山中町一丁目","koaza":"","lat":35.149635,"lng":136.952516,"version":"13.0b/18.0a"},{"town":"山中町二丁目","koaza":"","lat":35.148268,"lng":136.95286,"version":"13.0b/18.0a"},{"town":"山手通一丁目","koaza":"","lat":35.15129,"lng":136.966036,"version":"13.0b/18.0a"},{"town":"山手通二丁目","koaza":"","lat":35.148219,"lng":136.965365,"version":"13.0b/18.0a"},{"town":"山手通三丁目","koaza":"","lat":35.144661,"lng":136.96484,"version":"13.0b/18.0a"},{"town":"山手通四丁目","koaza":"","lat":35.141426,"lng":136.966221,"version":"13.0b/18.0a"},{"town":"山手通五丁目","koaza":"","lat":35.138476,"lng":136.967284,"version":"13.0b/18.0a"},{"town":"山花町","koaza":"","lat":35.152181,"lng":136.951845,"version":"13.0b/18.0a"},{"town":"山脇町一丁目","koaza":"","lat":35.153586,"lng":136.92457,"version":"13.0b/18.0a"},{"town":"山脇町二丁目","koaza":"","lat":35.153212,"lng":136.926131,"version":"13.0b/18.0a"},{"town":"山脇町三丁目","koaza":"","lat":35.152974,"lng":136.926826,"version":"13.0b/18.0a"},{"town":"山脇町四丁目","koaza":"","lat":35.154722,"lng":136.926558,"version":"13.0b/18.0a"},{"town":"雪見町一丁目","koaza":"","lat":35.154503,"lng":136.929719,"version":"13.0b/18.0a"},{"town":"雪見町二丁目","koaza":"","lat":35.153958,"lng":136.932335,"version":"13.0b/18.0a"},{"town":"雪見町三丁目","koaza":"","lat":35.153149,"lng":136.93644,"version":"13.0b/18.0a"},{"town":"楽園町","koaza":"","lat":35.149589,"lng":136.958556,"version":"13.0b/18.0a"},{"town":"若柳町一丁目","koaza":"","lat":35.14614,"lng":136.927963,"version":"13.0b/18.0a"},{"town":"若柳町二丁目","koaza":"","lat":35.145671,"lng":136.931314,"version":"13.0b/18.0a"},{"town":"若柳町三丁目","koaza":"","lat":35.145317,"lng":136.934781,"version":"13.0b/18.0a"},{"town":"御器所町","koaza":"木市","lat":35.156708,"lng":136.925524,"version":"13.0b/18.0a"},{"town":"広路町","koaza":"南山","lat":35.138703,"lng":136.955746,"version":"13.0b/18.0a"},{"town":"広路町","koaza":"松風園","lat":35.137485,"lng":136.95657,"version":"13.0b/18.0a"},{"town":"広路町","koaza":"隼人","lat":35.140533,"lng":136.957154,"version":"13.0b/18.0a"},{"town":"広路町","koaza":"梅園","lat":35.137436,"lng":136.958016,"version":"13.0b/18.0a"},{"town":"広路町","koaza":"石坂","lat":35.138254,"lng":136.960558,"version":"13.0b/18.0a"},{"town":"広路町","koaza":"雲雀ケ岡","lat":35.136094,"lng":136.959194,"version":"13.0b/18.0a"},{"town":"広路町","koaza":"北石坂","lat":35.136305,"lng":136.965308,"version":"13.0b/18.0a"},{"town":"曙町一丁目","koaza":"","lat":35.155586,"lng":136.92985,"version":"14.0b/19.0a"},{"town":"曙町二丁目","koaza":"","lat":35.155173,"lng":136.932585,"version":"14.0b/19.0a"},{"town":"曙町三丁目","koaza":"","lat":35.154477,"lng":136.936569,"version":"14.0b/19.0a"},{"town":"阿由知通一丁目","koaza":"","lat":35.156799,"lng":136.935014,"version":"14.0b/19.0a"},{"town":"阿由知通二丁目","koaza":"","lat":35.153829,"lng":136.934464,"version":"14.0b/19.0a"},{"town":"阿由知通三丁目","koaza":"","lat":35.150937,"lng":136.933932,"version":"14.0b/19.0a"},{"town":"阿由知通四丁目","koaza":"","lat":35.148086,"lng":136.933574,"version":"14.0b/19.0a"},{"town":"阿由知通五丁目","koaza":"","lat":35.145654,"lng":136.933504,"version":"14.0b/19.0a"},{"town":"荒田町一丁目","koaza":"","lat":35.140098,"lng":136.939223,"version":"14.0b/19.0a"},{"town":"荒田町二丁目","koaza":"","lat":35.14007,"lng":136.940302,"version":"14.0b/19.0a"},{"town":"荒田町三丁目","koaza":"","lat":35.140188,"lng":136.941496,"version":"14.0b/19.0a"},{"town":"荒田町四丁目","koaza":"","lat":35.140199,"lng":136.942796,"version":"14.0b/19.0a"},{"town":"荒田町五丁目","koaza":"","lat":35.140268,"lng":136.94394,"version":"14.0b/19.0a"},{"town":"伊勝町一丁目","koaza":"","lat":35.155219,"lng":136.955174,"version":"14.0b/19.0a"},{"town":"伊勝町二丁目","koaza":"","lat":35.155283,"lng":136.957539,"version":"14.0b/19.0a"},{"town":"池端町一丁目","koaza":"","lat":35.143871,"lng":136.93003,"version":"14.0b/19.0a"},{"town":"池端町二丁目","koaza":"","lat":35.143948,"lng":136.931326,"version":"14.0b/19.0a"},{"town":"石仏町一丁目","koaza":"","lat":35.145951,"lng":136.936205,"version":"14.0b/19.0a"},{"town":"石仏町二丁目","koaza":"","lat":35.146197,"lng":136.93732,"version":"14.0b/19.0a"},{"town":"永金町一丁目","koaza":"","lat":35.142897,"lng":136.925959,"version":"14.0b/19.0a"},{"town":"永金町二丁目","koaza":"","lat":35.142245,"lng":136.926559,"version":"14.0b/19.0a"},{"town":"恵方町一丁目","koaza":"","lat":35.145554,"lng":136.927696,"version":"14.0b/19.0a"},{"town":"恵方町二丁目","koaza":"","lat":35.145145,"lng":136.9311,"version":"14.0b/19.0a"},{"town":"恵方町三丁目","koaza":"","lat":35.144685,"lng":136.934857,"version":"14.0b/19.0a"},{"town":"円上町","koaza":"","lat":35.142222,"lng":136.919891,"version":"14.0b/19.0a"},{"town":"折戸町一丁目","koaza":"","lat":35.157339,"lng":136.941431,"version":"14.0b/19.0a"},{"town":"折戸町二丁目","koaza":"","lat":35.156551,"lng":136.943185,"version":"14.0b/19.0a"},{"town":"折戸町三丁目","koaza":"","lat":35.155978,"lng":136.944616,"version":"14.0b/19.0a"},{"town":"折戸町四丁目","koaza":"","lat":35.155389,"lng":136.945821,"version":"14.0b/19.0a"},{"town":"折戸町五丁目","koaza":"","lat":35.155066,"lng":136.946948,"version":"14.0b/19.0a"},{"town":"折戸町六丁目","koaza":"","lat":35.154725,"lng":136.947823,"version":"14.0b/19.0a"},{"town":"神村町一丁目","koaza":"","lat":35.157779,"lng":136.956933,"version":"14.0b/19.0a"},{"town":"神村町二丁目","koaza":"","lat":35.157352,"lng":136.958279,"version":"14.0b/19.0a"},{"town":"上山町一丁目","koaza":"","lat":35.138574,"lng":136.946337,"version":"14.0b/19.0a"},{"town":"上山町二丁目","koaza":"","lat":35.138157,"lng":136.948085,"version":"14.0b/19.0a"},{"town":"上山町三丁目","koaza":"","lat":35.138057,"lng":136.949653,"version":"14.0b/19.0a"},{"town":"上山町四丁目","koaza":"","lat":35.138274,"lng":136.951084,"version":"14.0b/19.0a"},{"town":"川名町一丁目","koaza":"","lat":35.155526,"lng":136.940465,"version":"14.0b/19.0a"},{"town":"川名町二丁目","koaza":"","lat":35.154521,"lng":136.941589,"version":"14.0b/19.0a"},{"town":"川名町三丁目","koaza":"","lat":35.153718,"lng":136.942777,"version":"14.0b/19.0a"},{"town":"川名町四丁目","koaza":"","lat":35.153249,"lng":136.944498,"version":"14.0b/19.0a"},{"town":"川名町五丁目","koaza":"","lat":35.152678,"lng":136.945966,"version":"14.0b/19.0a"},{"town":"川名町六丁目","koaza":"","lat":35.151958,"lng":136.946834,"version":"14.0b/19.0a"},{"town":"川名本町一丁目","koaza":"","lat":35.152039,"lng":136.939376,"version":"14.0b/19.0a"},{"town":"川名本町二丁目","koaza":"","lat":35.151893,"lng":136.940315,"version":"14.0b/19.0a"},{"town":"川名本町三丁目","koaza":"","lat":35.151619,"lng":136.941578,"version":"14.0b/19.0a"},{"town":"川名本町四丁目","koaza":"","lat":35.150964,"lng":136.943536,"version":"14.0b/19.0a"},{"town":"川名本町五丁目","koaza":"","lat":35.150649,"lng":136.945196,"version":"14.0b/19.0a"},{"town":"川名本町六丁目","koaza":"","lat":35.15044,"lng":136.946306,"version":"14.0b/19.0a"},{"town":"川名山町","koaza":"","lat":35.146718,"lng":136.958295,"version":"14.0b/19.0a"},{"town":"川名山町一丁目","koaza":"","lat":35.146908,"lng":136.953945,"version":"14.0b/19.0a"},{"town":"川原通一丁目","koaza":"","lat":35.157323,"lng":136.952485,"version":"14.0b/19.0a"},{"town":"川原通二丁目","koaza":"","lat":35.155968,"lng":136.951825,"version":"14.0b/19.0a"},{"town":"川原通三丁目","koaza":"","lat":35.155209,"lng":136.951377,"version":"14.0b/19.0a"},{"town":"川原通四丁目","koaza":"","lat":35.154219,"lng":136.950889,"version":"14.0b/19.0a"},{"town":"川原通五丁目","koaza":"","lat":35.153512,"lng":136.950358,"version":"14.0b/19.0a"},{"town":"川原通六丁目","koaza":"","lat":35.152677,"lng":136.949854,"version":"14.0b/19.0a"},{"town":"川原通七丁目","koaza":"","lat":35.151756,"lng":136.949205,"version":"14.0b/19.0a"},{"town":"川原通八丁目","koaza":"","lat":35.150572,"lng":136.948137,"version":"14.0b/19.0a"},{"town":"菊園町一丁目","koaza":"","lat":35.138368,"lng":136.937723,"version":"14.0b/19.0a"},{"town":"菊園町二丁目","koaza":"","lat":35.138541,"lng":136.93909,"version":"14.0b/19.0a"},{"town":"菊園町三丁目","koaza":"","lat":35.13863,"lng":136.940413,"version":"14.0b/19.0a"},{"town":"菊園町四丁目","koaza":"","lat":35.138683,"lng":136.941593,"version":"14.0b/19.0a"},{"town":"菊園町五丁目","koaza":"","lat":35.138729,"lng":136.942877,"version":"14.0b/19.0a"},{"town":"菊園町六丁目","koaza":"","lat":35.138792,"lng":136.943915,"version":"14.0b/19.0a"},{"town":"北山町一丁目","koaza":"","lat":35.153771,"lng":136.929218,"version":"14.0b/19.0a"},{"town":"北山町二丁目","koaza":"","lat":35.152873,"lng":136.932054,"version":"14.0b/19.0a"},{"town":"北山町三丁目","koaza":"","lat":35.152243,"lng":136.936414,"version":"14.0b/19.0a"},{"town":"北山本町一丁目","koaza":"","lat":35.155361,"lng":136.928055,"version":"14.0b/19.0a"},{"town":"北山本町二丁目","koaza":"","lat":35.152918,"lng":136.927614,"version":"14.0b/19.0a"},{"town":"車田町一丁目","koaza":"","lat":35.157482,"lng":136.933943,"version":"14.0b/19.0a"},{"town":"車田町二丁目","koaza":"","lat":35.158139,"lng":136.933068,"version":"14.0b/19.0a"},{"town":"紅梅町一丁目","koaza":"","lat":35.148948,"lng":136.928275,"version":"14.0b/19.0a"},{"town":"紅梅町二丁目","koaza":"","lat":35.148918,"lng":136.931414,"version":"14.0b/19.0a"},{"town":"紅梅町三丁目","koaza":"","lat":35.148893,"lng":136.935628,"version":"14.0b/19.0a"},{"town":"御器所一丁目","koaza":"","lat":35.148842,"lng":136.918607,"version":"14.0b/19.0a"},{"town":"御器所二丁目","koaza":"","lat":35.148153,"lng":136.921571,"version":"14.0b/19.0a"},{"town":"御器所三丁目","koaza":"","lat":35.14776,"lng":136.924745,"version":"14.0b/19.0a"},{"town":"御器所四丁目","koaza":"","lat":35.145163,"lng":136.924101,"version":"14.0b/19.0a"},{"town":"御器所町","koaza":"","lat":35.156869,"lng":136.925226,"version":"14.0b/19.0a"},{"town":"御器所通一丁目","koaza":"","lat":35.149654,"lng":136.928203,"version":"14.0b/19.0a"},{"town":"御器所通二丁目","koaza":"","lat":35.149593,"lng":136.931505,"version":"14.0b/19.0a"},{"town":"御器所通三丁目","koaza":"","lat":35.149593,"lng":136.935902,"version":"14.0b/19.0a"},{"town":"五軒家町","koaza":"","lat":35.142905,"lng":136.949657,"version":"14.0b/19.0a"},{"town":"小坂町一丁目","koaza":"","lat":35.156642,"lng":136.935941,"version":"14.0b/19.0a"},{"town":"小坂町二丁目","koaza":"","lat":35.155664,"lng":136.936401,"version":"14.0b/19.0a"},{"town":"小坂町三丁目","koaza":"","lat":35.155139,"lng":136.936443,"version":"14.0b/19.0a"},{"town":"小桜町一丁目","koaza":"","lat":35.152158,"lng":136.928853,"version":"14.0b/19.0a"},{"town":"小桜町二丁目","koaza":"","lat":35.151569,"lng":136.931887,"version":"14.0b/19.0a"},{"town":"小桜町三丁目","koaza":"","lat":35.150865,"lng":136.935694,"version":"14.0b/19.0a"},{"town":"駒方町一丁目","koaza":"","lat":35.146276,"lng":136.947341,"version":"14.0b/19.0a"},{"town":"駒方町二丁目","koaza":"","lat":35.14675,"lng":136.948543,"version":"14.0b/19.0a"},{"town":"駒方町三丁目","koaza":"","lat":35.146379,"lng":136.950084,"version":"14.0b/19.0a"},{"town":"駒方町四丁目","koaza":"","lat":35.145735,"lng":136.951137,"version":"14.0b/19.0a"},{"town":"駒方町五丁目","koaza":"","lat":35.144847,"lng":136.952019,"version":"14.0b/19.0a"},{"town":"駒方町六丁目","koaza":"","lat":35.144227,"lng":136.952818,"version":"14.0b/19.0a"},{"town":"桜山町一丁目","koaza":"","lat":35.144429,"lng":136.933132,"version":"14.0b/19.0a"},{"town":"桜山町二丁目","koaza":"","lat":35.143682,"lng":136.933177,"version":"14.0b/19.0a"},{"town":"桜山町三丁目","koaza":"","lat":35.143019,"lng":136.933227,"version":"14.0b/19.0a"},{"town":"桜山町四丁目","koaza":"","lat":35.142209,"lng":136.933275,"version":"14.0b/19.0a"},{"town":"桜山町五丁目","koaza":"","lat":35.141304,"lng":136.93311,"version":"14.0b/19.0a"},{"town":"桜山町六丁目","koaza":"","lat":35.140581,"lng":136.933415,"version":"14.0b/19.0a"},{"town":"塩付通一丁目","koaza":"","lat":35.153154,"lng":136.938567,"version":"14.0b/19.0a"},{"town":"塩付通二丁目","koaza":"","lat":35.150925,"lng":136.938637,"version":"14.0b/19.0a"},{"town":"塩付通三丁目","koaza":"","lat":35.148232,"lng":136.938488,"version":"14.0b/19.0a"},{"town":"塩付通四丁目","koaza":"","lat":35.146287,"lng":136.938151,"version":"14.0b/19.0a"},{"town":"塩付通五丁目","koaza":"","lat":35.144797,"lng":136.938015,"version":"14.0b/19.0a"},{"town":"塩付通六丁目","koaza":"","lat":35.142699,"lng":136.937613,"version":"14.0b/19.0a"},{"town":"塩付通七丁目","koaza":"","lat":35.139878,"lng":136.937853,"version":"14.0b/19.0a"},{"town":"汐見町","koaza":"","lat":35.139836,"lng":136.948187,"version":"14.0b/19.0a"},{"town":"下構町一丁目","koaza":"","lat":35.142594,"lng":136.935032,"version":"14.0b/19.0a"},{"town":"下構町二丁目","koaza":"","lat":35.142622,"lng":136.936191,"version":"14.0b/19.0a"},{"town":"白金一丁目","koaza":"","lat":35.148698,"lng":136.915712,"version":"14.0b/19.0a"},{"town":"白金二丁目","koaza":"","lat":35.145664,"lng":136.916012,"version":"14.0b/19.0a"},{"town":"白金三丁目","koaza":"","lat":35.142165,"lng":136.916375,"version":"14.0b/19.0a"},{"town":"台町一丁目","koaza":"","lat":35.14801,"lng":136.928076,"version":"14.0b/19.0a"},{"town":"台町二丁目","koaza":"","lat":35.147805,"lng":136.931313,"version":"14.0b/19.0a"},{"town":"台町三丁目","koaza":"","lat":35.1478,"lng":136.934854,"version":"14.0b/19.0a"},{"town":"田面町一丁目","koaza":"","lat":35.157867,"lng":136.954005,"version":"14.0b/19.0a"},{"town":"田面町二丁目","koaza":"","lat":35.157736,"lng":136.955337,"version":"14.0b/19.0a"},{"town":"高辻町","koaza":"","lat":35.138652,"lng":136.916204,"version":"14.0b/19.0a"},{"town":"高峯町","koaza":"","lat":35.149564,"lng":136.967688,"version":"14.0b/19.0a"},{"town":"滝川町","koaza":"","lat":35.143003,"lng":136.958785,"version":"14.0b/19.0a"},{"town":"滝子町","koaza":"","lat":35.142166,"lng":136.923553,"version":"14.0b/19.0a"},{"town":"滝子通一丁目","koaza":"","lat":35.139742,"lng":136.920005,"version":"14.0b/19.0a"},{"town":"滝子通二丁目","koaza":"","lat":35.139899,"lng":136.921923,"version":"14.0b/19.0a"},{"town":"滝子通三丁目","koaza":"","lat":35.139791,"lng":136.924008,"version":"14.0b/19.0a"},{"town":"滝子通四丁目","koaza":"","lat":35.139837,"lng":136.925631,"version":"14.0b/19.0a"},{"town":"檀溪通一丁目","koaza":"","lat":35.147749,"lng":136.94702,"version":"14.0b/19.0a"},{"town":"檀溪通二丁目","koaza":"","lat":35.145847,"lng":136.946306,"version":"14.0b/19.0a"},{"town":"檀溪通三丁目","koaza":"","lat":35.144071,"lng":136.946163,"version":"14.0b/19.0a"},{"town":"檀溪通四丁目","koaza":"","lat":35.142426,"lng":136.945584,"version":"14.0b/19.0a"},{"town":"檀溪通五丁目","koaza":"","lat":35.140023,"lng":136.944798,"version":"14.0b/19.0a"},{"town":"鶴羽町一丁目","koaza":"","lat":35.152718,"lng":136.928891,"version":"14.0b/19.0a"},{"town":"鶴羽町二丁目","koaza":"","lat":35.15208,"lng":136.93182,"version":"14.0b/19.0a"},{"town":"鶴羽町三丁目","koaza":"","lat":35.151316,"lng":136.936275,"version":"14.0b/19.0a"},{"town":"鶴舞一丁目","koaza":"","lat":35.154938,"lng":136.920089,"version":"14.0b/19.0a"},{"town":"鶴舞二丁目","koaza":"","lat":35.152294,"lng":136.915535,"version":"14.0b/19.0a"},{"town":"鶴舞三丁目","koaza":"","lat":35.151458,"lng":136.919603,"version":"14.0b/19.0a"},{"town":"鶴舞四丁目","koaza":"","lat":35.151357,"lng":136.924558,"version":"14.0b/19.0a"},{"town":"鶴舞町","koaza":"","lat":35.157717,"lng":136.921245,"version":"14.0b/19.0a"},{"town":"出口町一丁目","koaza":"","lat":35.144706,"lng":136.926318,"version":"14.0b/19.0a"},{"town":"出口町二丁目","koaza":"","lat":35.144622,"lng":136.927276,"version":"14.0b/19.0a"},{"town":"出口町三丁目","koaza":"","lat":35.144555,"lng":136.928405,"version":"14.0b/19.0a"},{"town":"天神町一丁目","koaza":"","lat":35.148576,"lng":136.928117,"version":"14.0b/19.0a"},{"town":"天神町二丁目","koaza":"","lat":35.148388,"lng":136.931384,"version":"14.0b/19.0a"},{"town":"天神町三丁目","koaza":"","lat":35.148343,"lng":136.935591,"version":"14.0b/19.0a"},{"town":"東郊通九丁目","koaza":"","lat":35.139261,"lng":136.918729,"version":"14.0b/19.0a"},{"town":"陶生町一丁目","koaza":"","lat":35.14111,"lng":136.935157,"version":"14.0b/19.0a"},{"town":"陶生町二丁目","koaza":"","lat":35.141171,"lng":136.936261,"version":"14.0b/19.0a"},{"town":"東畑町一丁目","koaza":"","lat":35.15079,"lng":136.928304,"version":"14.0b/19.0a"},{"town":"東畑町二丁目","koaza":"","lat":35.15048,"lng":136.931558,"version":"14.0b/19.0a"},{"town":"戸田町一丁目","koaza":"","lat":35.141928,"lng":136.939028,"version":"14.0b/19.0a"},{"town":"戸田町二丁目","koaza":"","lat":35.142004,"lng":136.940042,"version":"14.0b/19.0a"},{"town":"戸田町三丁目","koaza":"","lat":35.142093,"lng":136.94134,"version":"14.0b/19.0a"},{"town":"戸田町四丁目","koaza":"","lat":35.142057,"lng":136.942645,"version":"14.0b/19.0a"},{"town":"戸田町五丁目","koaza":"","lat":35.142196,"lng":136.943978,"version":"14.0b/19.0a"},{"town":"長池町一丁目","koaza":"","lat":35.143153,"lng":136.938851,"version":"14.0b/19.0a"},{"town":"長池町二丁目","koaza":"","lat":35.143144,"lng":136.939944,"version":"14.0b/19.0a"},{"town":"長池町三丁目","koaza":"","lat":35.143153,"lng":136.941262,"version":"14.0b/19.0a"},{"town":"長池町四丁目","koaza":"","lat":35.143167,"lng":136.942553,"version":"14.0b/19.0a"},{"town":"長池町五丁目","koaza":"","lat":35.143394,"lng":136.944175,"version":"14.0b/19.0a"},{"town":"長戸町一丁目","koaza":"","lat":35.144621,"lng":136.938799,"version":"14.0b/19.0a"},{"town":"長戸町二丁目","koaza":"","lat":35.144693,"lng":136.939909,"version":"14.0b/19.0a"},{"town":"長戸町三丁目","koaza":"","lat":35.144642,"lng":136.941199,"version":"14.0b/19.0a"},{"town":"長戸町四丁目","koaza":"","lat":35.144502,"lng":136.942431,"version":"14.0b/19.0a"},{"town":"長戸町五丁目","koaza":"","lat":35.144517,"lng":136.943717,"version":"14.0b/19.0a"},{"town":"長戸町六丁目","koaza":"","lat":35.14466,"lng":136.945058,"version":"14.0b/19.0a"},{"town":"西畑町","koaza":"","lat":35.154676,"lng":136.953057,"version":"14.0b/19.0a"},{"town":"萩原町一丁目","koaza":"","lat":35.157535,"lng":136.949963,"version":"14.0b/19.0a"},{"town":"萩原町二丁目","koaza":"","lat":35.15667,"lng":136.950242,"version":"14.0b/19.0a"},{"town":"萩原町三丁目","koaza":"","lat":35.155769,"lng":136.949716,"version":"14.0b/19.0a"},{"town":"萩原町四丁目","koaza":"","lat":35.154899,"lng":136.949491,"version":"14.0b/19.0a"},{"town":"萩原町五丁目","koaza":"","lat":35.15393,"lng":136.949065,"version":"14.0b/19.0a"},{"town":"萩原町六丁目","koaza":"","lat":35.153057,"lng":136.94875,"version":"14.0b/19.0a"},{"town":"狭間町","koaza":"","lat":35.155551,"lng":136.926335,"version":"14.0b/19.0a"},{"town":"花見通一丁目","koaza":"","lat":35.15013,"lng":136.950021,"version":"14.0b/19.0a"},{"town":"花見通二丁目","koaza":"","lat":35.147186,"lng":136.951308,"version":"14.0b/19.0a"},{"town":"花見通三丁目","koaza":"","lat":35.145354,"lng":136.952594,"version":"14.0b/19.0a"},{"town":"隼人町","koaza":"","lat":35.142617,"lng":136.954363,"version":"14.0b/19.0a"},{"town":"広池町","koaza":"","lat":35.143041,"lng":136.928048,"version":"14.0b/19.0a"},{"town":"広路町","koaza":"","lat":35.138594,"lng":136.958913,"version":"14.0b/19.0a"},{"town":"広路通一丁目","koaza":"","lat":35.149456,"lng":136.938528,"version":"14.0b/19.0a"},{"town":"広路通二丁目","koaza":"","lat":35.149505,"lng":136.939971,"version":"14.0b/19.0a"},{"town":"広路通三丁目","koaza":"","lat":35.149579,"lng":136.941087,"version":"14.0b/19.0a"},{"town":"広路通四丁目","koaza":"","lat":35.149763,"lng":136.942195,"version":"14.0b/19.0a"},{"town":"広路通五丁目","koaza":"","lat":35.149257,"lng":136.944305,"version":"14.0b/19.0a"},{"town":"広路通六丁目","koaza":"","lat":35.149098,"lng":136.945948,"version":"14.0b/19.0a"},{"town":"広路通七丁目","koaza":"","lat":35.148854,"lng":136.947603,"version":"14.0b/19.0a"},{"town":"広路通八丁目","koaza":"","lat":35.148542,"lng":136.949495,"version":"14.0b/19.0a"},{"town":"広路本町一丁目","koaza":"","lat":35.148228,"lng":136.939196,"version":"14.0b/19.0a"},{"town":"広路本町二丁目","koaza":"","lat":35.148242,"lng":136.940027,"version":"14.0b/19.0a"},{"town":"広路本町三丁目","koaza":"","lat":35.148229,"lng":136.941183,"version":"14.0b/19.0a"},{"town":"広路本町四丁目","koaza":"","lat":35.148198,"lng":136.942486,"version":"14.0b/19.0a"},{"town":"広路本町五丁目","koaza":"","lat":35.148167,"lng":136.943997,"version":"14.0b/19.0a"},{"town":"広路本町六丁目","koaza":"","lat":35.147946,"lng":136.945571,"version":"14.0b/19.0a"},{"town":"広瀬町一丁目","koaza":"","lat":35.155043,"lng":136.930044,"version":"14.0b/19.0a"},{"town":"広瀬町二丁目","koaza":"","lat":35.154564,"lng":136.932407,"version":"14.0b/19.0a"},{"town":"広瀬町三丁目","koaza":"","lat":35.153837,"lng":136.936475,"version":"14.0b/19.0a"},{"town":"広見町一丁目","koaza":"","lat":35.140424,"lng":136.92583,"version":"14.0b/19.0a"},{"town":"広見町二丁目","koaza":"","lat":35.140441,"lng":136.926997,"version":"14.0b/19.0a"},{"town":"広見町三丁目","koaza":"","lat":35.140522,"lng":136.928036,"version":"14.0b/19.0a"},{"town":"広見町四丁目","koaza":"","lat":35.140539,"lng":136.929191,"version":"14.0b/19.0a"},{"town":"広見町五丁目","koaza":"","lat":35.140626,"lng":136.930388,"version":"14.0b/19.0a"},{"town":"広見町六丁目","koaza":"","lat":35.140627,"lng":136.931701,"version":"14.0b/19.0a"},{"town":"吹上一丁目","koaza":"","lat":35.157619,"lng":136.924237,"version":"14.0b/19.0a"},{"town":"吹上二丁目","koaza":"","lat":35.157479,"lng":136.93035,"version":"14.0b/19.0a"},{"town":"吹上町一丁目","koaza":"","lat":35.157143,"lng":136.9285,"version":"14.0b/19.0a"},{"town":"吹上町二丁目","koaza":"","lat":35.156073,"lng":136.932739,"version":"14.0b/19.0a"},{"town":"福江一丁目","koaza":"","lat":35.148446,"lng":136.912423,"version":"14.0b/19.0a"},{"town":"福江二丁目","koaza":"","lat":35.145623,"lng":136.912487,"version":"14.0b/19.0a"},{"town":"福江三丁目","koaza":"","lat":35.142001,"lng":136.913821,"version":"14.0b/19.0a"},{"town":"福原町一丁目","koaza":"","lat":35.157253,"lng":136.959227,"version":"14.0b/19.0a"},{"town":"福原町二丁目","koaza":"","lat":35.156936,"lng":136.960338,"version":"14.0b/19.0a"},{"town":"福原町三丁目","koaza":"","lat":35.156682,"lng":136.961263,"version":"14.0b/19.0a"},{"town":"藤成通一丁目","koaza":"","lat":35.141053,"lng":136.937566,"version":"14.0b/19.0a"},{"town":"藤成通二丁目","koaza":"","lat":35.141156,"lng":136.939003,"version":"14.0b/19.0a"},{"town":"藤成通三丁目","koaza":"","lat":35.141175,"lng":136.940214,"version":"14.0b/19.0a"},{"town":"藤成通四丁目","koaza":"","lat":35.141279,"lng":136.941402,"version":"14.0b/19.0a"},{"town":"藤成通五丁目","koaza":"","lat":35.141311,"lng":136.942685,"version":"14.0b/19.0a"},{"town":"藤成通六丁目","koaza":"","lat":35.14137,"lng":136.943966,"version":"14.0b/19.0a"},{"town":"前山町一丁目","koaza":"","lat":35.1528,"lng":136.95542,"version":"14.0b/19.0a"},{"town":"前山町二丁目","koaza":"","lat":35.152483,"lng":136.957073,"version":"14.0b/19.0a"},{"town":"前山町三丁目","koaza":"","lat":35.151791,"lng":136.957797,"version":"14.0b/19.0a"},{"town":"松風町一丁目","koaza":"","lat":35.146623,"lng":136.928009,"version":"14.0b/19.0a"},{"town":"松風町二丁目","koaza":"","lat":35.146224,"lng":136.931243,"version":"14.0b/19.0a"},{"town":"松風町三丁目","koaza":"","lat":35.145879,"lng":136.9348,"version":"14.0b/19.0a"},{"town":"丸屋町一丁目","koaza":"","lat":35.141335,"lng":136.92581,"version":"14.0b/19.0a"},{"town":"丸屋町二丁目","koaza":"","lat":35.141434,"lng":136.926922,"version":"14.0b/19.0a"},{"town":"丸屋町三丁目","koaza":"","lat":35.141455,"lng":136.927955,"version":"14.0b/19.0a"},{"town":"丸屋町四丁目","koaza":"","lat":35.14208,"lng":136.929067,"version":"14.0b/19.0a"},{"town":"丸屋町五丁目","koaza":"","lat":35.14211,"lng":136.930274,"version":"14.0b/19.0a"},{"town":"丸屋町六丁目","koaza":"","lat":35.142189,"lng":136.931458,"version":"14.0b/19.0a"},{"town":"緑町一丁目","koaza":"","lat":35.151552,"lng":136.928907,"version":"14.0b/19.0a"},{"town":"緑町二丁目","koaza":"","lat":35.151066,"lng":136.931634,"version":"14.0b/19.0a"},{"town":"緑町三丁目","koaza":"","lat":35.150382,"lng":136.936189,"version":"14.0b/19.0a"},{"town":"南山町","koaza":"","lat":35.140081,"lng":136.953525,"version":"14.0b/19.0a"},{"town":"南分町一丁目","koaza":"","lat":35.146418,"lng":136.93896,"version":"14.0b/19.0a"},{"town":"南分町二丁目","koaza":"","lat":35.146225,"lng":136.939986,"version":"14.0b/19.0a"},{"town":"南分町三丁目","koaza":"","lat":35.1464,"lng":136.941185,"version":"14.0b/19.0a"},{"town":"南分町四丁目","koaza":"","lat":35.146395,"lng":136.942475,"version":"14.0b/19.0a"},{"town":"南分町五丁目","koaza":"","lat":35.146342,"lng":136.943798,"version":"14.0b/19.0a"},{"town":"南分町六丁目","koaza":"","lat":35.146219,"lng":136.945106,"version":"14.0b/19.0a"},{"town":"宮東町","koaza":"","lat":35.154022,"lng":136.96,"version":"14.0b/19.0a"},{"town":"妙見町","koaza":"","lat":35.143887,"lng":136.966785,"version":"14.0b/19.0a"},{"town":"向山町一丁目","koaza":"","lat":35.151196,"lng":136.953619,"version":"14.0b/19.0a"},{"town":"向山町二丁目","koaza":"","lat":35.150485,"lng":136.954933,"version":"14.0b/19.0a"},{"town":"向山町三丁目","koaza":"","lat":35.149883,"lng":136.955604,"version":"14.0b/19.0a"},{"town":"村雲町","koaza":"","lat":35.145584,"lng":136.919943,"version":"14.0b/19.0a"},{"town":"明月町一丁目","koaza":"","lat":35.147324,"lng":136.928011,"version":"14.0b/19.0a"},{"town":"明月町二丁目","koaza":"","lat":35.147029,"lng":136.931272,"version":"14.0b/19.0a"},{"town":"明月町三丁目","koaza":"","lat":35.146811,"lng":136.934836,"version":"14.0b/19.0a"},{"town":"元宮町一丁目","koaza":"","lat":35.157581,"lng":136.941992,"version":"14.0b/19.0a"},{"town":"元宮町二丁目","koaza":"","lat":35.157333,"lng":136.943425,"version":"14.0b/19.0a"},{"town":"元宮町三丁目","koaza":"","lat":35.157926,"lng":136.945381,"version":"14.0b/19.0a"},{"town":"元宮町四丁目","koaza":"","lat":35.157694,"lng":136.94663,"version":"14.0b/19.0a"},{"town":"元宮町五丁目","koaza":"","lat":35.15734,"lng":136.947742,"version":"14.0b/19.0a"},{"town":"元宮町六丁目","koaza":"","lat":35.157241,"lng":136.948674,"version":"14.0b/19.0a"},{"town":"八雲町","koaza":"","lat":35.150785,"lng":136.962827,"version":"14.0b/19.0a"},{"town":"八事富士見","koaza":"","lat":35.144193,"lng":136.970302,"version":"14.0b/19.0a"},{"town":"八事本町","koaza":"","lat":35.140571,"lng":136.963208,"version":"14.0b/19.0a"},{"town":"安田通一丁目","koaza":"","lat":35.157045,"lng":136.940713,"version":"14.0b/19.0a"},{"town":"安田通二丁目","koaza":"","lat":35.155943,"lng":136.942765,"version":"14.0b/19.0a"},{"town":"安田通三丁目","koaza":"","lat":35.154994,"lng":136.943978,"version":"14.0b/19.0a"},{"town":"安田通四丁目","koaza":"","lat":35.154226,"lng":136.94527,"version":"14.0b/19.0a"},{"town":"安田通五丁目","koaza":"","lat":35.153562,"lng":136.946445,"version":"14.0b/19.0a"},{"town":"安田通六丁目","koaza":"","lat":35.152999,"lng":136.947228,"version":"14.0b/19.0a"},{"town":"安田通七丁目","koaza":"","lat":35.15249,"lng":136.948069,"version":"14.0b/19.0a"},{"town":"山里町","koaza":"","lat":35.146089,"lng":136.962606,"version":"14.0b/19.0a"},{"town":"大和町一丁目","koaza":"","lat":35.143868,"lng":136.93495,"version":"14.0b/19.0a"},{"town":"大和町二丁目","koaza":"","lat":35.143876,"lng":136.935662,"version":"14.0b/19.0a"},{"town":"山中町一丁目","koaza":"","lat":35.149635,"lng":136.952516,"version":"14.0b/19.0a"},{"town":"山中町二丁目","koaza":"","lat":35.148268,"lng":136.95286,"version":"14.0b/19.0a"},{"town":"山手通一丁目","koaza":"","lat":35.15129,"lng":136.966036,"version":"14.0b/19.0a"},{"town":"山手通二丁目","koaza":"","lat":35.148219,"lng":136.965365,"version":"14.0b/19.0a"},{"town":"山手通三丁目","koaza":"","lat":35.144661,"lng":136.96484,"version":"14.0b/19.0a"},{"town":"山手通四丁目","koaza":"","lat":35.141426,"lng":136.966221,"version":"14.0b/19.0a"},{"town":"山手通五丁目","koaza":"","lat":35.138476,"lng":136.967284,"version":"14.0b/19.0a"},{"town":"山花町","koaza":"","lat":35.152181,"lng":136.951845,"version":"14.0b/19.0a"},{"town":"山脇町一丁目","koaza":"","lat":35.153586,"lng":136.92457,"version":"14.0b/19.0a"},{"town":"山脇町二丁目","koaza":"","lat":35.153212,"lng":136.926131,"version":"14.0b/19.0a"},{"town":"山脇町三丁目","koaza":"","lat":35.152974,"lng":136.926826,"version":"14.0b/19.0a"},{"town":"山脇町四丁目","koaza":"","lat":35.154722,"lng":136.926558,"version":"14.0b/19.0a"},{"town":"雪見町一丁目","koaza":"","lat":35.154503,"lng":136.929719,"version":"14.0b/19.0a"},{"town":"雪見町二丁目","koaza":"","lat":35.153958,"lng":136.932335,"version":"14.0b/19.0a"},{"town":"雪見町三丁目","koaza":"","lat":35.153149,"lng":136.93644,"version":"14.0b/19.0a"},{"town":"楽園町","koaza":"","lat":35.149589,"lng":136.958556,"version":"14.0b/19.0a"},{"town":"若柳町一丁目","koaza":"","lat":35.14614,"lng":136.927963,"version":"14.0b/19.0a"},{"town":"若柳町二丁目","koaza":"","lat":35.145671,"lng":136.931314,"version":"14.0b/19.0a"},{"town":"若柳町三丁目","koaza":"","lat":35.145317,"lng":136.934781,"version":"14.0b/19.0a"},{"town":"御器所町","koaza":"木市","lat":35.156708,"lng":136.925524,"version":"14.0b/19.0a"},{"town":"広路町","koaza":"南山","lat":35.138703,"lng":136.955746,"version":"14.0b/19.0a"},{"town":"広路町","koaza":"松風園","lat":35.137485,"lng":136.95657,"version":"14.0b/19.0a"},{"town":"広路町","koaza":"隼人","lat":35.140533,"lng":136.957154,"version":"14.0b/19.0a"},{"town":"広路町","koaza":"梅園","lat":35.137436,"lng":136.958016,"version":"14.0b/19.0a"},{"town":"広路町","koaza":"石坂","lat":35.138254,"lng":136.960558,"version":"14.0b/19.0a"},{"town":"広路町","koaza":"雲雀ケ岡","lat":35.136094,"lng":136.959194,"version":"14.0b/19.0a"},{"town":"広路町","koaza":"北石坂","lat":35.136305,"lng":136.965308,"version":"14.0b/19.0a"}]