[{"town":"赤重町","koaza":"","lat":35.210186,"lng":137.080485,"version":"13.0b/18.0a"},{"town":"暁町","koaza":"","lat":35.241505,"lng":137.103048,"version":"13.0b/18.0a"},{"town":"赤津町","koaza":"","lat":35.226187,"lng":137.130141,"version":"13.0b/18.0a"},{"town":"秋葉町","koaza":"","lat":35.221862,"lng":137.103965,"version":"13.0b/18.0a"},{"town":"朝日町","koaza":"","lat":35.226519,"lng":137.10097,"version":"13.0b/18.0a"},{"town":"東町","koaza":"","lat":35.221058,"lng":137.1174,"version":"13.0b/18.0a"},{"town":"汗干町","koaza":"","lat":35.223304,"lng":137.080048,"version":"13.0b/18.0a"},{"town":"穴田町","koaza":"","lat":35.247893,"lng":137.099743,"version":"13.0b/18.0a"},{"town":"池田町","koaza":"","lat":35.197698,"lng":137.094276,"version":"13.0b/18.0a"},{"town":"石田町","koaza":"","lat":35.199093,"lng":137.090894,"version":"13.0b/18.0a"},{"town":"泉町","koaza":"","lat":35.230349,"lng":137.105004,"version":"13.0b/18.0a"},{"town":"市場町","koaza":"","lat":35.217942,"lng":137.075681,"version":"13.0b/18.0a"},{"town":"銀杏木町","koaza":"","lat":35.223187,"lng":137.098585,"version":"13.0b/18.0a"},{"town":"一里塚町","koaza":"","lat":35.220634,"lng":137.107787,"version":"13.0b/18.0a"},{"town":"井戸金町","koaza":"","lat":35.196555,"lng":137.052653,"version":"13.0b/18.0a"},{"town":"今池町","koaza":"","lat":35.223323,"lng":137.082487,"version":"13.0b/18.0a"},{"town":"今林町","koaza":"","lat":35.202144,"lng":137.09142,"version":"13.0b/18.0a"},{"town":"井山町","koaza":"","lat":35.247618,"lng":137.140758,"version":"13.0b/18.0a"},{"town":"岩屋町","koaza":"","lat":35.239062,"lng":137.158729,"version":"13.0b/18.0a"},{"town":"上之山町一丁目","koaza":"","lat":35.190643,"lng":137.101197,"version":"13.0b/18.0a"},{"town":"上之山町二丁目","koaza":"","lat":35.186108,"lng":137.106941,"version":"13.0b/18.0a"},{"town":"上之山町三丁目","koaza":"","lat":35.185172,"lng":137.101736,"version":"13.0b/18.0a"},{"town":"内田町一丁目","koaza":"","lat":35.256266,"lng":137.068997,"version":"13.0b/18.0a"},{"town":"内田町二丁目","koaza":"","lat":35.249896,"lng":137.070387,"version":"13.0b/18.0a"},{"town":"馬ケ城町","koaza":"","lat":35.231173,"lng":137.125077,"version":"13.0b/18.0a"},{"town":"蛭子町","koaza":"","lat":35.224018,"lng":137.104332,"version":"13.0b/18.0a"},{"town":"追分町","koaza":"","lat":35.22387,"lng":137.084855,"version":"13.0b/18.0a"},{"town":"王子沢町","koaza":"","lat":35.226277,"lng":137.112475,"version":"13.0b/18.0a"},{"town":"大坂町","koaza":"","lat":35.200858,"lng":137.095197,"version":"13.0b/18.0a"},{"town":"大坪町","koaza":"","lat":35.193883,"lng":137.103726,"version":"13.0b/18.0a"},{"town":"小金町","koaza":"","lat":35.227796,"lng":137.085113,"version":"13.0b/18.0a"},{"town":"小田妻町一丁目","koaza":"","lat":35.24406,"lng":137.07265,"version":"13.0b/18.0a"},{"town":"小田妻町二丁目","koaza":"","lat":35.24161,"lng":137.080919,"version":"13.0b/18.0a"},{"town":"落合町","koaza":"","lat":35.25313,"lng":137.123007,"version":"13.0b/18.0a"},{"town":"海上町","koaza":"","lat":35.198718,"lng":137.12966,"version":"13.0b/18.0a"},{"town":"掛下町一丁目","koaza":"","lat":35.19419,"lng":137.095727,"version":"13.0b/18.0a"},{"town":"掛下町二丁目","koaza":"","lat":35.193699,"lng":137.100156,"version":"13.0b/18.0a"},{"town":"片草町","koaza":"","lat":35.25727,"lng":137.171037,"version":"13.0b/18.0a"},{"town":"鐘場町","koaza":"","lat":35.215352,"lng":137.125881,"version":"13.0b/18.0a"},{"town":"鹿乗町","koaza":"","lat":35.262956,"lng":137.05849,"version":"13.0b/18.0a"},{"town":"窯神町","koaza":"","lat":35.228213,"lng":137.097534,"version":"13.0b/18.0a"},{"town":"窯町","koaza":"","lat":35.240888,"lng":137.128189,"version":"13.0b/18.0a"},{"town":"窯元町","koaza":"","lat":35.227783,"lng":137.133613,"version":"13.0b/18.0a"},{"town":"神川町","koaza":"","lat":35.208052,"lng":137.074149,"version":"13.0b/18.0a"},{"town":"上品野町","koaza":"","lat":35.253966,"lng":137.144301,"version":"13.0b/18.0a"},{"town":"上陣屋町","koaza":"","lat":35.23344,"lng":137.091235,"version":"13.0b/18.0a"},{"town":"上ノ切町","koaza":"","lat":35.221863,"lng":137.105659,"version":"13.0b/18.0a"},{"town":"上半田川町","koaza":"","lat":35.274226,"lng":137.151397,"version":"13.0b/18.0a"},{"town":"上本町","koaza":"","lat":35.243808,"lng":137.084693,"version":"13.0b/18.0a"},{"town":"上松山町一丁目","koaza":"","lat":35.233126,"lng":137.081641,"version":"13.0b/18.0a"},{"town":"上松山町二丁目","koaza":"","lat":35.236651,"lng":137.08247,"version":"13.0b/18.0a"},{"town":"上水野町","koaza":"","lat":35.241368,"lng":137.090183,"version":"13.0b/18.0a"},{"town":"上山路町","koaza":"","lat":35.207144,"lng":137.152241,"version":"13.0b/18.0a"},{"town":"川合町","koaza":"","lat":35.215048,"lng":137.113999,"version":"13.0b/18.0a"},{"town":"川北町一丁目","koaza":"","lat":35.217904,"lng":137.062209,"version":"13.0b/18.0a"},{"town":"川北町二丁目","koaza":"","lat":35.218198,"lng":137.060364,"version":"13.0b/18.0a"},{"town":"川西町一丁目","koaza":"","lat":35.216468,"lng":137.064288,"version":"13.0b/18.0a"},{"town":"川西町二丁目","koaza":"","lat":35.215179,"lng":137.061322,"version":"13.0b/18.0a"},{"town":"川端町一丁目","koaza":"","lat":35.221813,"lng":137.076045,"version":"13.0b/18.0a"},{"town":"川端町二丁目","koaza":"","lat":35.221123,"lng":137.072619,"version":"13.0b/18.0a"},{"town":"川端町三丁目","koaza":"","lat":35.22035,"lng":137.069444,"version":"13.0b/18.0a"},{"town":"川平町","koaza":"","lat":35.266467,"lng":137.083809,"version":"13.0b/18.0a"},{"town":"ききょう台一丁目","koaza":"","lat":35.24139,"lng":137.070889,"version":"13.0b/18.0a"},{"town":"ききょう台二丁目","koaza":"","lat":35.24135,"lng":137.0688,"version":"13.0b/18.0a"},{"town":"ききょう台三丁目","koaza":"","lat":35.242914,"lng":137.068955,"version":"13.0b/18.0a"},{"town":"北浦町一丁目","koaza":"","lat":35.221501,"lng":137.078812,"version":"13.0b/18.0a"},{"town":"北浦町二丁目","koaza":"","lat":35.220862,"lng":137.07584,"version":"13.0b/18.0a"},{"town":"北浦町三丁目","koaza":"","lat":35.220214,"lng":137.072914,"version":"13.0b/18.0a"},{"town":"北浦町四丁目","koaza":"","lat":35.219375,"lng":137.069559,"version":"13.0b/18.0a"},{"town":"北丘町","koaza":"","lat":35.265797,"lng":137.120408,"version":"13.0b/18.0a"},{"town":"北白坂町","koaza":"","lat":35.226245,"lng":137.172395,"version":"13.0b/18.0a"},{"town":"北松山町一丁目","koaza":"","lat":35.232021,"lng":137.079939,"version":"13.0b/18.0a"},{"town":"北松山町二丁目","koaza":"","lat":35.23557,"lng":137.078734,"version":"13.0b/18.0a"},{"town":"北みずの坂一丁目","koaza":"","lat":35.247451,"lng":137.064725,"version":"13.0b/18.0a"},{"town":"北みずの坂二丁目","koaza":"","lat":35.247434,"lng":137.06185,"version":"13.0b/18.0a"},{"town":"北みずの坂三丁目","koaza":"","lat":35.249834,"lng":137.061955,"version":"13.0b/18.0a"},{"town":"北山町","koaza":"","lat":35.22709,"lng":137.072583,"version":"13.0b/18.0a"},{"town":"北脇町","koaza":"","lat":35.223371,"lng":137.07249,"version":"13.0b/18.0a"},{"town":"共栄通一丁目","koaza":"","lat":35.221798,"lng":137.083986,"version":"13.0b/18.0a"},{"town":"共栄通二丁目","koaza":"","lat":35.221261,"lng":137.08175,"version":"13.0b/18.0a"},{"town":"共栄通三丁目","koaza":"","lat":35.220648,"lng":137.079064,"version":"13.0b/18.0a"},{"town":"共栄通四丁目","koaza":"","lat":35.219657,"lng":137.075917,"version":"13.0b/18.0a"},{"town":"共栄通五丁目","koaza":"","lat":35.219048,"lng":137.073304,"version":"13.0b/18.0a"},{"town":"共栄通六丁目","koaza":"","lat":35.218093,"lng":137.070835,"version":"13.0b/18.0a"},{"town":"共栄通七丁目","koaza":"","lat":35.217207,"lng":137.068178,"version":"13.0b/18.0a"},{"town":"京町一丁目","koaza":"","lat":35.224429,"lng":137.090341,"version":"13.0b/18.0a"},{"town":"京町二丁目","koaza":"","lat":35.224229,"lng":137.087877,"version":"13.0b/18.0a"},{"town":"熊野町","koaza":"","lat":35.219922,"lng":137.090974,"version":"13.0b/18.0a"},{"town":"蔵所町","koaza":"","lat":35.224888,"lng":137.100191,"version":"13.0b/18.0a"},{"town":"五位塚町","koaza":"","lat":35.2348,"lng":137.118866,"version":"13.0b/18.0a"},{"town":"效範町一丁目","koaza":"","lat":35.221717,"lng":137.069528,"version":"13.0b/18.0a"},{"town":"效範町二丁目","koaza":"","lat":35.223372,"lng":137.068866,"version":"13.0b/18.0a"},{"town":"小坂町","koaza":"","lat":35.202038,"lng":137.050936,"version":"13.0b/18.0a"},{"town":"古瀬戸町","koaza":"","lat":35.228296,"lng":137.111407,"version":"13.0b/18.0a"},{"town":"小空町","koaza":"","lat":35.220986,"lng":137.127484,"version":"13.0b/18.0a"},{"town":"瘤木町","koaza":"","lat":35.213559,"lng":137.080596,"version":"13.0b/18.0a"},{"town":"駒前町","koaza":"","lat":35.199882,"lng":137.065559,"version":"13.0b/18.0a"},{"town":"紺屋田町","koaza":"","lat":35.233802,"lng":137.112485,"version":"13.0b/18.0a"},{"town":"幸町","koaza":"","lat":35.222548,"lng":137.096724,"version":"13.0b/18.0a"},{"town":"坂上町","koaza":"","lat":35.201346,"lng":137.054392,"version":"13.0b/18.0a"},{"town":"栄町","koaza":"","lat":35.22564,"lng":137.099305,"version":"13.0b/18.0a"},{"town":"さつき台一丁目","koaza":"","lat":35.237174,"lng":137.073202,"version":"13.0b/18.0a"},{"town":"さつき台二丁目","koaza":"","lat":35.237356,"lng":137.075304,"version":"13.0b/18.0a"},{"town":"さつき台三丁目","koaza":"","lat":35.237706,"lng":137.07697,"version":"13.0b/18.0a"},{"town":"さつき台四丁目","koaza":"","lat":35.235224,"lng":137.074331,"version":"13.0b/18.0a"},{"town":"さつき台五丁目","koaza":"","lat":35.236131,"lng":137.076223,"version":"13.0b/18.0a"},{"town":"塩草町","koaza":"","lat":35.210793,"lng":137.116979,"version":"13.0b/18.0a"},{"town":"十軒町","koaza":"","lat":35.255853,"lng":137.059019,"version":"13.0b/18.0a"},{"town":"品野町一丁目","koaza":"","lat":35.240318,"lng":137.115172,"version":"13.0b/18.0a"},{"town":"品野町二丁目","koaza":"","lat":35.244857,"lng":137.120134,"version":"13.0b/18.0a"},{"town":"品野町三丁目","koaza":"","lat":35.242678,"lng":137.123368,"version":"13.0b/18.0a"},{"town":"品野町四丁目","koaza":"","lat":35.247891,"lng":137.12064,"version":"13.0b/18.0a"},{"town":"品野町五丁目","koaza":"","lat":35.248267,"lng":137.125911,"version":"13.0b/18.0a"},{"town":"品野町六丁目","koaza":"","lat":35.250879,"lng":137.123367,"version":"13.0b/18.0a"},{"town":"品野町七丁目","koaza":"","lat":35.248946,"lng":137.128868,"version":"13.0b/18.0a"},{"town":"品野町八丁目","koaza":"","lat":35.253125,"lng":137.130816,"version":"13.0b/18.0a"},{"town":"下陣屋町","koaza":"","lat":35.228512,"lng":137.089272,"version":"13.0b/18.0a"},{"town":"下半田川町","koaza":"","lat":35.288824,"lng":137.123013,"version":"13.0b/18.0a"},{"town":"定光寺町","koaza":"","lat":35.280588,"lng":137.097045,"version":"13.0b/18.0a"},{"town":"白岩町","koaza":"","lat":35.256814,"lng":137.158299,"version":"13.0b/18.0a"},{"town":"白坂町","koaza":"","lat":35.223303,"lng":137.14616,"version":"13.0b/18.0a"},{"town":"城ケ根町","koaza":"","lat":35.211829,"lng":137.076226,"version":"13.0b/18.0a"},{"town":"城屋敷町","koaza":"","lat":35.216818,"lng":137.073651,"version":"13.0b/18.0a"},{"town":"新郷町","koaza":"","lat":35.213477,"lng":137.084292,"version":"13.0b/18.0a"},{"town":"新田町","koaza":"","lat":35.200291,"lng":137.079495,"version":"13.0b/18.0a"},{"town":"進陶町","koaza":"","lat":35.226913,"lng":137.087222,"version":"13.0b/18.0a"},{"town":"新道町","koaza":"","lat":35.227059,"lng":137.104713,"version":"13.0b/18.0a"},{"town":"新明町","koaza":"","lat":35.21931,"lng":137.124948,"version":"13.0b/18.0a"},{"town":"水南町","koaza":"","lat":35.227138,"lng":137.075744,"version":"13.0b/18.0a"},{"town":"水北町","koaza":"","lat":35.254248,"lng":137.085619,"version":"13.0b/18.0a"},{"town":"末広町一丁目","koaza":"","lat":35.225716,"lng":137.101665,"version":"13.0b/18.0a"},{"town":"末広町二丁目","koaza":"","lat":35.225528,"lng":137.103157,"version":"13.0b/18.0a"},{"town":"末広町三丁目","koaza":"","lat":35.225119,"lng":137.104342,"version":"13.0b/18.0a"},{"town":"杉塚町","koaza":"","lat":35.226505,"lng":137.106893,"version":"13.0b/18.0a"},{"town":"須原町","koaza":"","lat":35.229251,"lng":137.107502,"version":"13.0b/18.0a"},{"town":"すみれ台一丁目","koaza":"","lat":35.238908,"lng":137.07371,"version":"13.0b/18.0a"},{"town":"すみれ台二丁目","koaza":"","lat":35.240056,"lng":137.073497,"version":"13.0b/18.0a"},{"town":"すみれ台三丁目","koaza":"","lat":35.241353,"lng":137.073163,"version":"13.0b/18.0a"},{"town":"すみれ台四丁目","koaza":"","lat":35.241723,"lng":137.074213,"version":"13.0b/18.0a"},{"town":"すみれ台五丁目","koaza":"","lat":35.239237,"lng":137.076146,"version":"13.0b/18.0a"},{"town":"せいれい町","koaza":"","lat":35.204097,"lng":137.107639,"version":"13.0b/18.0a"},{"town":"背戸側町","koaza":"","lat":35.230013,"lng":137.099729,"version":"13.0b/18.0a"},{"town":"瀬戸口町","koaza":"","lat":35.204524,"lng":137.081906,"version":"13.0b/18.0a"},{"town":"惣作町","koaza":"","lat":35.217913,"lng":137.128687,"version":"13.0b/18.0a"},{"town":"曽野町","koaza":"","lat":35.260826,"lng":137.095437,"version":"13.0b/18.0a"},{"town":"祖母懐町","koaza":"","lat":35.222409,"lng":137.106169,"version":"13.0b/18.0a"},{"town":"太子町","koaza":"","lat":35.217525,"lng":137.122142,"version":"13.0b/18.0a"},{"town":"台六町","koaza":"","lat":35.193218,"lng":137.0824,"version":"13.0b/18.0a"},{"town":"高根町一丁目","koaza":"","lat":35.211161,"lng":137.070479,"version":"13.0b/18.0a"},{"town":"高根町二丁目","koaza":"","lat":35.209284,"lng":137.068373,"version":"13.0b/18.0a"},{"town":"高根町三丁目","koaza":"","lat":35.207064,"lng":137.06648,"version":"13.0b/18.0a"},{"town":"宝ケ丘町","koaza":"","lat":35.207949,"lng":137.105611,"version":"13.0b/18.0a"},{"town":"滝之湯町","koaza":"","lat":35.224924,"lng":137.091124,"version":"13.0b/18.0a"},{"town":"凧山町","koaza":"","lat":35.221531,"lng":137.135294,"version":"13.0b/18.0a"},{"town":"田中町","koaza":"","lat":35.196629,"lng":137.101825,"version":"13.0b/18.0a"},{"town":"田端町一丁目","koaza":"","lat":35.219173,"lng":137.063945,"version":"13.0b/18.0a"},{"town":"田端町二丁目","koaza":"","lat":35.220827,"lng":137.063431,"version":"13.0b/18.0a"},{"town":"寺本町","koaza":"","lat":35.226344,"lng":137.110067,"version":"13.0b/18.0a"},{"town":"陶栄町","koaza":"","lat":35.222661,"lng":137.101662,"version":"13.0b/18.0a"},{"town":"陶原町一丁目","koaza":"","lat":35.222686,"lng":137.093452,"version":"13.0b/18.0a"},{"town":"陶原町二丁目","koaza":"","lat":35.222616,"lng":137.091074,"version":"13.0b/18.0a"},{"town":"陶原町三丁目","koaza":"","lat":35.222724,"lng":137.08967,"version":"13.0b/18.0a"},{"town":"陶原町四丁目","koaza":"","lat":35.222533,"lng":137.088159,"version":"13.0b/18.0a"},{"town":"陶原町五丁目","koaza":"","lat":35.222601,"lng":137.087082,"version":"13.0b/18.0a"},{"town":"陶原町六丁目","koaza":"","lat":35.222597,"lng":137.085869,"version":"13.0b/18.0a"},{"town":"東郷町","koaza":"","lat":35.224914,"lng":137.108851,"version":"13.0b/18.0a"},{"town":"藤四郎町","koaza":"","lat":35.227999,"lng":137.109715,"version":"13.0b/18.0a"},{"town":"陶生町","koaza":"","lat":35.225199,"lng":137.106498,"version":"13.0b/18.0a"},{"town":"道泉町","koaza":"","lat":35.226756,"lng":137.093362,"version":"13.0b/18.0a"},{"town":"陶本町一丁目","koaza":"","lat":35.226025,"lng":137.098751,"version":"13.0b/18.0a"},{"town":"陶本町二丁目","koaza":"","lat":35.225575,"lng":137.097683,"version":"13.0b/18.0a"},{"town":"陶本町三丁目","koaza":"","lat":35.2252,"lng":137.096718,"version":"13.0b/18.0a"},{"town":"陶本町四丁目","koaza":"","lat":35.224801,"lng":137.095474,"version":"13.0b/18.0a"},{"town":"陶本町五丁目","koaza":"","lat":35.224399,"lng":137.09428,"version":"13.0b/18.0a"},{"town":"陶本町六丁目","koaza":"","lat":35.22417,"lng":137.093283,"version":"13.0b/18.0a"},{"town":"東明町","koaza":"","lat":35.222353,"lng":137.127587,"version":"13.0b/18.0a"},{"town":"鳥原町","koaza":"","lat":35.241193,"lng":137.134778,"version":"13.0b/18.0a"},{"town":"苗場町","koaza":"","lat":35.230208,"lng":137.074768,"version":"13.0b/18.0a"},{"town":"仲切町","koaza":"","lat":35.228044,"lng":137.100041,"version":"13.0b/18.0a"},{"town":"仲郷町","koaza":"","lat":35.223062,"lng":137.107593,"version":"13.0b/18.0a"},{"town":"中品野町","koaza":"","lat":35.249856,"lng":137.131906,"version":"13.0b/18.0a"},{"town":"中白坂町","koaza":"","lat":35.225394,"lng":137.163472,"version":"13.0b/18.0a"},{"town":"中畑町","koaza":"","lat":35.223053,"lng":137.132168,"version":"13.0b/18.0a"},{"town":"仲洞町","koaza":"","lat":35.225266,"lng":137.111372,"version":"13.0b/18.0a"},{"town":"中水野町一丁目","koaza":"","lat":35.24723,"lng":137.080854,"version":"13.0b/18.0a"},{"town":"中水野町二丁目","koaza":"","lat":35.247108,"lng":137.075137,"version":"13.0b/18.0a"},{"town":"中山町","koaza":"","lat":35.220879,"lng":137.112609,"version":"13.0b/18.0a"},{"town":"西茨町","koaza":"","lat":35.218114,"lng":137.099285,"version":"13.0b/18.0a"},{"town":"西印所町","koaza":"","lat":35.234369,"lng":137.101848,"version":"13.0b/18.0a"},{"town":"西追分町","koaza":"","lat":35.225368,"lng":137.081758,"version":"13.0b/18.0a"},{"town":"西窯町","koaza":"","lat":35.222759,"lng":137.129699,"version":"13.0b/18.0a"},{"town":"西蔵所町","koaza":"","lat":35.224425,"lng":137.098135,"version":"13.0b/18.0a"},{"town":"西郷町","koaza":"","lat":35.224049,"lng":137.106018,"version":"13.0b/18.0a"},{"town":"西古瀬戸町","koaza":"","lat":35.229662,"lng":137.112188,"version":"13.0b/18.0a"},{"town":"西米泉町","koaza":"","lat":35.200652,"lng":137.084957,"version":"13.0b/18.0a"},{"town":"西権現町","koaza":"","lat":35.221296,"lng":137.093523,"version":"13.0b/18.0a"},{"town":"西白坂町","koaza":"","lat":35.223236,"lng":137.155415,"version":"13.0b/18.0a"},{"town":"西谷町","koaza":"","lat":35.227151,"lng":137.096815,"version":"13.0b/18.0a"},{"town":"西寺山町","koaza":"","lat":35.214677,"lng":137.069127,"version":"13.0b/18.0a"},{"town":"西十三塚町","koaza":"","lat":35.225002,"lng":137.086443,"version":"13.0b/18.0a"},{"town":"西長根町","koaza":"","lat":35.213045,"lng":137.072805,"version":"13.0b/18.0a"},{"town":"西拝戸町","koaza":"","lat":35.223367,"lng":137.123227,"version":"13.0b/18.0a"},{"town":"西原町一丁目","koaza":"","lat":35.212175,"lng":137.067715,"version":"13.0b/18.0a"},{"town":"西原町二丁目","koaza":"","lat":35.209183,"lng":137.064564,"version":"13.0b/18.0a"},{"town":"西洞町","koaza":"","lat":35.223284,"lng":137.111544,"version":"13.0b/18.0a"},{"town":"西本地町一丁目","koaza":"","lat":35.204822,"lng":137.06032,"version":"13.0b/18.0a"},{"town":"西本地町二丁目","koaza":"","lat":35.206696,"lng":137.059035,"version":"13.0b/18.0a"},{"town":"西本町一丁目","koaza":"","lat":35.223759,"lng":137.09988,"version":"13.0b/18.0a"},{"town":"西本町二丁目","koaza":"","lat":35.224052,"lng":137.097775,"version":"13.0b/18.0a"},{"town":"西松山町一丁目","koaza":"","lat":35.229173,"lng":137.077874,"version":"13.0b/18.0a"},{"town":"西松山町二丁目","koaza":"","lat":35.231567,"lng":137.078203,"version":"13.0b/18.0a"},{"town":"西松山町三丁目","koaza":"","lat":35.232729,"lng":137.074992,"version":"13.0b/18.0a"},{"town":"西松山町四丁目","koaza":"","lat":35.234007,"lng":137.075337,"version":"13.0b/18.0a"},{"town":"西山路町","koaza":"","lat":35.207012,"lng":137.124219,"version":"13.0b/18.0a"},{"town":"西山町一丁目","koaza":"","lat":35.22046,"lng":137.059106,"version":"13.0b/18.0a"},{"town":"西山町二丁目","koaza":"","lat":35.224706,"lng":137.059102,"version":"13.0b/18.0a"},{"town":"西吉田町","koaza":"","lat":35.219658,"lng":137.084205,"version":"13.0b/18.0a"},{"town":"西脇町","koaza":"","lat":35.202758,"lng":137.074573,"version":"13.0b/18.0a"},{"town":"萩殿町一丁目","koaza":"","lat":35.219265,"lng":137.101831,"version":"13.0b/18.0a"},{"town":"萩殿町二丁目","koaza":"","lat":35.219412,"lng":137.104711,"version":"13.0b/18.0a"},{"town":"萩殿町三丁目","koaza":"","lat":35.215777,"lng":137.102358,"version":"13.0b/18.0a"},{"town":"萩殿町四丁目","koaza":"","lat":35.214868,"lng":137.10568,"version":"13.0b/18.0a"},{"town":"萩殿町五丁目","koaza":"","lat":35.2129,"lng":137.10473,"version":"13.0b/18.0a"},{"town":"はぎの台一丁目","koaza":"","lat":35.238473,"lng":137.070912,"version":"13.0b/18.0a"},{"town":"はぎの台二丁目","koaza":"","lat":35.238563,"lng":137.06872,"version":"13.0b/18.0a"},{"town":"はぎの台三丁目","koaza":"","lat":35.239899,"lng":137.070893,"version":"13.0b/18.0a"},{"town":"はぎの台四丁目","koaza":"","lat":35.240058,"lng":137.068745,"version":"13.0b/18.0a"},{"town":"萩山台一丁目","koaza":"","lat":35.210439,"lng":137.097831,"version":"13.0b/18.0a"},{"town":"萩山台二丁目","koaza":"","lat":35.211881,"lng":137.099423,"version":"13.0b/18.0a"},{"town":"萩山台三丁目","koaza":"","lat":35.213164,"lng":137.102143,"version":"13.0b/18.0a"},{"town":"萩山台四丁目","koaza":"","lat":35.211688,"lng":137.103902,"version":"13.0b/18.0a"},{"town":"萩山台五丁目","koaza":"","lat":35.210637,"lng":137.104127,"version":"13.0b/18.0a"},{"town":"萩山台六丁目","koaza":"","lat":35.209209,"lng":137.101803,"version":"13.0b/18.0a"},{"town":"萩山台七丁目","koaza":"","lat":35.210494,"lng":137.10124,"version":"13.0b/18.0a"},{"town":"萩山台八丁目","koaza":"","lat":35.208979,"lng":137.097973,"version":"13.0b/18.0a"},{"town":"萩山台九丁目","koaza":"","lat":35.208079,"lng":137.09921,"version":"13.0b/18.0a"},{"town":"白山町一丁目","koaza":"","lat":35.205132,"lng":137.085269,"version":"13.0b/18.0a"},{"town":"白山町二丁目","koaza":"","lat":35.202913,"lng":137.088101,"version":"13.0b/18.0a"},{"town":"巡間町","koaza":"","lat":35.21579,"lng":137.139498,"version":"13.0b/18.0a"},{"town":"長谷口町","koaza":"","lat":35.228553,"lng":137.147035,"version":"13.0b/18.0a"},{"town":"幡中町","koaza":"","lat":35.19642,"lng":137.07685,"version":"13.0b/18.0a"},{"town":"幡西町","koaza":"","lat":35.204266,"lng":137.07317,"version":"13.0b/18.0a"},{"town":"幡野町","koaza":"","lat":35.211658,"lng":137.086078,"version":"13.0b/18.0a"},{"town":"幡山町","koaza":"","lat":35.202765,"lng":137.080293,"version":"13.0b/18.0a"},{"town":"八王子町","koaza":"","lat":35.225602,"lng":137.135665,"version":"13.0b/18.0a"},{"town":"八幡台一丁目","koaza":"","lat":35.206881,"lng":137.092038,"version":"13.0b/18.0a"},{"town":"八幡台二丁目","koaza":"","lat":35.205773,"lng":137.09244,"version":"13.0b/18.0a"},{"town":"八幡台三丁目","koaza":"","lat":35.206252,"lng":137.095669,"version":"13.0b/18.0a"},{"town":"八幡台四丁目","koaza":"","lat":35.204635,"lng":137.096099,"version":"13.0b/18.0a"},{"town":"八幡台五丁目","koaza":"","lat":35.204904,"lng":137.098129,"version":"13.0b/18.0a"},{"town":"八幡台六丁目","koaza":"","lat":35.203928,"lng":137.100584,"version":"13.0b/18.0a"},{"town":"八幡台七丁目","koaza":"","lat":35.202359,"lng":137.098935,"version":"13.0b/18.0a"},{"town":"八幡台八丁目","koaza":"","lat":35.202826,"lng":137.095435,"version":"13.0b/18.0a"},{"town":"八幡台九丁目","koaza":"","lat":35.204123,"lng":137.091934,"version":"13.0b/18.0a"},{"town":"八幡町","koaza":"","lat":35.202476,"lng":137.103647,"version":"13.0b/18.0a"},{"town":"刎田町","koaza":"","lat":35.22727,"lng":137.107297,"version":"13.0b/18.0a"},{"town":"羽根町","koaza":"","lat":35.201532,"lng":137.076812,"version":"13.0b/18.0a"},{"town":"原山台一丁目","koaza":"","lat":35.209227,"lng":137.093573,"version":"13.0b/18.0a"},{"town":"原山台二丁目","koaza":"","lat":35.210494,"lng":137.094039,"version":"13.0b/18.0a"},{"town":"原山台三丁目","koaza":"","lat":35.209675,"lng":137.089745,"version":"13.0b/18.0a"},{"town":"原山台四丁目","koaza":"","lat":35.211143,"lng":137.091327,"version":"13.0b/18.0a"},{"town":"原山台五丁目","koaza":"","lat":35.211761,"lng":137.092046,"version":"13.0b/18.0a"},{"town":"原山台六丁目","koaza":"","lat":35.213614,"lng":137.092502,"version":"13.0b/18.0a"},{"town":"原山台七丁目","koaza":"","lat":35.212573,"lng":137.09322,"version":"13.0b/18.0a"},{"town":"原山台八丁目","koaza":"","lat":35.212784,"lng":137.096162,"version":"13.0b/18.0a"},{"town":"原山町","koaza":"","lat":35.21631,"lng":137.091994,"version":"13.0b/18.0a"},{"town":"針原町","koaza":"","lat":35.233772,"lng":137.140301,"version":"13.0b/18.0a"},{"town":"春雨町","koaza":"","lat":35.21666,"lng":137.108036,"version":"13.0b/18.0a"},{"town":"東赤重町一丁目","koaza":"","lat":35.209354,"lng":137.08456,"version":"13.0b/18.0a"},{"town":"東赤重町二丁目","koaza":"","lat":35.207606,"lng":137.082162,"version":"13.0b/18.0a"},{"town":"東茨町","koaza":"","lat":35.221328,"lng":137.101927,"version":"13.0b/18.0a"},{"town":"東印所町","koaza":"","lat":35.233995,"lng":137.107692,"version":"13.0b/18.0a"},{"town":"東古瀬戸町","koaza":"","lat":35.229177,"lng":137.114301,"version":"13.0b/18.0a"},{"town":"東米泉町","koaza":"","lat":35.199848,"lng":137.087498,"version":"13.0b/18.0a"},{"town":"東権現町","koaza":"","lat":35.218375,"lng":137.095917,"version":"13.0b/18.0a"},{"town":"東白坂町","koaza":"","lat":35.212052,"lng":137.164392,"version":"13.0b/18.0a"},{"town":"東寺山町","koaza":"","lat":35.215786,"lng":137.071583,"version":"13.0b/18.0a"},{"town":"東十三塚町","koaza":"","lat":35.225926,"lng":137.088968,"version":"13.0b/18.0a"},{"town":"東長根町","koaza":"","lat":35.21552,"lng":137.076749,"version":"13.0b/18.0a"},{"town":"東拝戸町","koaza":"","lat":35.225152,"lng":137.122814,"version":"13.0b/18.0a"},{"town":"東菱野町","koaza":"","lat":35.202221,"lng":137.083394,"version":"13.0b/18.0a"},{"town":"東洞町","koaza":"","lat":35.224146,"lng":137.114243,"version":"13.0b/18.0a"},{"town":"東本地町一丁目","koaza":"","lat":35.204658,"lng":137.070056,"version":"13.0b/18.0a"},{"town":"東本地町二丁目","koaza":"","lat":35.205047,"lng":137.066229,"version":"13.0b/18.0a"},{"town":"東本地町三丁目","koaza":"","lat":35.201926,"lng":137.068507,"version":"13.0b/18.0a"},{"town":"東本町一丁目","koaza":"","lat":35.223773,"lng":137.102221,"version":"13.0b/18.0a"},{"town":"東本町二丁目","koaza":"","lat":35.223194,"lng":137.103967,"version":"13.0b/18.0a"},{"town":"東松山町","koaza":"","lat":35.229969,"lng":137.082963,"version":"13.0b/18.0a"},{"town":"東安戸町","koaza":"","lat":35.229896,"lng":137.095211,"version":"13.0b/18.0a"},{"town":"東山路町","koaza":"","lat":35.204919,"lng":137.140588,"version":"13.0b/18.0a"},{"town":"東山町","koaza":"","lat":35.230194,"lng":137.064794,"version":"13.0b/18.0a"},{"town":"東山町一丁目","koaza":"","lat":35.228175,"lng":137.062544,"version":"13.0b/18.0a"},{"town":"東山町二丁目","koaza":"","lat":35.227174,"lng":137.066821,"version":"13.0b/18.0a"},{"town":"東横山町","koaza":"","lat":35.227325,"lng":137.078547,"version":"13.0b/18.0a"},{"town":"東吉田町","koaza":"","lat":35.220159,"lng":137.086747,"version":"13.0b/18.0a"},{"town":"菱野台一丁目","koaza":"","lat":35.208673,"lng":137.095207,"version":"13.0b/18.0a"},{"town":"菱野台二丁目","koaza":"","lat":35.210611,"lng":137.096393,"version":"13.0b/18.0a"},{"town":"菱野台三丁目","koaza":"","lat":35.207135,"lng":137.096969,"version":"13.0b/18.0a"},{"town":"菱野台四丁目","koaza":"","lat":35.208404,"lng":137.09299,"version":"13.0b/18.0a"},{"town":"菱野町","koaza":"","lat":35.206827,"lng":137.077223,"version":"13.0b/18.0a"},{"town":"日の出町","koaza":"","lat":35.242906,"lng":137.077578,"version":"13.0b/18.0a"},{"town":"ひまわり台一丁目","koaza":"","lat":35.237032,"lng":137.071372,"version":"13.0b/18.0a"},{"town":"ひまわり台二丁目","koaza":"","lat":35.237066,"lng":137.069733,"version":"13.0b/18.0a"},{"town":"ひまわり台三丁目","koaza":"","lat":35.237152,"lng":137.068227,"version":"13.0b/18.0a"},{"town":"ひまわり台五丁目","koaza":"","lat":35.234904,"lng":137.071894,"version":"13.0b/18.0a"},{"town":"平町一丁目","koaza":"","lat":35.219043,"lng":137.066462,"version":"13.0b/18.0a"},{"town":"平町二丁目","koaza":"","lat":35.220975,"lng":137.066604,"version":"13.0b/18.0a"},{"town":"平町三丁目","koaza":"","lat":35.222862,"lng":137.06599,"version":"13.0b/18.0a"},{"town":"広久手町","koaza":"","lat":35.190739,"lng":137.121042,"version":"13.0b/18.0a"},{"town":"広之田町","koaza":"","lat":35.2635,"lng":137.129397,"version":"13.0b/18.0a"},{"town":"深川町","koaza":"","lat":35.227365,"lng":137.102089,"version":"13.0b/18.0a"},{"town":"福元町","koaza":"","lat":35.205503,"lng":137.078978,"version":"13.0b/18.0a"},{"town":"ふじの台一丁目","koaza":"","lat":35.243533,"lng":137.06938,"version":"13.0b/18.0a"},{"town":"ふじの台二丁目","koaza":"","lat":35.244064,"lng":137.070764,"version":"13.0b/18.0a"},{"town":"ふじの台三丁目","koaza":"","lat":35.245289,"lng":137.070446,"version":"13.0b/18.0a"},{"town":"弁天町","koaza":"","lat":35.197974,"lng":137.083991,"version":"13.0b/18.0a"},{"town":"坊金町","koaza":"","lat":35.199594,"lng":137.060106,"version":"13.0b/18.0a"},{"town":"本郷町","koaza":"","lat":35.248832,"lng":137.066672,"version":"13.0b/18.0a"},{"town":"前田町","koaza":"","lat":35.225969,"lng":137.1065,"version":"13.0b/18.0a"},{"town":"孫田町","koaza":"","lat":35.223481,"lng":137.076809,"version":"13.0b/18.0a"},{"town":"松原町一丁目","koaza":"","lat":35.225097,"lng":137.067171,"version":"13.0b/18.0a"},{"town":"松原町二丁目","koaza":"","lat":35.226114,"lng":137.067963,"version":"13.0b/18.0a"},{"town":"松原町三丁目","koaza":"","lat":35.226297,"lng":137.069543,"version":"13.0b/18.0a"},{"town":"三沢町一丁目","koaza":"","lat":35.256016,"lng":137.079334,"version":"13.0b/18.0a"},{"town":"三沢町二丁目","koaza":"","lat":35.250336,"lng":137.072882,"version":"13.0b/18.0a"},{"town":"みずの坂二丁目","koaza":"","lat":35.242639,"lng":137.066275,"version":"13.0b/18.0a"},{"town":"みずの坂四丁目","koaza":"","lat":35.24524,"lng":137.067056,"version":"13.0b/18.0a"},{"town":"みずの坂五丁目","koaza":"","lat":35.245415,"lng":137.062768,"version":"13.0b/18.0a"},{"town":"見付町","koaza":"","lat":35.217726,"lng":137.080412,"version":"13.0b/18.0a"},{"town":"緑町一丁目","koaza":"","lat":35.207675,"lng":137.086944,"version":"13.0b/18.0a"},{"town":"緑町二丁目","koaza":"","lat":35.205913,"lng":137.089802,"version":"13.0b/18.0a"},{"town":"水無瀬町","koaza":"","lat":35.216313,"lng":137.083982,"version":"13.0b/18.0a"},{"town":"南東町","koaza":"","lat":35.223016,"lng":137.113087,"version":"13.0b/18.0a"},{"town":"南ケ丘町","koaza":"","lat":35.193056,"lng":137.074384,"version":"13.0b/18.0a"},{"town":"南白坂町","koaza":"","lat":35.217019,"lng":137.153338,"version":"13.0b/18.0a"},{"town":"南仲之切町","koaza":"","lat":35.224771,"lng":137.102368,"version":"13.0b/18.0a"},{"town":"南菱野町","koaza":"","lat":35.198894,"lng":137.070991,"version":"13.0b/18.0a"},{"town":"南山口町","koaza":"","lat":35.188398,"lng":137.092667,"version":"13.0b/18.0a"},{"town":"南山町一丁目","koaza":"","lat":35.223936,"lng":137.064497,"version":"13.0b/18.0a"},{"town":"南山町二丁目","koaza":"","lat":35.221261,"lng":137.061908,"version":"13.0b/18.0a"},{"town":"南山町三丁目","koaza":"","lat":35.223214,"lng":137.061436,"version":"13.0b/18.0a"},{"town":"美濃池町","koaza":"","lat":35.20844,"lng":137.070858,"version":"13.0b/18.0a"},{"town":"宮里町","koaza":"","lat":35.229135,"lng":137.102763,"version":"13.0b/18.0a"},{"town":"宮地町","koaza":"","lat":35.190522,"lng":137.106554,"version":"13.0b/18.0a"},{"town":"宮脇町","koaza":"","lat":35.228168,"lng":137.104431,"version":"13.0b/18.0a"},{"town":"元町一丁目","koaza":"","lat":35.225812,"lng":137.096614,"version":"13.0b/18.0a"},{"town":"元町二丁目","koaza":"","lat":35.225272,"lng":137.095259,"version":"13.0b/18.0a"},{"town":"元町三丁目","koaza":"","lat":35.224575,"lng":137.092778,"version":"13.0b/18.0a"},{"town":"門前町","koaza":"","lat":35.214041,"lng":137.130703,"version":"13.0b/18.0a"},{"town":"矢形町","koaza":"","lat":35.200358,"lng":137.09883,"version":"13.0b/18.0a"},{"town":"薬師町","koaza":"","lat":35.226119,"lng":137.103962,"version":"13.0b/18.0a"},{"town":"安戸町","koaza":"","lat":35.227405,"lng":137.090434,"version":"13.0b/18.0a"},{"town":"八床町","koaza":"","lat":35.248888,"lng":137.112948,"version":"13.0b/18.0a"},{"town":"屋戸町","koaza":"","lat":35.195935,"lng":137.111099,"version":"13.0b/18.0a"},{"town":"柳ケ坪町","koaza":"","lat":35.197428,"lng":137.098416,"version":"13.0b/18.0a"},{"town":"山口町","koaza":"","lat":35.198783,"lng":137.102862,"version":"13.0b/18.0a"},{"town":"山路町","koaza":"","lat":35.206369,"lng":137.134652,"version":"13.0b/18.0a"},{"town":"やまて坂一丁目","koaza":"","lat":35.232711,"lng":137.070606,"version":"13.0b/18.0a"},{"town":"やまて坂二丁目","koaza":"","lat":35.234186,"lng":137.069879,"version":"13.0b/18.0a"},{"town":"山手町","koaza":"","lat":35.230604,"lng":137.069772,"version":"13.0b/18.0a"},{"town":"山の田町","koaza":"","lat":35.194866,"lng":137.060097,"version":"13.0b/18.0a"},{"town":"山脇町","koaza":"","lat":35.224132,"lng":137.095407,"version":"13.0b/18.0a"},{"town":"湯之根町","koaza":"","lat":35.230397,"lng":137.102523,"version":"13.0b/18.0a"},{"town":"ゆりの台","koaza":"","lat":35.244422,"lng":137.073947,"version":"13.0b/18.0a"},{"town":"吉野町","koaza":"","lat":35.189762,"lng":137.110721,"version":"13.0b/18.0a"},{"town":"余床町","koaza":"","lat":35.269963,"lng":137.110432,"version":"13.0b/18.0a"},{"town":"若宮町一丁目","koaza":"","lat":35.207183,"lng":137.111879,"version":"13.0b/18.0a"},{"town":"若宮町二丁目","koaza":"","lat":35.200327,"lng":137.109578,"version":"13.0b/18.0a"},{"town":"若宮町三丁目","koaza":"","lat":35.197289,"lng":137.106176,"version":"13.0b/18.0a"},{"town":"みずの坂三丁目","koaza":"","lat":35.243191,"lng":137.063751,"version":"13.0b/18.0a"},{"town":"みずの坂一丁目","koaza":"","lat":35.240077,"lng":137.066553,"version":"13.0b/18.0a"},{"town":"ひまわり台四丁目","koaza":"","lat":35.237312,"lng":137.066659,"version":"13.0b/18.0a"},{"town":"やまて坂三丁目","koaza":"","lat":35.235587,"lng":137.067027,"version":"13.0b/18.0a"},{"town":"赤重町","koaza":"","lat":35.210186,"lng":137.080485,"version":"14.0b/19.0a"},{"town":"暁町","koaza":"","lat":35.241505,"lng":137.103048,"version":"14.0b/19.0a"},{"town":"赤津町","koaza":"","lat":35.226187,"lng":137.130141,"version":"14.0b/19.0a"},{"town":"秋葉町","koaza":"","lat":35.221862,"lng":137.103965,"version":"14.0b/19.0a"},{"town":"朝日町","koaza":"","lat":35.226519,"lng":137.10097,"version":"14.0b/19.0a"},{"town":"東町","koaza":"","lat":35.221058,"lng":137.1174,"version":"14.0b/19.0a"},{"town":"汗干町","koaza":"","lat":35.223304,"lng":137.080048,"version":"14.0b/19.0a"},{"town":"穴田町","koaza":"","lat":35.247893,"lng":137.099743,"version":"14.0b/19.0a"},{"town":"池田町","koaza":"","lat":35.197698,"lng":137.094276,"version":"14.0b/19.0a"},{"town":"石田町","koaza":"","lat":35.199093,"lng":137.090894,"version":"14.0b/19.0a"},{"town":"泉町","koaza":"","lat":35.230349,"lng":137.105004,"version":"14.0b/19.0a"},{"town":"市場町","koaza":"","lat":35.217942,"lng":137.075681,"version":"14.0b/19.0a"},{"town":"銀杏木町","koaza":"","lat":35.223187,"lng":137.098585,"version":"14.0b/19.0a"},{"town":"一里塚町","koaza":"","lat":35.220634,"lng":137.107787,"version":"14.0b/19.0a"},{"town":"井戸金町","koaza":"","lat":35.196555,"lng":137.052653,"version":"14.0b/19.0a"},{"town":"今池町","koaza":"","lat":35.223323,"lng":137.082487,"version":"14.0b/19.0a"},{"town":"今林町","koaza":"","lat":35.202144,"lng":137.09142,"version":"14.0b/19.0a"},{"town":"井山町","koaza":"","lat":35.247618,"lng":137.140758,"version":"14.0b/19.0a"},{"town":"岩屋町","koaza":"","lat":35.239062,"lng":137.158729,"version":"14.0b/19.0a"},{"town":"上之山町一丁目","koaza":"","lat":35.190643,"lng":137.101197,"version":"14.0b/19.0a"},{"town":"上之山町二丁目","koaza":"","lat":35.186108,"lng":137.106941,"version":"14.0b/19.0a"},{"town":"上之山町三丁目","koaza":"","lat":35.185172,"lng":137.101736,"version":"14.0b/19.0a"},{"town":"内田町一丁目","koaza":"","lat":35.256266,"lng":137.068997,"version":"14.0b/19.0a"},{"town":"内田町二丁目","koaza":"","lat":35.249896,"lng":137.070387,"version":"14.0b/19.0a"},{"town":"馬ケ城町","koaza":"","lat":35.231173,"lng":137.125077,"version":"14.0b/19.0a"},{"town":"蛭子町","koaza":"","lat":35.224018,"lng":137.104332,"version":"14.0b/19.0a"},{"town":"追分町","koaza":"","lat":35.22387,"lng":137.084855,"version":"14.0b/19.0a"},{"town":"王子沢町","koaza":"","lat":35.226277,"lng":137.112475,"version":"14.0b/19.0a"},{"town":"大坂町","koaza":"","lat":35.200858,"lng":137.095197,"version":"14.0b/19.0a"},{"town":"大坪町","koaza":"","lat":35.193883,"lng":137.103726,"version":"14.0b/19.0a"},{"town":"小金町","koaza":"","lat":35.227796,"lng":137.085113,"version":"14.0b/19.0a"},{"town":"小田妻町一丁目","koaza":"","lat":35.24406,"lng":137.07265,"version":"14.0b/19.0a"},{"town":"小田妻町二丁目","koaza":"","lat":35.24161,"lng":137.080919,"version":"14.0b/19.0a"},{"town":"落合町","koaza":"","lat":35.25313,"lng":137.123007,"version":"14.0b/19.0a"},{"town":"海上町","koaza":"","lat":35.198718,"lng":137.12966,"version":"14.0b/19.0a"},{"town":"掛下町一丁目","koaza":"","lat":35.19419,"lng":137.095727,"version":"14.0b/19.0a"},{"town":"掛下町二丁目","koaza":"","lat":35.193699,"lng":137.100156,"version":"14.0b/19.0a"},{"town":"片草町","koaza":"","lat":35.25727,"lng":137.171037,"version":"14.0b/19.0a"},{"town":"鐘場町","koaza":"","lat":35.215352,"lng":137.125881,"version":"14.0b/19.0a"},{"town":"鹿乗町","koaza":"","lat":35.262956,"lng":137.05849,"version":"14.0b/19.0a"},{"town":"窯神町","koaza":"","lat":35.228213,"lng":137.097534,"version":"14.0b/19.0a"},{"town":"窯町","koaza":"","lat":35.240888,"lng":137.128189,"version":"14.0b/19.0a"},{"town":"窯元町","koaza":"","lat":35.227783,"lng":137.133613,"version":"14.0b/19.0a"},{"town":"神川町","koaza":"","lat":35.208052,"lng":137.074149,"version":"14.0b/19.0a"},{"town":"上品野町","koaza":"","lat":35.253966,"lng":137.144301,"version":"14.0b/19.0a"},{"town":"上陣屋町","koaza":"","lat":35.23344,"lng":137.091235,"version":"14.0b/19.0a"},{"town":"上ノ切町","koaza":"","lat":35.221863,"lng":137.105659,"version":"14.0b/19.0a"},{"town":"上半田川町","koaza":"","lat":35.274226,"lng":137.151397,"version":"14.0b/19.0a"},{"town":"上本町","koaza":"","lat":35.243808,"lng":137.084693,"version":"14.0b/19.0a"},{"town":"上松山町一丁目","koaza":"","lat":35.233126,"lng":137.081641,"version":"14.0b/19.0a"},{"town":"上松山町二丁目","koaza":"","lat":35.236651,"lng":137.08247,"version":"14.0b/19.0a"},{"town":"上水野町","koaza":"","lat":35.241368,"lng":137.090183,"version":"14.0b/19.0a"},{"town":"上山路町","koaza":"","lat":35.207144,"lng":137.152241,"version":"14.0b/19.0a"},{"town":"川合町","koaza":"","lat":35.215048,"lng":137.113999,"version":"14.0b/19.0a"},{"town":"川北町一丁目","koaza":"","lat":35.217904,"lng":137.062209,"version":"14.0b/19.0a"},{"town":"川北町二丁目","koaza":"","lat":35.218198,"lng":137.060364,"version":"14.0b/19.0a"},{"town":"川西町一丁目","koaza":"","lat":35.216468,"lng":137.064288,"version":"14.0b/19.0a"},{"town":"川西町二丁目","koaza":"","lat":35.215179,"lng":137.061322,"version":"14.0b/19.0a"},{"town":"川端町一丁目","koaza":"","lat":35.221813,"lng":137.076045,"version":"14.0b/19.0a"},{"town":"川端町二丁目","koaza":"","lat":35.221123,"lng":137.072619,"version":"14.0b/19.0a"},{"town":"川端町三丁目","koaza":"","lat":35.22035,"lng":137.069444,"version":"14.0b/19.0a"},{"town":"川平町","koaza":"","lat":35.266467,"lng":137.083809,"version":"14.0b/19.0a"},{"town":"ききょう台一丁目","koaza":"","lat":35.24139,"lng":137.070889,"version":"14.0b/19.0a"},{"town":"ききょう台二丁目","koaza":"","lat":35.24135,"lng":137.0688,"version":"14.0b/19.0a"},{"town":"ききょう台三丁目","koaza":"","lat":35.242914,"lng":137.068955,"version":"14.0b/19.0a"},{"town":"北浦町一丁目","koaza":"","lat":35.221501,"lng":137.078812,"version":"14.0b/19.0a"},{"town":"北浦町二丁目","koaza":"","lat":35.220862,"lng":137.07584,"version":"14.0b/19.0a"},{"town":"北浦町三丁目","koaza":"","lat":35.220214,"lng":137.072914,"version":"14.0b/19.0a"},{"town":"北浦町四丁目","koaza":"","lat":35.219375,"lng":137.069559,"version":"14.0b/19.0a"},{"town":"北丘町","koaza":"","lat":35.265797,"lng":137.120408,"version":"14.0b/19.0a"},{"town":"北白坂町","koaza":"","lat":35.226245,"lng":137.172395,"version":"14.0b/19.0a"},{"town":"北松山町一丁目","koaza":"","lat":35.232021,"lng":137.079939,"version":"14.0b/19.0a"},{"town":"北松山町二丁目","koaza":"","lat":35.23557,"lng":137.078734,"version":"14.0b/19.0a"},{"town":"北みずの坂一丁目","koaza":"","lat":35.247451,"lng":137.064725,"version":"14.0b/19.0a"},{"town":"北みずの坂二丁目","koaza":"","lat":35.247434,"lng":137.06185,"version":"14.0b/19.0a"},{"town":"北みずの坂三丁目","koaza":"","lat":35.249834,"lng":137.061955,"version":"14.0b/19.0a"},{"town":"北山町","koaza":"","lat":35.22709,"lng":137.072583,"version":"14.0b/19.0a"},{"town":"北脇町","koaza":"","lat":35.223371,"lng":137.07249,"version":"14.0b/19.0a"},{"town":"共栄通一丁目","koaza":"","lat":35.221798,"lng":137.083986,"version":"14.0b/19.0a"},{"town":"共栄通二丁目","koaza":"","lat":35.221261,"lng":137.08175,"version":"14.0b/19.0a"},{"town":"共栄通三丁目","koaza":"","lat":35.220648,"lng":137.079064,"version":"14.0b/19.0a"},{"town":"共栄通四丁目","koaza":"","lat":35.219657,"lng":137.075917,"version":"14.0b/19.0a"},{"town":"共栄通五丁目","koaza":"","lat":35.219048,"lng":137.073304,"version":"14.0b/19.0a"},{"town":"共栄通六丁目","koaza":"","lat":35.218093,"lng":137.070835,"version":"14.0b/19.0a"},{"town":"共栄通七丁目","koaza":"","lat":35.217207,"lng":137.068178,"version":"14.0b/19.0a"},{"town":"京町一丁目","koaza":"","lat":35.224429,"lng":137.090341,"version":"14.0b/19.0a"},{"town":"京町二丁目","koaza":"","lat":35.224229,"lng":137.087877,"version":"14.0b/19.0a"},{"town":"熊野町","koaza":"","lat":35.219922,"lng":137.090974,"version":"14.0b/19.0a"},{"town":"蔵所町","koaza":"","lat":35.224888,"lng":137.100191,"version":"14.0b/19.0a"},{"town":"五位塚町","koaza":"","lat":35.2348,"lng":137.118866,"version":"14.0b/19.0a"},{"town":"效範町一丁目","koaza":"","lat":35.221717,"lng":137.069528,"version":"14.0b/19.0a"},{"town":"效範町二丁目","koaza":"","lat":35.223372,"lng":137.068866,"version":"14.0b/19.0a"},{"town":"小坂町","koaza":"","lat":35.202038,"lng":137.050936,"version":"14.0b/19.0a"},{"town":"古瀬戸町","koaza":"","lat":35.228296,"lng":137.111407,"version":"14.0b/19.0a"},{"town":"小空町","koaza":"","lat":35.220986,"lng":137.127484,"version":"14.0b/19.0a"},{"town":"瘤木町","koaza":"","lat":35.213559,"lng":137.080596,"version":"14.0b/19.0a"},{"town":"駒前町","koaza":"","lat":35.199882,"lng":137.065559,"version":"14.0b/19.0a"},{"town":"紺屋田町","koaza":"","lat":35.233802,"lng":137.112485,"version":"14.0b/19.0a"},{"town":"幸町","koaza":"","lat":35.222548,"lng":137.096724,"version":"14.0b/19.0a"},{"town":"坂上町","koaza":"","lat":35.201346,"lng":137.054392,"version":"14.0b/19.0a"},{"town":"栄町","koaza":"","lat":35.22564,"lng":137.099305,"version":"14.0b/19.0a"},{"town":"さつき台一丁目","koaza":"","lat":35.237174,"lng":137.073202,"version":"14.0b/19.0a"},{"town":"さつき台二丁目","koaza":"","lat":35.237356,"lng":137.075304,"version":"14.0b/19.0a"},{"town":"さつき台三丁目","koaza":"","lat":35.237706,"lng":137.07697,"version":"14.0b/19.0a"},{"town":"さつき台四丁目","koaza":"","lat":35.235224,"lng":137.074331,"version":"14.0b/19.0a"},{"town":"さつき台五丁目","koaza":"","lat":35.236131,"lng":137.076223,"version":"14.0b/19.0a"},{"town":"塩草町","koaza":"","lat":35.210793,"lng":137.116979,"version":"14.0b/19.0a"},{"town":"十軒町","koaza":"","lat":35.255853,"lng":137.059019,"version":"14.0b/19.0a"},{"town":"品野町一丁目","koaza":"","lat":35.240318,"lng":137.115172,"version":"14.0b/19.0a"},{"town":"品野町二丁目","koaza":"","lat":35.244857,"lng":137.120134,"version":"14.0b/19.0a"},{"town":"品野町三丁目","koaza":"","lat":35.242678,"lng":137.123368,"version":"14.0b/19.0a"},{"town":"品野町四丁目","koaza":"","lat":35.247891,"lng":137.12064,"version":"14.0b/19.0a"},{"town":"品野町五丁目","koaza":"","lat":35.248267,"lng":137.125911,"version":"14.0b/19.0a"},{"town":"品野町六丁目","koaza":"","lat":35.250879,"lng":137.123367,"version":"14.0b/19.0a"},{"town":"品野町七丁目","koaza":"","lat":35.248946,"lng":137.128868,"version":"14.0b/19.0a"},{"town":"品野町八丁目","koaza":"","lat":35.253125,"lng":137.130816,"version":"14.0b/19.0a"},{"town":"下陣屋町","koaza":"","lat":35.228512,"lng":137.089272,"version":"14.0b/19.0a"},{"town":"下半田川町","koaza":"","lat":35.288824,"lng":137.123013,"version":"14.0b/19.0a"},{"town":"定光寺町","koaza":"","lat":35.280588,"lng":137.097045,"version":"14.0b/19.0a"},{"town":"白岩町","koaza":"","lat":35.256814,"lng":137.158299,"version":"14.0b/19.0a"},{"town":"白坂町","koaza":"","lat":35.223303,"lng":137.14616,"version":"14.0b/19.0a"},{"town":"城ケ根町","koaza":"","lat":35.211829,"lng":137.076226,"version":"14.0b/19.0a"},{"town":"城屋敷町","koaza":"","lat":35.216818,"lng":137.073651,"version":"14.0b/19.0a"},{"town":"新郷町","koaza":"","lat":35.213477,"lng":137.084292,"version":"14.0b/19.0a"},{"town":"新田町","koaza":"","lat":35.200291,"lng":137.079495,"version":"14.0b/19.0a"},{"town":"進陶町","koaza":"","lat":35.226913,"lng":137.087222,"version":"14.0b/19.0a"},{"town":"新道町","koaza":"","lat":35.227059,"lng":137.104713,"version":"14.0b/19.0a"},{"town":"新明町","koaza":"","lat":35.21931,"lng":137.124948,"version":"14.0b/19.0a"},{"town":"水南町","koaza":"","lat":35.227138,"lng":137.075744,"version":"14.0b/19.0a"},{"town":"水北町","koaza":"","lat":35.254248,"lng":137.085619,"version":"14.0b/19.0a"},{"town":"末広町一丁目","koaza":"","lat":35.225716,"lng":137.101665,"version":"14.0b/19.0a"},{"town":"末広町二丁目","koaza":"","lat":35.225528,"lng":137.103157,"version":"14.0b/19.0a"},{"town":"末広町三丁目","koaza":"","lat":35.225119,"lng":137.104342,"version":"14.0b/19.0a"},{"town":"杉塚町","koaza":"","lat":35.226505,"lng":137.106893,"version":"14.0b/19.0a"},{"town":"須原町","koaza":"","lat":35.229251,"lng":137.107502,"version":"14.0b/19.0a"},{"town":"すみれ台一丁目","koaza":"","lat":35.238908,"lng":137.07371,"version":"14.0b/19.0a"},{"town":"すみれ台二丁目","koaza":"","lat":35.240056,"lng":137.073497,"version":"14.0b/19.0a"},{"town":"すみれ台三丁目","koaza":"","lat":35.241353,"lng":137.073163,"version":"14.0b/19.0a"},{"town":"すみれ台四丁目","koaza":"","lat":35.241723,"lng":137.074213,"version":"14.0b/19.0a"},{"town":"すみれ台五丁目","koaza":"","lat":35.239237,"lng":137.076146,"version":"14.0b/19.0a"},{"town":"せいれい町","koaza":"","lat":35.204097,"lng":137.107639,"version":"14.0b/19.0a"},{"town":"背戸側町","koaza":"","lat":35.230013,"lng":137.099729,"version":"14.0b/19.0a"},{"town":"瀬戸口町","koaza":"","lat":35.204524,"lng":137.081906,"version":"14.0b/19.0a"},{"town":"惣作町","koaza":"","lat":35.217913,"lng":137.128687,"version":"14.0b/19.0a"},{"town":"曽野町","koaza":"","lat":35.260826,"lng":137.095437,"version":"14.0b/19.0a"},{"town":"祖母懐町","koaza":"","lat":35.222409,"lng":137.106169,"version":"14.0b/19.0a"},{"town":"太子町","koaza":"","lat":35.217525,"lng":137.122142,"version":"14.0b/19.0a"},{"town":"台六町","koaza":"","lat":35.193218,"lng":137.0824,"version":"14.0b/19.0a"},{"town":"高根町一丁目","koaza":"","lat":35.211161,"lng":137.070479,"version":"14.0b/19.0a"},{"town":"高根町二丁目","koaza":"","lat":35.209284,"lng":137.068373,"version":"14.0b/19.0a"},{"town":"高根町三丁目","koaza":"","lat":35.207064,"lng":137.06648,"version":"14.0b/19.0a"},{"town":"宝ケ丘町","koaza":"","lat":35.207949,"lng":137.105611,"version":"14.0b/19.0a"},{"town":"滝之湯町","koaza":"","lat":35.224924,"lng":137.091124,"version":"14.0b/19.0a"},{"town":"凧山町","koaza":"","lat":35.221531,"lng":137.135294,"version":"14.0b/19.0a"},{"town":"田中町","koaza":"","lat":35.196629,"lng":137.101825,"version":"14.0b/19.0a"},{"town":"田端町一丁目","koaza":"","lat":35.219173,"lng":137.063945,"version":"14.0b/19.0a"},{"town":"田端町二丁目","koaza":"","lat":35.220827,"lng":137.063431,"version":"14.0b/19.0a"},{"town":"寺本町","koaza":"","lat":35.226344,"lng":137.110067,"version":"14.0b/19.0a"},{"town":"陶栄町","koaza":"","lat":35.222661,"lng":137.101662,"version":"14.0b/19.0a"},{"town":"陶原町一丁目","koaza":"","lat":35.222686,"lng":137.093452,"version":"14.0b/19.0a"},{"town":"陶原町二丁目","koaza":"","lat":35.222616,"lng":137.091074,"version":"14.0b/19.0a"},{"town":"陶原町三丁目","koaza":"","lat":35.222724,"lng":137.08967,"version":"14.0b/19.0a"},{"town":"陶原町四丁目","koaza":"","lat":35.222533,"lng":137.088159,"version":"14.0b/19.0a"},{"town":"陶原町五丁目","koaza":"","lat":35.222601,"lng":137.087082,"version":"14.0b/19.0a"},{"town":"陶原町六丁目","koaza":"","lat":35.222597,"lng":137.085869,"version":"14.0b/19.0a"},{"town":"東郷町","koaza":"","lat":35.224914,"lng":137.108851,"version":"14.0b/19.0a"},{"town":"藤四郎町","koaza":"","lat":35.227999,"lng":137.109715,"version":"14.0b/19.0a"},{"town":"陶生町","koaza":"","lat":35.225199,"lng":137.106498,"version":"14.0b/19.0a"},{"town":"道泉町","koaza":"","lat":35.226756,"lng":137.093362,"version":"14.0b/19.0a"},{"town":"陶本町一丁目","koaza":"","lat":35.226025,"lng":137.098751,"version":"14.0b/19.0a"},{"town":"陶本町二丁目","koaza":"","lat":35.225575,"lng":137.097683,"version":"14.0b/19.0a"},{"town":"陶本町三丁目","koaza":"","lat":35.2252,"lng":137.096718,"version":"14.0b/19.0a"},{"town":"陶本町四丁目","koaza":"","lat":35.224801,"lng":137.095474,"version":"14.0b/19.0a"},{"town":"陶本町五丁目","koaza":"","lat":35.224399,"lng":137.09428,"version":"14.0b/19.0a"},{"town":"陶本町六丁目","koaza":"","lat":35.22417,"lng":137.093283,"version":"14.0b/19.0a"},{"town":"東明町","koaza":"","lat":35.222353,"lng":137.127587,"version":"14.0b/19.0a"},{"town":"鳥原町","koaza":"","lat":35.241193,"lng":137.134778,"version":"14.0b/19.0a"},{"town":"苗場町","koaza":"","lat":35.230208,"lng":137.074768,"version":"14.0b/19.0a"},{"town":"仲切町","koaza":"","lat":35.228044,"lng":137.100041,"version":"14.0b/19.0a"},{"town":"仲郷町","koaza":"","lat":35.223062,"lng":137.107593,"version":"14.0b/19.0a"},{"town":"中品野町","koaza":"","lat":35.249856,"lng":137.131906,"version":"14.0b/19.0a"},{"town":"中白坂町","koaza":"","lat":35.225394,"lng":137.163472,"version":"14.0b/19.0a"},{"town":"中畑町","koaza":"","lat":35.223053,"lng":137.132168,"version":"14.0b/19.0a"},{"town":"仲洞町","koaza":"","lat":35.225266,"lng":137.111372,"version":"14.0b/19.0a"},{"town":"中水野町一丁目","koaza":"","lat":35.24723,"lng":137.080854,"version":"14.0b/19.0a"},{"town":"中水野町二丁目","koaza":"","lat":35.247108,"lng":137.075137,"version":"14.0b/19.0a"},{"town":"中山町","koaza":"","lat":35.220879,"lng":137.112609,"version":"14.0b/19.0a"},{"town":"西茨町","koaza":"","lat":35.218114,"lng":137.099285,"version":"14.0b/19.0a"},{"town":"西印所町","koaza":"","lat":35.234369,"lng":137.101848,"version":"14.0b/19.0a"},{"town":"西追分町","koaza":"","lat":35.225368,"lng":137.081758,"version":"14.0b/19.0a"},{"town":"西窯町","koaza":"","lat":35.222759,"lng":137.129699,"version":"14.0b/19.0a"},{"town":"西蔵所町","koaza":"","lat":35.224425,"lng":137.098135,"version":"14.0b/19.0a"},{"town":"西郷町","koaza":"","lat":35.224049,"lng":137.106018,"version":"14.0b/19.0a"},{"town":"西古瀬戸町","koaza":"","lat":35.229662,"lng":137.112188,"version":"14.0b/19.0a"},{"town":"西米泉町","koaza":"","lat":35.200652,"lng":137.084957,"version":"14.0b/19.0a"},{"town":"西権現町","koaza":"","lat":35.221296,"lng":137.093523,"version":"14.0b/19.0a"},{"town":"西白坂町","koaza":"","lat":35.223236,"lng":137.155415,"version":"14.0b/19.0a"},{"town":"西谷町","koaza":"","lat":35.227151,"lng":137.096815,"version":"14.0b/19.0a"},{"town":"西寺山町","koaza":"","lat":35.214677,"lng":137.069127,"version":"14.0b/19.0a"},{"town":"西十三塚町","koaza":"","lat":35.225002,"lng":137.086443,"version":"14.0b/19.0a"},{"town":"西長根町","koaza":"","lat":35.213045,"lng":137.072805,"version":"14.0b/19.0a"},{"town":"西拝戸町","koaza":"","lat":35.223367,"lng":137.123227,"version":"14.0b/19.0a"},{"town":"西原町一丁目","koaza":"","lat":35.212175,"lng":137.067715,"version":"14.0b/19.0a"},{"town":"西原町二丁目","koaza":"","lat":35.209183,"lng":137.064564,"version":"14.0b/19.0a"},{"town":"西洞町","koaza":"","lat":35.223284,"lng":137.111544,"version":"14.0b/19.0a"},{"town":"西本地町一丁目","koaza":"","lat":35.204822,"lng":137.06032,"version":"14.0b/19.0a"},{"town":"西本地町二丁目","koaza":"","lat":35.206696,"lng":137.059035,"version":"14.0b/19.0a"},{"town":"西本町一丁目","koaza":"","lat":35.223759,"lng":137.09988,"version":"14.0b/19.0a"},{"town":"西本町二丁目","koaza":"","lat":35.224052,"lng":137.097775,"version":"14.0b/19.0a"},{"town":"西松山町一丁目","koaza":"","lat":35.229173,"lng":137.077874,"version":"14.0b/19.0a"},{"town":"西松山町二丁目","koaza":"","lat":35.231567,"lng":137.078203,"version":"14.0b/19.0a"},{"town":"西松山町三丁目","koaza":"","lat":35.232729,"lng":137.074992,"version":"14.0b/19.0a"},{"town":"西松山町四丁目","koaza":"","lat":35.234007,"lng":137.075337,"version":"14.0b/19.0a"},{"town":"西山路町","koaza":"","lat":35.207012,"lng":137.124219,"version":"14.0b/19.0a"},{"town":"西山町一丁目","koaza":"","lat":35.22046,"lng":137.059106,"version":"14.0b/19.0a"},{"town":"西山町二丁目","koaza":"","lat":35.224706,"lng":137.059102,"version":"14.0b/19.0a"},{"town":"西吉田町","koaza":"","lat":35.219658,"lng":137.084205,"version":"14.0b/19.0a"},{"town":"西脇町","koaza":"","lat":35.202758,"lng":137.074573,"version":"14.0b/19.0a"},{"town":"萩殿町一丁目","koaza":"","lat":35.219265,"lng":137.101831,"version":"14.0b/19.0a"},{"town":"萩殿町二丁目","koaza":"","lat":35.219412,"lng":137.104711,"version":"14.0b/19.0a"},{"town":"萩殿町三丁目","koaza":"","lat":35.215777,"lng":137.102358,"version":"14.0b/19.0a"},{"town":"萩殿町四丁目","koaza":"","lat":35.214868,"lng":137.10568,"version":"14.0b/19.0a"},{"town":"萩殿町五丁目","koaza":"","lat":35.2129,"lng":137.10473,"version":"14.0b/19.0a"},{"town":"はぎの台一丁目","koaza":"","lat":35.238473,"lng":137.070912,"version":"14.0b/19.0a"},{"town":"はぎの台二丁目","koaza":"","lat":35.238563,"lng":137.06872,"version":"14.0b/19.0a"},{"town":"はぎの台三丁目","koaza":"","lat":35.239899,"lng":137.070893,"version":"14.0b/19.0a"},{"town":"はぎの台四丁目","koaza":"","lat":35.240058,"lng":137.068745,"version":"14.0b/19.0a"},{"town":"萩山台一丁目","koaza":"","lat":35.210439,"lng":137.097831,"version":"14.0b/19.0a"},{"town":"萩山台二丁目","koaza":"","lat":35.211881,"lng":137.099423,"version":"14.0b/19.0a"},{"town":"萩山台三丁目","koaza":"","lat":35.213164,"lng":137.102143,"version":"14.0b/19.0a"},{"town":"萩山台四丁目","koaza":"","lat":35.211688,"lng":137.103902,"version":"14.0b/19.0a"},{"town":"萩山台五丁目","koaza":"","lat":35.210637,"lng":137.104127,"version":"14.0b/19.0a"},{"town":"萩山台六丁目","koaza":"","lat":35.209209,"lng":137.101803,"version":"14.0b/19.0a"},{"town":"萩山台七丁目","koaza":"","lat":35.210494,"lng":137.10124,"version":"14.0b/19.0a"},{"town":"萩山台八丁目","koaza":"","lat":35.208979,"lng":137.097973,"version":"14.0b/19.0a"},{"town":"萩山台九丁目","koaza":"","lat":35.208079,"lng":137.09921,"version":"14.0b/19.0a"},{"town":"白山町一丁目","koaza":"","lat":35.205132,"lng":137.085269,"version":"14.0b/19.0a"},{"town":"白山町二丁目","koaza":"","lat":35.202913,"lng":137.088101,"version":"14.0b/19.0a"},{"town":"巡間町","koaza":"","lat":35.21579,"lng":137.139498,"version":"14.0b/19.0a"},{"town":"長谷口町","koaza":"","lat":35.228553,"lng":137.147035,"version":"14.0b/19.0a"},{"town":"幡中町","koaza":"","lat":35.19642,"lng":137.07685,"version":"14.0b/19.0a"},{"town":"幡西町","koaza":"","lat":35.204266,"lng":137.07317,"version":"14.0b/19.0a"},{"town":"幡野町","koaza":"","lat":35.211658,"lng":137.086078,"version":"14.0b/19.0a"},{"town":"幡山町","koaza":"","lat":35.202765,"lng":137.080293,"version":"14.0b/19.0a"},{"town":"八王子町","koaza":"","lat":35.225602,"lng":137.135665,"version":"14.0b/19.0a"},{"town":"八幡台一丁目","koaza":"","lat":35.206881,"lng":137.092038,"version":"14.0b/19.0a"},{"town":"八幡台二丁目","koaza":"","lat":35.205773,"lng":137.09244,"version":"14.0b/19.0a"},{"town":"八幡台三丁目","koaza":"","lat":35.206252,"lng":137.095669,"version":"14.0b/19.0a"},{"town":"八幡台四丁目","koaza":"","lat":35.204635,"lng":137.096099,"version":"14.0b/19.0a"},{"town":"八幡台五丁目","koaza":"","lat":35.204904,"lng":137.098129,"version":"14.0b/19.0a"},{"town":"八幡台六丁目","koaza":"","lat":35.203928,"lng":137.100584,"version":"14.0b/19.0a"},{"town":"八幡台七丁目","koaza":"","lat":35.202359,"lng":137.098935,"version":"14.0b/19.0a"},{"town":"八幡台八丁目","koaza":"","lat":35.202826,"lng":137.095435,"version":"14.0b/19.0a"},{"town":"八幡台九丁目","koaza":"","lat":35.204123,"lng":137.091934,"version":"14.0b/19.0a"},{"town":"八幡町","koaza":"","lat":35.202476,"lng":137.103647,"version":"14.0b/19.0a"},{"town":"刎田町","koaza":"","lat":35.22727,"lng":137.107297,"version":"14.0b/19.0a"},{"town":"羽根町","koaza":"","lat":35.201532,"lng":137.076812,"version":"14.0b/19.0a"},{"town":"原山台一丁目","koaza":"","lat":35.209227,"lng":137.093573,"version":"14.0b/19.0a"},{"town":"原山台二丁目","koaza":"","lat":35.210494,"lng":137.094039,"version":"14.0b/19.0a"},{"town":"原山台三丁目","koaza":"","lat":35.209675,"lng":137.089745,"version":"14.0b/19.0a"},{"town":"原山台四丁目","koaza":"","lat":35.211143,"lng":137.091327,"version":"14.0b/19.0a"},{"town":"原山台五丁目","koaza":"","lat":35.211761,"lng":137.092046,"version":"14.0b/19.0a"},{"town":"原山台六丁目","koaza":"","lat":35.213614,"lng":137.092502,"version":"14.0b/19.0a"},{"town":"原山台七丁目","koaza":"","lat":35.212573,"lng":137.09322,"version":"14.0b/19.0a"},{"town":"原山台八丁目","koaza":"","lat":35.212784,"lng":137.096162,"version":"14.0b/19.0a"},{"town":"原山町","koaza":"","lat":35.21631,"lng":137.091994,"version":"14.0b/19.0a"},{"town":"針原町","koaza":"","lat":35.233772,"lng":137.140301,"version":"14.0b/19.0a"},{"town":"春雨町","koaza":"","lat":35.21666,"lng":137.108036,"version":"14.0b/19.0a"},{"town":"東赤重町一丁目","koaza":"","lat":35.209354,"lng":137.08456,"version":"14.0b/19.0a"},{"town":"東赤重町二丁目","koaza":"","lat":35.207606,"lng":137.082162,"version":"14.0b/19.0a"},{"town":"東茨町","koaza":"","lat":35.221328,"lng":137.101927,"version":"14.0b/19.0a"},{"town":"東印所町","koaza":"","lat":35.233995,"lng":137.107692,"version":"14.0b/19.0a"},{"town":"東古瀬戸町","koaza":"","lat":35.229177,"lng":137.114301,"version":"14.0b/19.0a"},{"town":"東米泉町","koaza":"","lat":35.199848,"lng":137.087498,"version":"14.0b/19.0a"},{"town":"東権現町","koaza":"","lat":35.218375,"lng":137.095917,"version":"14.0b/19.0a"},{"town":"東白坂町","koaza":"","lat":35.212052,"lng":137.164392,"version":"14.0b/19.0a"},{"town":"東寺山町","koaza":"","lat":35.215786,"lng":137.071583,"version":"14.0b/19.0a"},{"town":"東十三塚町","koaza":"","lat":35.225926,"lng":137.088968,"version":"14.0b/19.0a"},{"town":"東長根町","koaza":"","lat":35.21552,"lng":137.076749,"version":"14.0b/19.0a"},{"town":"東拝戸町","koaza":"","lat":35.225152,"lng":137.122814,"version":"14.0b/19.0a"},{"town":"東菱野町","koaza":"","lat":35.202221,"lng":137.083394,"version":"14.0b/19.0a"},{"town":"東洞町","koaza":"","lat":35.224146,"lng":137.114243,"version":"14.0b/19.0a"},{"town":"東本地町一丁目","koaza":"","lat":35.204658,"lng":137.070056,"version":"14.0b/19.0a"},{"town":"東本地町二丁目","koaza":"","lat":35.205047,"lng":137.066229,"version":"14.0b/19.0a"},{"town":"東本地町三丁目","koaza":"","lat":35.201926,"lng":137.068507,"version":"14.0b/19.0a"},{"town":"東本町一丁目","koaza":"","lat":35.223773,"lng":137.102221,"version":"14.0b/19.0a"},{"town":"東本町二丁目","koaza":"","lat":35.223194,"lng":137.103967,"version":"14.0b/19.0a"},{"town":"東松山町","koaza":"","lat":35.229969,"lng":137.082963,"version":"14.0b/19.0a"},{"town":"東安戸町","koaza":"","lat":35.229896,"lng":137.095211,"version":"14.0b/19.0a"},{"town":"東山路町","koaza":"","lat":35.204919,"lng":137.140588,"version":"14.0b/19.0a"},{"town":"東山町","koaza":"","lat":35.230194,"lng":137.064794,"version":"14.0b/19.0a"},{"town":"東山町一丁目","koaza":"","lat":35.228175,"lng":137.062544,"version":"14.0b/19.0a"},{"town":"東山町二丁目","koaza":"","lat":35.227174,"lng":137.066821,"version":"14.0b/19.0a"},{"town":"東横山町","koaza":"","lat":35.227325,"lng":137.078547,"version":"14.0b/19.0a"},{"town":"東吉田町","koaza":"","lat":35.220159,"lng":137.086747,"version":"14.0b/19.0a"},{"town":"菱野台一丁目","koaza":"","lat":35.208673,"lng":137.095207,"version":"14.0b/19.0a"},{"town":"菱野台二丁目","koaza":"","lat":35.210611,"lng":137.096393,"version":"14.0b/19.0a"},{"town":"菱野台三丁目","koaza":"","lat":35.207135,"lng":137.096969,"version":"14.0b/19.0a"},{"town":"菱野台四丁目","koaza":"","lat":35.208404,"lng":137.09299,"version":"14.0b/19.0a"},{"town":"菱野町","koaza":"","lat":35.206827,"lng":137.077223,"version":"14.0b/19.0a"},{"town":"日の出町","koaza":"","lat":35.242906,"lng":137.077578,"version":"14.0b/19.0a"},{"town":"ひまわり台一丁目","koaza":"","lat":35.237032,"lng":137.071372,"version":"14.0b/19.0a"},{"town":"ひまわり台二丁目","koaza":"","lat":35.237066,"lng":137.069733,"version":"14.0b/19.0a"},{"town":"ひまわり台三丁目","koaza":"","lat":35.237152,"lng":137.068227,"version":"14.0b/19.0a"},{"town":"ひまわり台五丁目","koaza":"","lat":35.234904,"lng":137.071894,"version":"14.0b/19.0a"},{"town":"平町一丁目","koaza":"","lat":35.219043,"lng":137.066462,"version":"14.0b/19.0a"},{"town":"平町二丁目","koaza":"","lat":35.220975,"lng":137.066604,"version":"14.0b/19.0a"},{"town":"平町三丁目","koaza":"","lat":35.222862,"lng":137.06599,"version":"14.0b/19.0a"},{"town":"広久手町","koaza":"","lat":35.190739,"lng":137.121042,"version":"14.0b/19.0a"},{"town":"広之田町","koaza":"","lat":35.2635,"lng":137.129397,"version":"14.0b/19.0a"},{"town":"深川町","koaza":"","lat":35.227365,"lng":137.102089,"version":"14.0b/19.0a"},{"town":"福元町","koaza":"","lat":35.205503,"lng":137.078978,"version":"14.0b/19.0a"},{"town":"ふじの台一丁目","koaza":"","lat":35.243533,"lng":137.06938,"version":"14.0b/19.0a"},{"town":"ふじの台二丁目","koaza":"","lat":35.244064,"lng":137.070764,"version":"14.0b/19.0a"},{"town":"ふじの台三丁目","koaza":"","lat":35.245289,"lng":137.070446,"version":"14.0b/19.0a"},{"town":"弁天町","koaza":"","lat":35.197974,"lng":137.083991,"version":"14.0b/19.0a"},{"town":"坊金町","koaza":"","lat":35.199594,"lng":137.060106,"version":"14.0b/19.0a"},{"town":"本郷町","koaza":"","lat":35.248832,"lng":137.066672,"version":"14.0b/19.0a"},{"town":"前田町","koaza":"","lat":35.225969,"lng":137.1065,"version":"14.0b/19.0a"},{"town":"孫田町","koaza":"","lat":35.223481,"lng":137.076809,"version":"14.0b/19.0a"},{"town":"松原町一丁目","koaza":"","lat":35.225097,"lng":137.067171,"version":"14.0b/19.0a"},{"town":"松原町二丁目","koaza":"","lat":35.226114,"lng":137.067963,"version":"14.0b/19.0a"},{"town":"松原町三丁目","koaza":"","lat":35.226297,"lng":137.069543,"version":"14.0b/19.0a"},{"town":"三沢町一丁目","koaza":"","lat":35.256016,"lng":137.079334,"version":"14.0b/19.0a"},{"town":"三沢町二丁目","koaza":"","lat":35.250336,"lng":137.072882,"version":"14.0b/19.0a"},{"town":"みずの坂二丁目","koaza":"","lat":35.242639,"lng":137.066275,"version":"14.0b/19.0a"},{"town":"みずの坂四丁目","koaza":"","lat":35.24524,"lng":137.067056,"version":"14.0b/19.0a"},{"town":"みずの坂五丁目","koaza":"","lat":35.245415,"lng":137.062768,"version":"14.0b/19.0a"},{"town":"見付町","koaza":"","lat":35.217726,"lng":137.080412,"version":"14.0b/19.0a"},{"town":"緑町一丁目","koaza":"","lat":35.207675,"lng":137.086944,"version":"14.0b/19.0a"},{"town":"緑町二丁目","koaza":"","lat":35.205913,"lng":137.089802,"version":"14.0b/19.0a"},{"town":"水無瀬町","koaza":"","lat":35.216313,"lng":137.083982,"version":"14.0b/19.0a"},{"town":"南東町","koaza":"","lat":35.223016,"lng":137.113087,"version":"14.0b/19.0a"},{"town":"南ケ丘町","koaza":"","lat":35.193056,"lng":137.074384,"version":"14.0b/19.0a"},{"town":"南白坂町","koaza":"","lat":35.217019,"lng":137.153338,"version":"14.0b/19.0a"},{"town":"南仲之切町","koaza":"","lat":35.224771,"lng":137.102368,"version":"14.0b/19.0a"},{"town":"南菱野町","koaza":"","lat":35.198894,"lng":137.070991,"version":"14.0b/19.0a"},{"town":"南山口町","koaza":"","lat":35.188398,"lng":137.092667,"version":"14.0b/19.0a"},{"town":"南山町一丁目","koaza":"","lat":35.223936,"lng":137.064497,"version":"14.0b/19.0a"},{"town":"南山町二丁目","koaza":"","lat":35.221261,"lng":137.061908,"version":"14.0b/19.0a"},{"town":"南山町三丁目","koaza":"","lat":35.223214,"lng":137.061436,"version":"14.0b/19.0a"},{"town":"美濃池町","koaza":"","lat":35.20844,"lng":137.070858,"version":"14.0b/19.0a"},{"town":"宮里町","koaza":"","lat":35.229135,"lng":137.102763,"version":"14.0b/19.0a"},{"town":"宮地町","koaza":"","lat":35.190522,"lng":137.106554,"version":"14.0b/19.0a"},{"town":"宮脇町","koaza":"","lat":35.228168,"lng":137.104431,"version":"14.0b/19.0a"},{"town":"元町一丁目","koaza":"","lat":35.225812,"lng":137.096614,"version":"14.0b/19.0a"},{"town":"元町二丁目","koaza":"","lat":35.225272,"lng":137.095259,"version":"14.0b/19.0a"},{"town":"元町三丁目","koaza":"","lat":35.224575,"lng":137.092778,"version":"14.0b/19.0a"},{"town":"門前町","koaza":"","lat":35.214041,"lng":137.130703,"version":"14.0b/19.0a"},{"town":"矢形町","koaza":"","lat":35.200358,"lng":137.09883,"version":"14.0b/19.0a"},{"town":"薬師町","koaza":"","lat":35.226119,"lng":137.103962,"version":"14.0b/19.0a"},{"town":"安戸町","koaza":"","lat":35.227405,"lng":137.090434,"version":"14.0b/19.0a"},{"town":"八床町","koaza":"","lat":35.248888,"lng":137.112948,"version":"14.0b/19.0a"},{"town":"屋戸町","koaza":"","lat":35.195935,"lng":137.111099,"version":"14.0b/19.0a"},{"town":"柳ケ坪町","koaza":"","lat":35.197428,"lng":137.098416,"version":"14.0b/19.0a"},{"town":"山口町","koaza":"","lat":35.198783,"lng":137.102862,"version":"14.0b/19.0a"},{"town":"山路町","koaza":"","lat":35.206369,"lng":137.134652,"version":"14.0b/19.0a"},{"town":"やまて坂一丁目","koaza":"","lat":35.232711,"lng":137.070606,"version":"14.0b/19.0a"},{"town":"やまて坂二丁目","koaza":"","lat":35.234186,"lng":137.069879,"version":"14.0b/19.0a"},{"town":"山手町","koaza":"","lat":35.230604,"lng":137.069772,"version":"14.0b/19.0a"},{"town":"山の田町","koaza":"","lat":35.194866,"lng":137.060097,"version":"14.0b/19.0a"},{"town":"山脇町","koaza":"","lat":35.224132,"lng":137.095407,"version":"14.0b/19.0a"},{"town":"湯之根町","koaza":"","lat":35.230397,"lng":137.102523,"version":"14.0b/19.0a"},{"town":"ゆりの台","koaza":"","lat":35.244422,"lng":137.073947,"version":"14.0b/19.0a"},{"town":"吉野町","koaza":"","lat":35.189762,"lng":137.110721,"version":"14.0b/19.0a"},{"town":"余床町","koaza":"","lat":35.269963,"lng":137.110432,"version":"14.0b/19.0a"},{"town":"若宮町一丁目","koaza":"","lat":35.207183,"lng":137.111879,"version":"14.0b/19.0a"},{"town":"若宮町二丁目","koaza":"","lat":35.200327,"lng":137.109578,"version":"14.0b/19.0a"},{"town":"若宮町三丁目","koaza":"","lat":35.197289,"lng":137.106176,"version":"14.0b/19.0a"},{"town":"みずの坂三丁目","koaza":"","lat":35.243191,"lng":137.063751,"version":"14.0b/19.0a"},{"town":"みずの坂一丁目","koaza":"","lat":35.240077,"lng":137.066553,"version":"14.0b/19.0a"},{"town":"ひまわり台四丁目","koaza":"","lat":35.237312,"lng":137.066659,"version":"14.0b/19.0a"},{"town":"やまて坂三丁目","koaza":"","lat":35.235587,"lng":137.067027,"version":"14.0b/19.0a"}]