[{"town":"大字上落合","koaza":"","lat":35.893904,"lng":139.633474,"version":"13.0b/18.0a"},{"town":"円阿弥一丁目","koaza":"","lat":35.887624,"lng":139.612764,"version":"13.0b/18.0a"},{"town":"本町西六丁目","koaza":"","lat":35.89315,"lng":139.613392,"version":"13.0b/18.0a"},{"town":"八王子一丁目","koaza":"","lat":35.885427,"lng":139.613892,"version":"13.0b/18.0a"},{"town":"円阿弥六丁目","koaza":"","lat":35.892748,"lng":139.608935,"version":"13.0b/18.0a"},{"town":"鈴谷一丁目","koaza":"","lat":35.86492,"lng":139.632279,"version":"13.0b/18.0a"},{"town":"上落合九丁目","koaza":"","lat":35.90053,"lng":139.624004,"version":"13.0b/18.0a"},{"town":"円阿弥三丁目","koaza":"","lat":35.889628,"lng":139.612135,"version":"13.0b/18.0a"},{"town":"円阿弥五丁目","koaza":"","lat":35.892407,"lng":139.607136,"version":"13.0b/18.0a"},{"town":"上峰四丁目","koaza":"","lat":35.877361,"lng":139.619958,"version":"13.0b/18.0a"},{"town":"円阿弥二丁目","koaza":"","lat":35.88635,"lng":139.610227,"version":"13.0b/18.0a"},{"town":"鈴谷三丁目","koaza":"","lat":35.868143,"lng":139.626079,"version":"13.0b/18.0a"},{"town":"鈴谷九丁目","koaza":"","lat":35.877729,"lng":139.628673,"version":"13.0b/18.0a"},{"town":"桜丘二丁目","koaza":"","lat":35.882184,"lng":139.615293,"version":"13.0b/18.0a"},{"town":"八王子二丁目","koaza":"","lat":35.883739,"lng":139.611414,"version":"13.0b/18.0a"},{"town":"上落合七丁目","koaza":"","lat":35.897137,"lng":139.623638,"version":"13.0b/18.0a"},{"town":"本町西三丁目","koaza":"","lat":35.885998,"lng":139.617304,"version":"13.0b/18.0a"},{"town":"上落合四丁目","koaza":"","lat":35.892998,"lng":139.625047,"version":"13.0b/18.0a"},{"town":"大戸三丁目","koaza":"","lat":35.8642,"lng":139.638474,"version":"13.0b/18.0a"},{"town":"本町東一丁目","koaza":"","lat":35.879558,"lng":139.625245,"version":"13.0b/18.0a"},{"town":"上落合六丁目","koaza":"","lat":35.894984,"lng":139.624604,"version":"13.0b/18.0a"},{"town":"大戸四丁目","koaza":"","lat":35.867874,"lng":139.641253,"version":"13.0b/18.0a"},{"town":"本町東七丁目","koaza":"","lat":35.892499,"lng":139.620584,"version":"13.0b/18.0a"},{"town":"桜丘一丁目","koaza":"","lat":35.878911,"lng":139.615539,"version":"13.0b/18.0a"},{"town":"上落合三丁目","koaza":"","lat":35.889993,"lng":139.62436,"version":"13.0b/18.0a"},{"town":"本町東六丁目","koaza":"","lat":35.892067,"lng":139.617673,"version":"13.0b/18.0a"},{"town":"新中里二丁目","koaza":"","lat":35.872336,"lng":139.634016,"version":"13.0b/18.0a"},{"town":"上落合一丁目","koaza":"","lat":35.890873,"lng":139.63017,"version":"13.0b/18.0a"},{"town":"八王子五丁目","koaza":"","lat":35.879985,"lng":139.605983,"version":"13.0b/18.0a"},{"town":"本町西四丁目","koaza":"","lat":35.888391,"lng":139.616282,"version":"13.0b/18.0a"},{"town":"鈴谷六丁目","koaza":"","lat":35.875128,"lng":139.630119,"version":"13.0b/18.0a"},{"town":"上落合五丁目","koaza":"","lat":35.896097,"lng":139.627762,"version":"13.0b/18.0a"},{"town":"本町東二丁目","koaza":"","lat":35.881423,"lng":139.624164,"version":"13.0b/18.0a"},{"town":"下落合六丁目","koaza":"","lat":35.882636,"lng":139.629268,"version":"13.0b/18.0a"},{"town":"鈴谷八丁目","koaza":"","lat":35.876931,"lng":139.625331,"version":"13.0b/18.0a"},{"town":"新中里一丁目","koaza":"","lat":35.872635,"lng":139.636493,"version":"13.0b/18.0a"},{"town":"上落合八丁目","koaza":"","lat":35.899419,"lng":139.622432,"version":"13.0b/18.0a"},{"town":"上峰三丁目","koaza":"","lat":35.874418,"lng":139.62087,"version":"13.0b/18.0a"},{"town":"下落合二丁目","koaza":"","lat":35.882477,"lng":139.634491,"version":"13.0b/18.0a"},{"town":"本町東三丁目","koaza":"","lat":35.883838,"lng":139.623039,"version":"13.0b/18.0a"},{"town":"本町東四丁目","koaza":"","lat":35.886219,"lng":139.621874,"version":"13.0b/18.0a"},{"town":"円阿弥七丁目","koaza":"","lat":35.893767,"lng":139.610633,"version":"13.0b/18.0a"},{"town":"大戸二丁目","koaza":"","lat":35.863994,"lng":139.635363,"version":"13.0b/18.0a"},{"town":"本町西二丁目","koaza":"","lat":35.883764,"lng":139.618224,"version":"13.0b/18.0a"},{"town":"新中里五丁目","koaza":"","lat":35.878133,"lng":139.636357,"version":"13.0b/18.0a"},{"town":"新中里三丁目","koaza":"","lat":35.875781,"lng":139.634448,"version":"13.0b/18.0a"},{"town":"下落合七丁目","koaza":"","lat":35.880771,"lng":139.630386,"version":"13.0b/18.0a"},{"town":"円阿弥四丁目","koaza":"","lat":35.888758,"lng":139.607378,"version":"13.0b/18.0a"},{"town":"八王子四丁目","koaza":"","lat":35.879972,"lng":139.608984,"version":"13.0b/18.0a"},{"town":"鈴谷五丁目","koaza":"","lat":35.872223,"lng":139.630775,"version":"13.0b/18.0a"},{"town":"上落合二丁目","koaza":"","lat":35.890428,"lng":139.627355,"version":"13.0b/18.0a"},{"town":"本町東五丁目","koaza":"","lat":35.889251,"lng":139.620716,"version":"13.0b/18.0a"},{"town":"鈴谷七丁目","koaza":"","lat":35.874494,"lng":139.625048,"version":"13.0b/18.0a"},{"town":"本町西五丁目","koaza":"","lat":35.890698,"lng":139.615165,"version":"13.0b/18.0a"},{"town":"下落合五丁目","koaza":"","lat":35.884538,"lng":139.628182,"version":"13.0b/18.0a"},{"town":"大字下落合","koaza":"","lat":35.884157,"lng":139.636659,"version":"13.0b/18.0a"},{"town":"新中里四丁目","koaza":"","lat":35.878624,"lng":139.632321,"version":"13.0b/18.0a"},{"town":"下落合四丁目","koaza":"","lat":35.887049,"lng":139.627024,"version":"13.0b/18.0a"},{"town":"下落合三丁目","koaza":"","lat":35.886458,"lng":139.63219,"version":"13.0b/18.0a"},{"town":"大戸六丁目","koaza":"","lat":35.868134,"lng":139.634084,"version":"13.0b/18.0a"},{"town":"上峰一丁目","koaza":"","lat":35.871982,"lng":139.6185,"version":"13.0b/18.0a"},{"town":"本町西一丁目","koaza":"","lat":35.880285,"lng":139.619539,"version":"13.0b/18.0a"},{"town":"鈴谷四丁目","koaza":"","lat":35.872234,"lng":139.625387,"version":"13.0b/18.0a"},{"town":"上峰二丁目","koaza":"","lat":35.876063,"lng":139.616512,"version":"13.0b/18.0a"},{"town":"大戸五丁目","koaza":"","lat":35.868278,"lng":139.638007,"version":"13.0b/18.0a"},{"town":"八王子三丁目","koaza":"","lat":35.880337,"lng":139.612169,"version":"13.0b/18.0a"},{"town":"大戸一丁目","koaza":"","lat":35.858774,"lng":139.639167,"version":"13.0b/18.0a"},{"town":"鈴谷二丁目","koaza":"","lat":35.868241,"lng":139.629644,"version":"13.0b/18.0a"},{"town":"新都心","koaza":"","lat":35.892607,"lng":139.631749,"version":"13.0b/18.0a"},{"town":"大字上落合","koaza":"","lat":35.893904,"lng":139.633474,"version":"14.0b/19.0a"},{"town":"円阿弥一丁目","koaza":"","lat":35.887624,"lng":139.612764,"version":"14.0b/19.0a"},{"town":"本町西六丁目","koaza":"","lat":35.89315,"lng":139.613392,"version":"14.0b/19.0a"},{"town":"八王子一丁目","koaza":"","lat":35.885427,"lng":139.613892,"version":"14.0b/19.0a"},{"town":"円阿弥六丁目","koaza":"","lat":35.892748,"lng":139.608935,"version":"14.0b/19.0a"},{"town":"鈴谷一丁目","koaza":"","lat":35.86492,"lng":139.632279,"version":"14.0b/19.0a"},{"town":"上落合九丁目","koaza":"","lat":35.90053,"lng":139.624004,"version":"14.0b/19.0a"},{"town":"円阿弥三丁目","koaza":"","lat":35.889628,"lng":139.612135,"version":"14.0b/19.0a"},{"town":"円阿弥五丁目","koaza":"","lat":35.892407,"lng":139.607136,"version":"14.0b/19.0a"},{"town":"上峰四丁目","koaza":"","lat":35.877361,"lng":139.619958,"version":"14.0b/19.0a"},{"town":"円阿弥二丁目","koaza":"","lat":35.88635,"lng":139.610227,"version":"14.0b/19.0a"},{"town":"鈴谷三丁目","koaza":"","lat":35.868143,"lng":139.626079,"version":"14.0b/19.0a"},{"town":"鈴谷九丁目","koaza":"","lat":35.877729,"lng":139.628673,"version":"14.0b/19.0a"},{"town":"桜丘二丁目","koaza":"","lat":35.882184,"lng":139.615293,"version":"14.0b/19.0a"},{"town":"八王子二丁目","koaza":"","lat":35.883739,"lng":139.611414,"version":"14.0b/19.0a"},{"town":"上落合七丁目","koaza":"","lat":35.897137,"lng":139.623638,"version":"14.0b/19.0a"},{"town":"本町西三丁目","koaza":"","lat":35.885998,"lng":139.617304,"version":"14.0b/19.0a"},{"town":"上落合四丁目","koaza":"","lat":35.892998,"lng":139.625047,"version":"14.0b/19.0a"},{"town":"大戸三丁目","koaza":"","lat":35.8642,"lng":139.638474,"version":"14.0b/19.0a"},{"town":"本町東一丁目","koaza":"","lat":35.879558,"lng":139.625245,"version":"14.0b/19.0a"},{"town":"上落合六丁目","koaza":"","lat":35.894984,"lng":139.624604,"version":"14.0b/19.0a"},{"town":"大戸四丁目","koaza":"","lat":35.867874,"lng":139.641253,"version":"14.0b/19.0a"},{"town":"本町東七丁目","koaza":"","lat":35.892499,"lng":139.620584,"version":"14.0b/19.0a"},{"town":"桜丘一丁目","koaza":"","lat":35.878911,"lng":139.615539,"version":"14.0b/19.0a"},{"town":"上落合三丁目","koaza":"","lat":35.889993,"lng":139.62436,"version":"14.0b/19.0a"},{"town":"本町東六丁目","koaza":"","lat":35.892067,"lng":139.617673,"version":"14.0b/19.0a"},{"town":"新中里二丁目","koaza":"","lat":35.872336,"lng":139.634016,"version":"14.0b/19.0a"},{"town":"上落合一丁目","koaza":"","lat":35.890873,"lng":139.63017,"version":"14.0b/19.0a"},{"town":"八王子五丁目","koaza":"","lat":35.879985,"lng":139.605983,"version":"14.0b/19.0a"},{"town":"本町西四丁目","koaza":"","lat":35.888391,"lng":139.616282,"version":"14.0b/19.0a"},{"town":"鈴谷六丁目","koaza":"","lat":35.875128,"lng":139.630119,"version":"14.0b/19.0a"},{"town":"上落合五丁目","koaza":"","lat":35.896097,"lng":139.627762,"version":"14.0b/19.0a"},{"town":"本町東二丁目","koaza":"","lat":35.881423,"lng":139.624164,"version":"14.0b/19.0a"},{"town":"下落合六丁目","koaza":"","lat":35.882636,"lng":139.629268,"version":"14.0b/19.0a"},{"town":"鈴谷八丁目","koaza":"","lat":35.876931,"lng":139.625331,"version":"14.0b/19.0a"},{"town":"新中里一丁目","koaza":"","lat":35.872635,"lng":139.636493,"version":"14.0b/19.0a"},{"town":"上落合八丁目","koaza":"","lat":35.899419,"lng":139.622432,"version":"14.0b/19.0a"},{"town":"上峰三丁目","koaza":"","lat":35.874418,"lng":139.62087,"version":"14.0b/19.0a"},{"town":"下落合二丁目","koaza":"","lat":35.882477,"lng":139.634491,"version":"14.0b/19.0a"},{"town":"本町東三丁目","koaza":"","lat":35.883838,"lng":139.623039,"version":"14.0b/19.0a"},{"town":"本町東四丁目","koaza":"","lat":35.886219,"lng":139.621874,"version":"14.0b/19.0a"},{"town":"円阿弥七丁目","koaza":"","lat":35.893767,"lng":139.610633,"version":"14.0b/19.0a"},{"town":"大戸二丁目","koaza":"","lat":35.863994,"lng":139.635363,"version":"14.0b/19.0a"},{"town":"本町西二丁目","koaza":"","lat":35.883764,"lng":139.618224,"version":"14.0b/19.0a"},{"town":"新中里五丁目","koaza":"","lat":35.878133,"lng":139.636357,"version":"14.0b/19.0a"},{"town":"新中里三丁目","koaza":"","lat":35.875781,"lng":139.634448,"version":"14.0b/19.0a"},{"town":"下落合七丁目","koaza":"","lat":35.880771,"lng":139.630386,"version":"14.0b/19.0a"},{"town":"円阿弥四丁目","koaza":"","lat":35.888758,"lng":139.607378,"version":"14.0b/19.0a"},{"town":"八王子四丁目","koaza":"","lat":35.879972,"lng":139.608984,"version":"14.0b/19.0a"},{"town":"鈴谷五丁目","koaza":"","lat":35.872223,"lng":139.630775,"version":"14.0b/19.0a"},{"town":"上落合二丁目","koaza":"","lat":35.890428,"lng":139.627355,"version":"14.0b/19.0a"},{"town":"本町東五丁目","koaza":"","lat":35.889251,"lng":139.620716,"version":"14.0b/19.0a"},{"town":"鈴谷七丁目","koaza":"","lat":35.874494,"lng":139.625048,"version":"14.0b/19.0a"},{"town":"本町西五丁目","koaza":"","lat":35.890698,"lng":139.615165,"version":"14.0b/19.0a"},{"town":"下落合五丁目","koaza":"","lat":35.884538,"lng":139.628182,"version":"14.0b/19.0a"},{"town":"大字下落合","koaza":"","lat":35.884157,"lng":139.636659,"version":"14.0b/19.0a"},{"town":"新中里四丁目","koaza":"","lat":35.878624,"lng":139.632321,"version":"14.0b/19.0a"},{"town":"下落合四丁目","koaza":"","lat":35.887049,"lng":139.627024,"version":"14.0b/19.0a"},{"town":"下落合三丁目","koaza":"","lat":35.886458,"lng":139.63219,"version":"14.0b/19.0a"},{"town":"大戸六丁目","koaza":"","lat":35.868134,"lng":139.634084,"version":"14.0b/19.0a"},{"town":"上峰一丁目","koaza":"","lat":35.871982,"lng":139.6185,"version":"14.0b/19.0a"},{"town":"本町西一丁目","koaza":"","lat":35.880285,"lng":139.619539,"version":"14.0b/19.0a"},{"town":"鈴谷四丁目","koaza":"","lat":35.872234,"lng":139.625387,"version":"14.0b/19.0a"},{"town":"上峰二丁目","koaza":"","lat":35.876063,"lng":139.616512,"version":"14.0b/19.0a"},{"town":"大戸五丁目","koaza":"","lat":35.868278,"lng":139.638007,"version":"14.0b/19.0a"},{"town":"八王子三丁目","koaza":"","lat":35.880337,"lng":139.612169,"version":"14.0b/19.0a"},{"town":"大戸一丁目","koaza":"","lat":35.858774,"lng":139.639167,"version":"14.0b/19.0a"},{"town":"鈴谷二丁目","koaza":"","lat":35.868241,"lng":139.629644,"version":"14.0b/19.0a"},{"town":"新都心","koaza":"","lat":35.892607,"lng":139.631749,"version":"14.0b/19.0a"}]