[{"town":"大字上加","koaza":"","lat":35.931542,"lng":139.605794,"version":"13.0b/18.0a"},{"town":"土呂町","koaza":"","lat":35.92643,"lng":139.636515,"version":"13.0b/18.0a"},{"town":"植竹町二丁目","koaza":"","lat":35.931069,"lng":139.626706,"version":"13.0b/18.0a"},{"town":"見沼一丁目","koaza":"","lat":35.924881,"lng":139.640558,"version":"13.0b/18.0a"},{"town":"見沼三丁目","koaza":"","lat":35.93893,"lng":139.639495,"version":"13.0b/18.0a"},{"town":"東大成町一丁目","koaza":"","lat":35.920687,"lng":139.621887,"version":"13.0b/18.0a"},{"town":"見沼二丁目","koaza":"","lat":35.931087,"lng":139.640043,"version":"13.0b/18.0a"},{"town":"植竹町一丁目","koaza":"","lat":35.925574,"lng":139.624524,"version":"13.0b/18.0a"},{"town":"宮原町三丁目","koaza":"","lat":35.937952,"lng":139.610941,"version":"13.0b/18.0a"},{"town":"盆栽町","koaza":"","lat":35.925697,"lng":139.630673,"version":"13.0b/18.0a"},{"town":"土呂町一丁目","koaza":"","lat":35.934291,"lng":139.630809,"version":"13.0b/18.0a"},{"town":"東大成町二丁目","koaza":"","lat":35.929424,"lng":139.617848,"version":"13.0b/18.0a"},{"town":"櫛引町二丁目","koaza":"","lat":35.920025,"lng":139.608347,"version":"13.0b/18.0a"},{"town":"土呂町二丁目","koaza":"","lat":35.932885,"lng":139.634988,"version":"13.0b/18.0a"},{"town":"大成町四丁目","koaza":"","lat":35.92655,"lng":139.614553,"version":"13.0b/18.0a"},{"town":"今羽町","koaza":"","lat":35.952589,"lng":139.622446,"version":"13.0b/18.0a"},{"town":"日進町三丁目","koaza":"","lat":35.937618,"lng":139.603031,"version":"13.0b/18.0a"},{"town":"宮原町二丁目","koaza":"","lat":35.941848,"lng":139.616449,"version":"13.0b/18.0a"},{"town":"宮原町四丁目","koaza":"","lat":35.947573,"lng":139.608471,"version":"13.0b/18.0a"},{"town":"宮原町一丁目","koaza":"","lat":35.936042,"lng":139.620195,"version":"13.0b/18.0a"},{"town":"別所町","koaza":"","lat":35.956472,"lng":139.596157,"version":"13.0b/18.0a"},{"town":"奈良町","koaza":"","lat":35.947255,"lng":139.601082,"version":"13.0b/18.0a"},{"town":"日進町一丁目","koaza":"","lat":35.920781,"lng":139.600034,"version":"13.0b/18.0a"},{"town":"日進町二丁目","koaza":"","lat":35.929758,"lng":139.605349,"version":"13.0b/18.0a"},{"town":"吉野町二丁目","koaza":"","lat":35.959199,"lng":139.608683,"version":"13.0b/18.0a"},{"town":"吉野町一丁目","koaza":"","lat":35.953009,"lng":139.613396,"version":"13.0b/18.0a"},{"town":"本郷町","koaza":"","lat":35.942284,"lng":139.628895,"version":"13.0b/18.0a"},{"town":"大字上加","koaza":"","lat":35.931542,"lng":139.605794,"version":"14.0b/19.0a"},{"town":"土呂町","koaza":"","lat":35.92643,"lng":139.636515,"version":"14.0b/19.0a"},{"town":"植竹町二丁目","koaza":"","lat":35.931069,"lng":139.626706,"version":"14.0b/19.0a"},{"town":"見沼一丁目","koaza":"","lat":35.924881,"lng":139.640558,"version":"14.0b/19.0a"},{"town":"見沼三丁目","koaza":"","lat":35.93893,"lng":139.639495,"version":"14.0b/19.0a"},{"town":"東大成町一丁目","koaza":"","lat":35.920687,"lng":139.621887,"version":"14.0b/19.0a"},{"town":"見沼二丁目","koaza":"","lat":35.931087,"lng":139.640043,"version":"14.0b/19.0a"},{"town":"植竹町一丁目","koaza":"","lat":35.925574,"lng":139.624524,"version":"14.0b/19.0a"},{"town":"宮原町三丁目","koaza":"","lat":35.937952,"lng":139.610941,"version":"14.0b/19.0a"},{"town":"盆栽町","koaza":"","lat":35.925697,"lng":139.630673,"version":"14.0b/19.0a"},{"town":"土呂町一丁目","koaza":"","lat":35.934291,"lng":139.630809,"version":"14.0b/19.0a"},{"town":"東大成町二丁目","koaza":"","lat":35.929424,"lng":139.617848,"version":"14.0b/19.0a"},{"town":"櫛引町二丁目","koaza":"","lat":35.920025,"lng":139.608347,"version":"14.0b/19.0a"},{"town":"土呂町二丁目","koaza":"","lat":35.932885,"lng":139.634988,"version":"14.0b/19.0a"},{"town":"大成町四丁目","koaza":"","lat":35.92655,"lng":139.614553,"version":"14.0b/19.0a"},{"town":"今羽町","koaza":"","lat":35.952589,"lng":139.622446,"version":"14.0b/19.0a"},{"town":"日進町三丁目","koaza":"","lat":35.937618,"lng":139.603031,"version":"14.0b/19.0a"},{"town":"宮原町二丁目","koaza":"","lat":35.941848,"lng":139.616449,"version":"14.0b/19.0a"},{"town":"宮原町四丁目","koaza":"","lat":35.947573,"lng":139.608471,"version":"14.0b/19.0a"},{"town":"宮原町一丁目","koaza":"","lat":35.936042,"lng":139.620195,"version":"14.0b/19.0a"},{"town":"別所町","koaza":"","lat":35.956472,"lng":139.596157,"version":"14.0b/19.0a"},{"town":"奈良町","koaza":"","lat":35.947255,"lng":139.601082,"version":"14.0b/19.0a"},{"town":"日進町一丁目","koaza":"","lat":35.920781,"lng":139.600034,"version":"14.0b/19.0a"},{"town":"日進町二丁目","koaza":"","lat":35.929758,"lng":139.605349,"version":"14.0b/19.0a"},{"town":"吉野町二丁目","koaza":"","lat":35.959199,"lng":139.608683,"version":"14.0b/19.0a"},{"town":"吉野町一丁目","koaza":"","lat":35.953009,"lng":139.613396,"version":"14.0b/19.0a"},{"town":"本郷町","koaza":"","lat":35.942284,"lng":139.628895,"version":"14.0b/19.0a"}]