[{"town":"ゆめみ野三丁目","koaza":"","lat":35.920304,"lng":139.821673,"version":"13.0b/18.0a"},{"town":"松葉二丁目","koaza":"","lat":35.927619,"lng":139.825289,"version":"13.0b/18.0a"},{"town":"ゆめみ野二丁目","koaza":"","lat":35.922257,"lng":139.820935,"version":"13.0b/18.0a"},{"town":"田島東","koaza":"","lat":35.929611,"lng":139.838927,"version":"13.0b/18.0a"},{"town":"ゆめみ野東一丁目","koaza":"","lat":35.926022,"lng":139.826131,"version":"13.0b/18.0a"},{"town":"ゆめみ野一丁目","koaza":"","lat":35.924022,"lng":139.820328,"version":"13.0b/18.0a"},{"town":"松葉一丁目","koaza":"","lat":35.92631,"lng":139.821427,"version":"13.0b/18.0a"},{"town":"ゆめみ野六丁目","koaza":"","lat":35.925084,"lng":139.823297,"version":"13.0b/18.0a"},{"town":"ゆめみ野五丁目","koaza":"","lat":35.92311,"lng":139.823954,"version":"13.0b/18.0a"},{"town":"ゆめみ野四丁目","koaza":"","lat":35.921079,"lng":139.824749,"version":"13.0b/18.0a"},{"town":"ゆめみ野東二丁目","koaza":"","lat":35.92463,"lng":139.828448,"version":"13.0b/18.0a"},{"town":"ゆめみ野東四丁目","koaza":"","lat":35.920124,"lng":139.83035,"version":"13.0b/18.0a"},{"town":"田中一丁目","koaza":"","lat":35.924396,"lng":139.812635,"version":"13.0b/18.0a"},{"town":"ゆめみ野東三丁目","koaza":"","lat":35.922412,"lng":139.829499,"version":"13.0b/18.0a"},{"town":"田中三丁目","koaza":"","lat":35.921321,"lng":139.807298,"version":"13.0b/18.0a"},{"town":"田中二丁目","koaza":"","lat":35.925637,"lng":139.810127,"version":"13.0b/18.0a"},{"town":"大字田島","koaza":"","lat":35.932927,"lng":139.832851,"version":"13.0b/18.0a"},{"town":"大字下赤岩","koaza":"","lat":35.912091,"lng":139.837975,"version":"13.0b/18.0a"},{"town":"大字魚沼","koaza":"","lat":35.958394,"lng":139.820373,"version":"13.0b/18.0a"},{"town":"大字上赤岩","koaza":"","lat":35.915423,"lng":139.826592,"version":"13.0b/18.0a"},{"town":"大字金杉","koaza":"","lat":35.944569,"lng":139.831329,"version":"13.0b/18.0a"},{"town":"大字松伏","koaza":"","lat":35.926189,"lng":139.833793,"version":"13.0b/18.0a"},{"town":"大字築比地","koaza":"","lat":35.956053,"lng":139.832425,"version":"13.0b/18.0a"},{"town":"大字大川戸","koaza":"","lat":35.944217,"lng":139.815206,"version":"13.0b/18.0a"},{"town":"ゆめみ野三丁目","koaza":"","lat":35.920304,"lng":139.821673,"version":"14.0b/19.0a"},{"town":"松葉二丁目","koaza":"","lat":35.927619,"lng":139.825289,"version":"14.0b/19.0a"},{"town":"ゆめみ野二丁目","koaza":"","lat":35.922257,"lng":139.820935,"version":"14.0b/19.0a"},{"town":"田島東","koaza":"","lat":35.929611,"lng":139.838927,"version":"14.0b/19.0a"},{"town":"ゆめみ野東一丁目","koaza":"","lat":35.926022,"lng":139.826131,"version":"14.0b/19.0a"},{"town":"ゆめみ野一丁目","koaza":"","lat":35.924022,"lng":139.820328,"version":"14.0b/19.0a"},{"town":"松葉一丁目","koaza":"","lat":35.92631,"lng":139.821427,"version":"14.0b/19.0a"},{"town":"ゆめみ野六丁目","koaza":"","lat":35.925084,"lng":139.823297,"version":"14.0b/19.0a"},{"town":"ゆめみ野五丁目","koaza":"","lat":35.92311,"lng":139.823954,"version":"14.0b/19.0a"},{"town":"ゆめみ野四丁目","koaza":"","lat":35.921079,"lng":139.824749,"version":"14.0b/19.0a"},{"town":"ゆめみ野東二丁目","koaza":"","lat":35.92463,"lng":139.828448,"version":"14.0b/19.0a"},{"town":"ゆめみ野東四丁目","koaza":"","lat":35.920124,"lng":139.83035,"version":"14.0b/19.0a"},{"town":"田中一丁目","koaza":"","lat":35.924396,"lng":139.812635,"version":"14.0b/19.0a"},{"town":"ゆめみ野東三丁目","koaza":"","lat":35.922412,"lng":139.829499,"version":"14.0b/19.0a"},{"town":"田中三丁目","koaza":"","lat":35.921321,"lng":139.807298,"version":"14.0b/19.0a"},{"town":"田中二丁目","koaza":"","lat":35.925637,"lng":139.810127,"version":"14.0b/19.0a"},{"town":"大字田島","koaza":"","lat":35.932927,"lng":139.832851,"version":"14.0b/19.0a"},{"town":"大字下赤岩","koaza":"","lat":35.912091,"lng":139.837975,"version":"14.0b/19.0a"},{"town":"大字魚沼","koaza":"","lat":35.958394,"lng":139.820373,"version":"14.0b/19.0a"},{"town":"大字上赤岩","koaza":"","lat":35.915423,"lng":139.826592,"version":"14.0b/19.0a"},{"town":"大字金杉","koaza":"","lat":35.944569,"lng":139.831329,"version":"14.0b/19.0a"},{"town":"大字松伏","koaza":"","lat":35.926189,"lng":139.833793,"version":"14.0b/19.0a"},{"town":"大字築比地","koaza":"","lat":35.956053,"lng":139.832425,"version":"14.0b/19.0a"},{"town":"大字大川戸","koaza":"","lat":35.944217,"lng":139.815206,"version":"14.0b/19.0a"}]