[{"town":"大字上広谷","koaza":"","lat":35.936974,"lng":139.423205,"version":"13.0b/18.0a"},{"town":"大字青柳","koaza":"","lat":35.893537,"lng":139.45183,"version":"13.0b/18.0a"},{"town":"大字岸","koaza":"","lat":35.891774,"lng":139.483761,"version":"13.0b/18.0a"},{"town":"大字富士見","koaza":"","lat":35.952998,"lng":139.42185,"version":"13.0b/18.0a"},{"town":"大字藤倉","koaza":"","lat":35.89532,"lng":139.438519,"version":"13.0b/18.0a"},{"town":"大字栄","koaza":"","lat":35.95724,"lng":139.424367,"version":"13.0b/18.0a"},{"town":"大字上新河岸","koaza":"","lat":35.892889,"lng":139.503813,"version":"13.0b/18.0a"},{"town":"大字豊田新田","koaza":"","lat":35.894257,"lng":139.451529,"version":"13.0b/18.0a"},{"town":"松江町二丁目","koaza":"","lat":35.920828,"lng":139.484912,"version":"13.0b/18.0a"},{"town":"大字南大塚","koaza":"","lat":35.892748,"lng":139.452286,"version":"13.0b/18.0a"},{"town":"霞ケ関北一丁目","koaza":"","lat":35.924442,"lng":139.436129,"version":"13.0b/18.0a"},{"town":"末広町二丁目","koaza":"","lat":35.923216,"lng":139.480615,"version":"13.0b/18.0a"},{"town":"霞ケ関東三丁目","koaza":"","lat":35.922053,"lng":139.444716,"version":"13.0b/18.0a"},{"town":"元町一丁目","koaza":"","lat":35.924857,"lng":139.484576,"version":"13.0b/18.0a"},{"town":"末広町一丁目","koaza":"","lat":35.921732,"lng":139.478528,"version":"13.0b/18.0a"},{"town":"久保町","koaza":"","lat":35.9199,"lng":139.489313,"version":"13.0b/18.0a"},{"town":"伊勢原町四丁目","koaza":"","lat":35.921916,"lng":139.425659,"version":"13.0b/18.0a"},{"town":"大字扇河岸","koaza":"","lat":35.898505,"lng":139.498562,"version":"13.0b/18.0a"},{"town":"大字野田","koaza":"","lat":35.918313,"lng":139.4709,"version":"13.0b/18.0a"},{"town":"幸町","koaza":"","lat":35.923048,"lng":139.48262,"version":"13.0b/18.0a"},{"town":"喜多町","koaza":"","lat":35.926575,"lng":139.482477,"version":"13.0b/18.0a"},{"town":"大手町","koaza":"","lat":35.923124,"lng":139.485245,"version":"13.0b/18.0a"},{"town":"西小仙波町一丁目","koaza":"","lat":35.91737,"lng":139.48699,"version":"13.0b/18.0a"},{"town":"霞ケ関北三丁目","koaza":"","lat":35.927166,"lng":139.433913,"version":"13.0b/18.0a"},{"town":"末広町三丁目","koaza":"","lat":35.922753,"lng":139.477796,"version":"13.0b/18.0a"},{"town":"元町二丁目","koaza":"","lat":35.92496,"lng":139.481499,"version":"13.0b/18.0a"},{"town":"霞ケ関北四丁目","koaza":"","lat":35.923888,"lng":139.434539,"version":"13.0b/18.0a"},{"town":"松江町一丁目","koaza":"","lat":35.918089,"lng":139.485504,"version":"13.0b/18.0a"},{"town":"かわつる三芳野","koaza":"","lat":35.921996,"lng":139.409627,"version":"13.0b/18.0a"},{"town":"仲町","koaza":"","lat":35.920911,"lng":139.481886,"version":"13.0b/18.0a"},{"town":"六軒町二丁目","koaza":"","lat":35.919376,"lng":139.479392,"version":"13.0b/18.0a"},{"town":"中原町一丁目","koaza":"","lat":35.916839,"lng":139.481178,"version":"13.0b/18.0a"},{"town":"宮下町二丁目","koaza":"","lat":35.928611,"lng":139.486348,"version":"13.0b/18.0a"},{"town":"的場北二丁目","koaza":"","lat":35.924366,"lng":139.439023,"version":"13.0b/18.0a"},{"town":"大字東明寺","koaza":"","lat":35.936369,"lng":139.50621,"version":"13.0b/18.0a"},{"town":"中台一丁目","koaza":"","lat":35.89153,"lng":139.474345,"version":"13.0b/18.0a"},{"town":"志多町","koaza":"","lat":35.928636,"lng":139.484022,"version":"13.0b/18.0a"},{"town":"霞ケ関北五丁目","koaza":"","lat":35.924431,"lng":139.43019,"version":"13.0b/18.0a"},{"town":"通町","koaza":"","lat":35.914181,"lng":139.485164,"version":"13.0b/18.0a"},{"town":"霞ケ関東四丁目","koaza":"","lat":35.922745,"lng":139.44738,"version":"13.0b/18.0a"},{"town":"吉田新町二丁目","koaza":"","lat":35.925261,"lng":139.421045,"version":"13.0b/18.0a"},{"town":"日東町","koaza":"","lat":35.894482,"lng":139.438014,"version":"13.0b/18.0a"},{"town":"新宿町四丁目","koaza":"","lat":35.89646,"lng":139.48166,"version":"13.0b/18.0a"},{"town":"霞ケ関東二丁目","koaza":"","lat":35.924479,"lng":139.445645,"version":"13.0b/18.0a"},{"town":"霞ケ関北二丁目","koaza":"","lat":35.927732,"lng":139.436569,"version":"13.0b/18.0a"},{"town":"吉田新町三丁目","koaza":"","lat":35.928174,"lng":139.42027,"version":"13.0b/18.0a"},{"town":"霞ケ関東五丁目","koaza":"","lat":35.922403,"lng":139.449816,"version":"13.0b/18.0a"},{"town":"新富町一丁目","koaza":"","lat":35.915756,"lng":139.483437,"version":"13.0b/18.0a"},{"town":"中台元町二丁目","koaza":"","lat":35.890521,"lng":139.483601,"version":"13.0b/18.0a"},{"town":"むさし野南","koaza":"","lat":35.888072,"lng":139.466887,"version":"13.0b/18.0a"},{"town":"川鶴三丁目","koaza":"","lat":35.920334,"lng":139.406451,"version":"13.0b/18.0a"},{"town":"連雀町","koaza":"","lat":35.918918,"lng":139.482637,"version":"13.0b/18.0a"},{"town":"中原町二丁目","koaza":"","lat":35.913414,"lng":139.479475,"version":"13.0b/18.0a"},{"town":"並木新町","koaza":"","lat":35.901397,"lng":139.517608,"version":"13.0b/18.0a"},{"town":"伊勢原町一丁目","koaza":"","lat":35.921753,"lng":139.432419,"version":"13.0b/18.0a"},{"town":"かすみ野二丁目","koaza":"","lat":35.904332,"lng":139.41475,"version":"13.0b/18.0a"},{"town":"郭町一丁目","koaza":"","lat":35.923528,"lng":139.487639,"version":"13.0b/18.0a"},{"town":"霞ケ関北六丁目","koaza":"","lat":35.926685,"lng":139.431037,"version":"13.0b/18.0a"},{"town":"吉田新町一丁目","koaza":"","lat":35.926638,"lng":139.422609,"version":"13.0b/18.0a"},{"town":"三久保町","koaza":"","lat":35.920807,"lng":139.488197,"version":"13.0b/18.0a"},{"town":"中台三丁目","koaza":"","lat":35.889296,"lng":139.469836,"version":"13.0b/18.0a"},{"town":"的場北一丁目","koaza":"","lat":35.926199,"lng":139.43921,"version":"13.0b/18.0a"},{"town":"仙波町一丁目","koaza":"","lat":35.911091,"lng":139.48957,"version":"13.0b/18.0a"},{"town":"新富町二丁目","koaza":"","lat":35.912521,"lng":139.482323,"version":"13.0b/18.0a"},{"town":"川鶴二丁目","koaza":"","lat":35.921778,"lng":139.412795,"version":"13.0b/18.0a"},{"town":"寿町二丁目","koaza":"","lat":35.9077,"lng":139.466263,"version":"13.0b/18.0a"},{"town":"砂新田三丁目","koaza":"","lat":35.88856,"lng":139.488881,"version":"13.0b/18.0a"},{"town":"六軒町一丁目","koaza":"","lat":35.915683,"lng":139.478442,"version":"13.0b/18.0a"},{"town":"伊勢原町三丁目","koaza":"","lat":35.923475,"lng":139.426869,"version":"13.0b/18.0a"},{"town":"豊田町三丁目","koaza":"","lat":35.901397,"lng":139.463429,"version":"13.0b/18.0a"},{"town":"霞ケ関東一丁目","koaza":"","lat":35.923375,"lng":139.441919,"version":"13.0b/18.0a"},{"town":"砂新田四丁目","koaza":"","lat":35.88545,"lng":139.491654,"version":"13.0b/18.0a"},{"town":"南通町","koaza":"","lat":35.910642,"lng":139.485988,"version":"13.0b/18.0a"},{"town":"並木西町","koaza":"","lat":35.900667,"lng":139.514316,"version":"13.0b/18.0a"},{"town":"宮下町一丁目","koaza":"","lat":35.926275,"lng":139.488463,"version":"13.0b/18.0a"},{"town":"小仙波町四丁目","koaza":"","lat":35.914719,"lng":139.495308,"version":"13.0b/18.0a"},{"town":"伊勢原町二丁目","koaza":"","lat":35.921236,"lng":139.429784,"version":"13.0b/18.0a"},{"town":"菅原町","koaza":"","lat":35.906839,"lng":139.486042,"version":"13.0b/18.0a"},{"town":"砂新田二丁目","koaza":"","lat":35.890062,"lng":139.490081,"version":"13.0b/18.0a"},{"town":"大字下新河岸","koaza":"","lat":35.880605,"lng":139.490485,"version":"13.0b/18.0a"},{"town":"かすみ野三丁目","koaza":"","lat":35.899823,"lng":139.414309,"version":"13.0b/18.0a"},{"town":"西小仙波町二丁目","koaza":"","lat":35.91414,"lng":139.487811,"version":"13.0b/18.0a"},{"town":"三光町","koaza":"","lat":35.918563,"lng":139.47639,"version":"13.0b/18.0a"},{"town":"小仙波町五丁目","koaza":"","lat":35.914245,"lng":139.491309,"version":"13.0b/18.0a"},{"town":"四都野台","koaza":"","lat":35.894733,"lng":139.4661,"version":"13.0b/18.0a"},{"town":"大字鯨井新田","koaza":"","lat":35.933353,"lng":139.420291,"version":"13.0b/18.0a"},{"town":"清水町","koaza":"","lat":35.877976,"lng":139.505819,"version":"13.0b/18.0a"},{"town":"藤木町","koaza":"","lat":35.896726,"lng":139.512168,"version":"13.0b/18.0a"},{"town":"大字川越","koaza":"","lat":35.93036,"lng":139.501678,"version":"13.0b/18.0a"},{"town":"上戸新町","koaza":"","lat":35.925821,"lng":139.449784,"version":"13.0b/18.0a"},{"town":"小仙波町一丁目","koaza":"","lat":35.917614,"lng":139.490035,"version":"13.0b/18.0a"},{"town":"熊野町","koaza":"","lat":35.875894,"lng":139.503234,"version":"13.0b/18.0a"},{"town":"脇田町","koaza":"","lat":35.908277,"lng":139.483291,"version":"13.0b/18.0a"},{"town":"大字平塚新田","koaza":"","lat":35.955058,"lng":139.462269,"version":"13.0b/18.0a"},{"town":"南台三丁目","koaza":"","lat":35.887905,"lng":139.454368,"version":"13.0b/18.0a"},{"town":"大字寺井","koaza":"","lat":35.933485,"lng":139.507074,"version":"13.0b/18.0a"},{"town":"中福東","koaza":"","lat":35.868184,"lng":139.474143,"version":"13.0b/18.0a"},{"town":"小仙波町三丁目","koaza":"","lat":35.917301,"lng":139.495388,"version":"13.0b/18.0a"},{"town":"かすみ野一丁目","koaza":"","lat":35.902281,"lng":139.417137,"version":"13.0b/18.0a"},{"town":"今成一丁目","koaza":"","lat":35.924702,"lng":139.473608,"version":"13.0b/18.0a"},{"town":"問屋町","koaza":"","lat":35.922883,"lng":139.511314,"version":"13.0b/18.0a"},{"town":"南大塚四丁目","koaza":"","lat":35.889078,"lng":139.457597,"version":"13.0b/18.0a"},{"town":"新宿町二丁目","koaza":"","lat":35.902704,"lng":139.485507,"version":"13.0b/18.0a"},{"town":"伊勢原町五丁目","koaza":"","lat":35.921592,"lng":139.423382,"version":"13.0b/18.0a"},{"town":"諏訪町","koaza":"","lat":35.879495,"lng":139.499986,"version":"13.0b/18.0a"},{"town":"砂新田一丁目","koaza":"","lat":35.892422,"lng":139.487513,"version":"13.0b/18.0a"},{"town":"南大塚五丁目","koaza":"","lat":35.88702,"lng":139.463055,"version":"13.0b/18.0a"},{"town":"南台二丁目","koaza":"","lat":35.890658,"lng":139.452115,"version":"13.0b/18.0a"},{"town":"脇田新町","koaza":"","lat":35.905511,"lng":139.472619,"version":"13.0b/18.0a"},{"town":"田町","koaza":"","lat":35.914121,"lng":139.475836,"version":"13.0b/18.0a"},{"town":"広谷新町","koaza":"","lat":35.946863,"lng":139.42891,"version":"13.0b/18.0a"},{"town":"砂新田五丁目","koaza":"","lat":35.883887,"lng":139.489017,"version":"13.0b/18.0a"},{"town":"南大塚三丁目","koaza":"","lat":35.890554,"lng":139.460013,"version":"13.0b/18.0a"},{"town":"砂新田六丁目","koaza":"","lat":35.879816,"lng":139.485953,"version":"13.0b/18.0a"},{"town":"川鶴一丁目","koaza":"","lat":35.922629,"lng":139.416331,"version":"13.0b/18.0a"},{"town":"寿町一丁目","koaza":"","lat":35.905055,"lng":139.466907,"version":"13.0b/18.0a"},{"town":"藤原町","koaza":"","lat":35.883064,"lng":139.499508,"version":"13.0b/18.0a"},{"town":"泉町","koaza":"","lat":35.904778,"lng":139.512687,"version":"13.0b/18.0a"},{"town":"稲荷町","koaza":"","lat":35.881332,"lng":139.503039,"version":"13.0b/18.0a"},{"town":"的場二丁目","koaza":"","lat":35.915753,"lng":139.42701,"version":"13.0b/18.0a"},{"town":"仙波町二丁目","koaza":"","lat":35.907699,"lng":139.489496,"version":"13.0b/18.0a"},{"town":"富士見町","koaza":"","lat":35.903453,"lng":139.488421,"version":"13.0b/18.0a"},{"town":"広栄町","koaza":"","lat":35.902056,"lng":139.468042,"version":"13.0b/18.0a"},{"town":"野田町二丁目","koaza":"","lat":35.908036,"lng":139.470905,"version":"13.0b/18.0a"},{"town":"新宿町三丁目","koaza":"","lat":35.899203,"lng":139.483823,"version":"13.0b/18.0a"},{"town":"旭町二丁目","koaza":"","lat":35.901059,"lng":139.473597,"version":"13.0b/18.0a"},{"town":"石原町一丁目","koaza":"","lat":35.924902,"lng":139.477644,"version":"13.0b/18.0a"},{"town":"野田町一丁目","koaza":"","lat":35.911767,"lng":139.474016,"version":"13.0b/18.0a"},{"town":"仙波町四丁目","koaza":"","lat":35.906702,"lng":139.493496,"version":"13.0b/18.0a"},{"town":"的場一丁目","koaza":"","lat":35.913124,"lng":139.428404,"version":"13.0b/18.0a"},{"town":"旭町一丁目","koaza":"","lat":35.90405,"lng":139.475619,"version":"13.0b/18.0a"},{"town":"中台元町一丁目","koaza":"","lat":35.891939,"lng":139.479296,"version":"13.0b/18.0a"},{"town":"芳野台三丁目","koaza":"","lat":35.942526,"lng":139.522922,"version":"13.0b/18.0a"},{"town":"今成三丁目","koaza":"","lat":35.921305,"lng":139.467257,"version":"13.0b/18.0a"},{"town":"月吉町","koaza":"","lat":35.920487,"lng":139.473453,"version":"13.0b/18.0a"},{"town":"郭町二丁目","koaza":"","lat":35.924,"lng":139.491692,"version":"13.0b/18.0a"},{"town":"小仙波町二丁目","koaza":"","lat":35.920502,"lng":139.493832,"version":"13.0b/18.0a"},{"town":"東田町","koaza":"","lat":35.909461,"lng":139.477043,"version":"13.0b/18.0a"},{"town":"新宿町一丁目","koaza":"","lat":35.902933,"lng":139.480752,"version":"13.0b/18.0a"},{"town":"南大塚二丁目","koaza":"","lat":35.893572,"lng":139.456251,"version":"13.0b/18.0a"},{"town":"旭町三丁目","koaza":"","lat":35.898553,"lng":139.471365,"version":"13.0b/18.0a"},{"town":"大字高島","koaza":"","lat":35.914135,"lng":139.509496,"version":"13.0b/18.0a"},{"town":"仙波町三丁目","koaza":"","lat":35.911975,"lng":139.494157,"version":"13.0b/18.0a"},{"town":"今成四丁目","koaza":"","lat":35.919236,"lng":139.466882,"version":"13.0b/18.0a"},{"town":"新宿町五丁目","koaza":"","lat":35.899698,"lng":139.478256,"version":"13.0b/18.0a"},{"town":"南大塚一丁目","koaza":"","lat":35.897732,"lng":139.453606,"version":"13.0b/18.0a"},{"town":"岸町三丁目","koaza":"","lat":35.894253,"lng":139.483564,"version":"13.0b/18.0a"},{"town":"脇田本町","koaza":"","lat":35.907469,"lng":139.480144,"version":"13.0b/18.0a"},{"town":"大字竹野","koaza":"","lat":35.954131,"lng":139.424933,"version":"13.0b/18.0a"},{"town":"豊田町二丁目","koaza":"","lat":35.901414,"lng":139.458424,"version":"13.0b/18.0a"},{"town":"むさし野","koaza":"","lat":35.891895,"lng":139.466824,"version":"13.0b/18.0a"},{"town":"大塚一丁目","koaza":"","lat":35.897533,"lng":139.459968,"version":"13.0b/18.0a"},{"town":"岸町二丁目","koaza":"","lat":35.897624,"lng":139.488282,"version":"13.0b/18.0a"},{"town":"大字八ツ島","koaza":"","lat":35.916573,"lng":139.509887,"version":"13.0b/18.0a"},{"town":"城下町","koaza":"","lat":35.928342,"lng":139.49403,"version":"13.0b/18.0a"},{"town":"的場新町","koaza":"","lat":35.918391,"lng":139.426977,"version":"13.0b/18.0a"},{"town":"今成二丁目","koaza":"","lat":35.924298,"lng":139.4674,"version":"13.0b/18.0a"},{"town":"新宿町六丁目","koaza":"","lat":35.894632,"lng":139.476081,"version":"13.0b/18.0a"},{"town":"芳野台一丁目","koaza":"","lat":35.948508,"lng":139.520485,"version":"13.0b/18.0a"},{"town":"神明町","koaza":"","lat":35.930981,"lng":139.479174,"version":"13.0b/18.0a"},{"town":"上野田町","koaza":"","lat":35.913291,"lng":139.470099,"version":"13.0b/18.0a"},{"town":"氷川町","koaza":"","lat":35.930024,"lng":139.490842,"version":"13.0b/18.0a"},{"town":"大字砂久保","koaza":"","lat":35.885635,"lng":139.482803,"version":"13.0b/18.0a"},{"town":"宮元町","koaza":"","lat":35.932692,"lng":139.484581,"version":"13.0b/18.0a"},{"town":"大字牛子","koaza":"","lat":35.892066,"lng":139.508738,"version":"13.0b/18.0a"},{"town":"石原町二丁目","koaza":"","lat":35.928984,"lng":139.473865,"version":"13.0b/18.0a"},{"town":"芳野台二丁目","koaza":"","lat":35.95106,"lng":139.509185,"version":"13.0b/18.0a"},{"town":"大字谷中","koaza":"","lat":35.942572,"lng":139.495251,"version":"13.0b/18.0a"},{"town":"大字小仙波","koaza":"","lat":35.917308,"lng":139.502212,"version":"13.0b/18.0a"},{"town":"大字鹿飼","koaza":"","lat":35.946918,"lng":139.516144,"version":"13.0b/18.0a"},{"town":"大字今泉","koaza":"","lat":35.895325,"lng":139.526683,"version":"13.0b/18.0a"},{"town":"御成町","koaza":"","lat":35.935719,"lng":139.491354,"version":"13.0b/18.0a"},{"town":"大字並木","koaza":"","lat":35.90207,"lng":139.523316,"version":"13.0b/18.0a"},{"town":"大字東本宿","koaza":"","lat":35.935372,"lng":139.53609,"version":"13.0b/18.0a"},{"town":"大字萱沼","koaza":"","lat":35.890892,"lng":139.551584,"version":"13.0b/18.0a"},{"town":"大字石田","koaza":"","lat":35.940979,"lng":139.487559,"version":"13.0b/18.0a"},{"town":"大字大中居","koaza":"","lat":35.908515,"lng":139.512612,"version":"13.0b/18.0a"},{"town":"大字上戸","koaza":"","lat":35.928423,"lng":139.44924,"version":"13.0b/18.0a"},{"town":"大字上松原","koaza":"","lat":35.865571,"lng":139.476914,"version":"13.0b/18.0a"},{"town":"大字上老袋","koaza":"","lat":35.946445,"lng":139.530417,"version":"13.0b/18.0a"},{"town":"大字古市場","koaza":"","lat":35.886366,"lng":139.528888,"version":"13.0b/18.0a"},{"town":"大字中老袋","koaza":"","lat":35.94232,"lng":139.535609,"version":"13.0b/18.0a"},{"town":"大字小中居","koaza":"","lat":35.9076,"lng":139.524144,"version":"13.0b/18.0a"},{"town":"大字石田本郷","koaza":"","lat":35.944096,"lng":139.504614,"version":"13.0b/18.0a"},{"town":"大字吉田","koaza":"","lat":35.929575,"lng":139.429195,"version":"13.0b/18.0a"},{"town":"大字平塚","koaza":"","lat":35.946629,"lng":139.465369,"version":"13.0b/18.0a"},{"town":"大字木野目","koaza":"","lat":35.895275,"lng":139.518338,"version":"13.0b/18.0a"},{"town":"大字北田島","koaza":"","lat":35.93669,"lng":139.500565,"version":"13.0b/18.0a"},{"town":"大字渋井","koaza":"","lat":35.882321,"lng":139.536316,"version":"13.0b/18.0a"},{"town":"大字大袋","koaza":"","lat":35.89787,"lng":139.443872,"version":"13.0b/18.0a"},{"town":"大字寺山","koaza":"","lat":35.941363,"lng":139.469764,"version":"13.0b/18.0a"},{"town":"大字伊佐沼","koaza":"","lat":35.926899,"lng":139.512927,"version":"13.0b/18.0a"},{"town":"大字天沼新田","koaza":"","lat":35.934775,"lng":139.426859,"version":"13.0b/18.0a"},{"town":"大字下老袋","koaza":"","lat":35.930566,"lng":139.531116,"version":"13.0b/18.0a"},{"town":"大字上寺山","koaza":"","lat":35.933132,"lng":139.466622,"version":"13.0b/18.0a"},{"town":"大字砂","koaza":"","lat":35.89465,"lng":139.497635,"version":"13.0b/18.0a"},{"town":"大字安比奈新田","koaza":"","lat":35.90159,"lng":139.42474,"version":"13.0b/18.0a"},{"town":"大字南田島","koaza":"","lat":35.901255,"lng":139.507384,"version":"13.0b/18.0a"},{"town":"大字砂新田","koaza":"","lat":35.882105,"lng":139.493504,"version":"13.0b/18.0a"},{"town":"大字松郷","koaza":"","lat":35.92408,"lng":139.501777,"version":"13.0b/18.0a"},{"town":"大字福田","koaza":"","lat":35.954312,"lng":139.473247,"version":"13.0b/18.0a"},{"town":"大字寺尾","koaza":"","lat":35.885231,"lng":139.509471,"version":"13.0b/18.0a"},{"town":"大字小ケ谷","koaza":"","lat":35.921487,"lng":139.457673,"version":"13.0b/18.0a"},{"town":"大字府川","koaza":"","lat":35.948391,"lng":139.484735,"version":"13.0b/18.0a"},{"town":"大字小堤","koaza":"","lat":35.939557,"lng":139.440266,"version":"13.0b/18.0a"},{"town":"大字下赤坂","koaza":"","lat":35.860134,"lng":139.478455,"version":"13.0b/18.0a"},{"town":"大字菅間","koaza":"","lat":35.951834,"lng":139.496928,"version":"13.0b/18.0a"},{"town":"大字下小坂","koaza":"","lat":35.947461,"lng":139.45502,"version":"13.0b/18.0a"},{"town":"大字中福","koaza":"","lat":35.86165,"lng":139.46532,"version":"13.0b/18.0a"},{"town":"大字下松原","koaza":"","lat":35.869043,"lng":139.488442,"version":"13.0b/18.0a"},{"town":"大字池辺","koaza":"","lat":35.907112,"lng":139.444906,"version":"13.0b/18.0a"},{"town":"大字山田","koaza":"","lat":35.944225,"lng":139.477853,"version":"13.0b/18.0a"},{"town":"大字藤間","koaza":"","lat":35.88006,"lng":139.496716,"version":"13.0b/18.0a"},{"town":"大字下広谷","koaza":"","lat":35.951094,"lng":139.42861,"version":"13.0b/18.0a"},{"town":"大字鯨井","koaza":"","lat":35.93752,"lng":139.453685,"version":"13.0b/18.0a"},{"town":"大字鴨田","koaza":"","lat":35.935397,"lng":139.517297,"version":"13.0b/18.0a"},{"town":"大字久下戸","koaza":"","lat":35.895023,"lng":139.538122,"version":"13.0b/18.0a"},{"town":"大字的場","koaza":"","lat":35.913387,"lng":139.437627,"version":"13.0b/18.0a"},{"town":"大字古谷本郷","koaza":"","lat":35.908993,"lng":139.544091,"version":"13.0b/18.0a"},{"town":"大字古谷上","koaza":"","lat":35.921471,"lng":139.530763,"version":"13.0b/18.0a"},{"town":"大字笠幡","koaza":"","lat":35.908242,"lng":139.404865,"version":"13.0b/18.0a"},{"town":"大字大袋新田","koaza":"","lat":35.892488,"lng":139.4421,"version":"13.0b/18.0a"},{"town":"藤倉一丁目","koaza":"","lat":35.889859,"lng":139.437021,"version":"13.0b/18.0a"},{"town":"大字増形","koaza":"","lat":35.895189,"lng":139.427104,"version":"13.0b/18.0a"},{"town":"藤倉二丁目","koaza":"","lat":35.885983,"lng":139.436015,"version":"13.0b/18.0a"},{"town":"大字山城","koaza":"","lat":35.890864,"lng":139.444314,"version":"13.0b/18.0a"},{"town":"南台一丁目","koaza":"","lat":35.884812,"lng":139.44796,"version":"13.0b/18.0a"},{"town":"かし野台二丁目","koaza":"","lat":35.887291,"lng":139.443177,"version":"13.0b/18.0a"},{"town":"かし野台一丁目","koaza":"","lat":35.887809,"lng":139.441254,"version":"13.0b/18.0a"},{"town":"大字豊田本","koaza":"","lat":35.898308,"lng":139.456998,"version":"13.0b/18.0a"},{"town":"豊田町一丁目","koaza":"","lat":35.905399,"lng":139.461502,"version":"13.0b/18.0a"},{"town":"大字小室","koaza":"","lat":35.91631,"lng":139.463163,"version":"13.0b/18.0a"},{"town":"豊田本二丁目","koaza":"","lat":35.910877,"lng":139.459572,"version":"13.0b/18.0a"},{"town":"豊田本一丁目","koaza":"","lat":35.911298,"lng":139.46558,"version":"13.0b/18.0a"},{"town":"南大塚六丁目","koaza":"","lat":35.880322,"lng":139.45926,"version":"13.0b/18.0a"},{"town":"中台南三丁目","koaza":"","lat":35.876234,"lng":139.459032,"version":"13.0b/18.0a"},{"town":"中台南一丁目","koaza":"","lat":35.885287,"lng":139.465619,"version":"13.0b/18.0a"},{"town":"中台二丁目","koaza":"","lat":35.888308,"lng":139.473402,"version":"13.0b/18.0a"},{"town":"岸町一丁目","koaza":"","lat":35.900751,"lng":139.491491,"version":"13.0b/18.0a"},{"town":"大字大仙波新田","koaza":"","lat":35.901051,"lng":139.494573,"version":"13.0b/18.0a"},{"town":"大字大仙波","koaza":"","lat":35.908772,"lng":139.500868,"version":"13.0b/18.0a"},{"town":"大塚二丁目","koaza":"","lat":35.89585,"lng":139.469751,"version":"13.0b/18.0a"},{"town":"大字大塚新田","koaza":"","lat":35.897999,"lng":139.464973,"version":"13.0b/18.0a"},{"town":"大塚新町","koaza":"","lat":35.89534,"lng":139.463345,"version":"13.0b/18.0a"},{"town":"中台南二丁目","koaza":"","lat":35.881832,"lng":139.465145,"version":"13.0b/18.0a"},{"town":"大字今福","koaza":"","lat":35.880888,"lng":139.473591,"version":"13.0b/18.0a"},{"town":"豊田本三丁目","koaza":"","lat":35.911058,"lng":139.454275,"version":"13.0b/18.0a"},{"town":"豊田本四丁目","koaza":"","lat":35.904573,"lng":139.455732,"version":"13.0b/18.0a"},{"town":"豊田本五丁目","koaza":"","lat":35.901479,"lng":139.45149,"version":"13.0b/18.0a"},{"town":"大字上広谷","koaza":"","lat":35.936974,"lng":139.423205,"version":"14.0b/19.0a"},{"town":"大字青柳","koaza":"","lat":35.893537,"lng":139.45183,"version":"14.0b/19.0a"},{"town":"大字岸","koaza":"","lat":35.891774,"lng":139.483761,"version":"14.0b/19.0a"},{"town":"大字富士見","koaza":"","lat":35.952998,"lng":139.42185,"version":"14.0b/19.0a"},{"town":"大字藤倉","koaza":"","lat":35.89532,"lng":139.438519,"version":"14.0b/19.0a"},{"town":"大字栄","koaza":"","lat":35.95724,"lng":139.424367,"version":"14.0b/19.0a"},{"town":"大字上新河岸","koaza":"","lat":35.892889,"lng":139.503813,"version":"14.0b/19.0a"},{"town":"大字豊田新田","koaza":"","lat":35.894257,"lng":139.451529,"version":"14.0b/19.0a"},{"town":"松江町二丁目","koaza":"","lat":35.920828,"lng":139.484912,"version":"14.0b/19.0a"},{"town":"大字南大塚","koaza":"","lat":35.892748,"lng":139.452286,"version":"14.0b/19.0a"},{"town":"霞ケ関北一丁目","koaza":"","lat":35.924442,"lng":139.436129,"version":"14.0b/19.0a"},{"town":"末広町二丁目","koaza":"","lat":35.923216,"lng":139.480615,"version":"14.0b/19.0a"},{"town":"霞ケ関東三丁目","koaza":"","lat":35.922053,"lng":139.444716,"version":"14.0b/19.0a"},{"town":"元町一丁目","koaza":"","lat":35.924857,"lng":139.484576,"version":"14.0b/19.0a"},{"town":"末広町一丁目","koaza":"","lat":35.921732,"lng":139.478528,"version":"14.0b/19.0a"},{"town":"久保町","koaza":"","lat":35.9199,"lng":139.489313,"version":"14.0b/19.0a"},{"town":"伊勢原町四丁目","koaza":"","lat":35.921916,"lng":139.425659,"version":"14.0b/19.0a"},{"town":"大字扇河岸","koaza":"","lat":35.898505,"lng":139.498562,"version":"14.0b/19.0a"},{"town":"大字野田","koaza":"","lat":35.918313,"lng":139.4709,"version":"14.0b/19.0a"},{"town":"幸町","koaza":"","lat":35.923048,"lng":139.48262,"version":"14.0b/19.0a"},{"town":"喜多町","koaza":"","lat":35.926575,"lng":139.482477,"version":"14.0b/19.0a"},{"town":"大手町","koaza":"","lat":35.923124,"lng":139.485245,"version":"14.0b/19.0a"},{"town":"西小仙波町一丁目","koaza":"","lat":35.91737,"lng":139.48699,"version":"14.0b/19.0a"},{"town":"霞ケ関北三丁目","koaza":"","lat":35.927166,"lng":139.433913,"version":"14.0b/19.0a"},{"town":"末広町三丁目","koaza":"","lat":35.922753,"lng":139.477796,"version":"14.0b/19.0a"},{"town":"元町二丁目","koaza":"","lat":35.92496,"lng":139.481499,"version":"14.0b/19.0a"},{"town":"霞ケ関北四丁目","koaza":"","lat":35.923888,"lng":139.434539,"version":"14.0b/19.0a"},{"town":"松江町一丁目","koaza":"","lat":35.918089,"lng":139.485504,"version":"14.0b/19.0a"},{"town":"かわつる三芳野","koaza":"","lat":35.921996,"lng":139.409627,"version":"14.0b/19.0a"},{"town":"仲町","koaza":"","lat":35.920911,"lng":139.481886,"version":"14.0b/19.0a"},{"town":"六軒町二丁目","koaza":"","lat":35.919376,"lng":139.479392,"version":"14.0b/19.0a"},{"town":"中原町一丁目","koaza":"","lat":35.916839,"lng":139.481178,"version":"14.0b/19.0a"},{"town":"宮下町二丁目","koaza":"","lat":35.928611,"lng":139.486348,"version":"14.0b/19.0a"},{"town":"的場北二丁目","koaza":"","lat":35.924366,"lng":139.439023,"version":"14.0b/19.0a"},{"town":"大字東明寺","koaza":"","lat":35.936369,"lng":139.50621,"version":"14.0b/19.0a"},{"town":"中台一丁目","koaza":"","lat":35.89153,"lng":139.474345,"version":"14.0b/19.0a"},{"town":"志多町","koaza":"","lat":35.928636,"lng":139.484022,"version":"14.0b/19.0a"},{"town":"霞ケ関北五丁目","koaza":"","lat":35.924431,"lng":139.43019,"version":"14.0b/19.0a"},{"town":"通町","koaza":"","lat":35.914181,"lng":139.485164,"version":"14.0b/19.0a"},{"town":"霞ケ関東四丁目","koaza":"","lat":35.922745,"lng":139.44738,"version":"14.0b/19.0a"},{"town":"吉田新町二丁目","koaza":"","lat":35.925261,"lng":139.421045,"version":"14.0b/19.0a"},{"town":"日東町","koaza":"","lat":35.894482,"lng":139.438014,"version":"14.0b/19.0a"},{"town":"新宿町四丁目","koaza":"","lat":35.89646,"lng":139.48166,"version":"14.0b/19.0a"},{"town":"霞ケ関東二丁目","koaza":"","lat":35.924479,"lng":139.445645,"version":"14.0b/19.0a"},{"town":"霞ケ関北二丁目","koaza":"","lat":35.927732,"lng":139.436569,"version":"14.0b/19.0a"},{"town":"吉田新町三丁目","koaza":"","lat":35.928174,"lng":139.42027,"version":"14.0b/19.0a"},{"town":"霞ケ関東五丁目","koaza":"","lat":35.922403,"lng":139.449816,"version":"14.0b/19.0a"},{"town":"新富町一丁目","koaza":"","lat":35.915756,"lng":139.483437,"version":"14.0b/19.0a"},{"town":"中台元町二丁目","koaza":"","lat":35.890521,"lng":139.483601,"version":"14.0b/19.0a"},{"town":"むさし野南","koaza":"","lat":35.888072,"lng":139.466887,"version":"14.0b/19.0a"},{"town":"川鶴三丁目","koaza":"","lat":35.920334,"lng":139.406451,"version":"14.0b/19.0a"},{"town":"連雀町","koaza":"","lat":35.918918,"lng":139.482637,"version":"14.0b/19.0a"},{"town":"中原町二丁目","koaza":"","lat":35.913414,"lng":139.479475,"version":"14.0b/19.0a"},{"town":"並木新町","koaza":"","lat":35.901397,"lng":139.517608,"version":"14.0b/19.0a"},{"town":"伊勢原町一丁目","koaza":"","lat":35.921753,"lng":139.432419,"version":"14.0b/19.0a"},{"town":"かすみ野二丁目","koaza":"","lat":35.904332,"lng":139.41475,"version":"14.0b/19.0a"},{"town":"郭町一丁目","koaza":"","lat":35.923528,"lng":139.487639,"version":"14.0b/19.0a"},{"town":"霞ケ関北六丁目","koaza":"","lat":35.926685,"lng":139.431037,"version":"14.0b/19.0a"},{"town":"吉田新町一丁目","koaza":"","lat":35.926638,"lng":139.422609,"version":"14.0b/19.0a"},{"town":"三久保町","koaza":"","lat":35.920807,"lng":139.488197,"version":"14.0b/19.0a"},{"town":"中台三丁目","koaza":"","lat":35.889296,"lng":139.469836,"version":"14.0b/19.0a"},{"town":"的場北一丁目","koaza":"","lat":35.926199,"lng":139.43921,"version":"14.0b/19.0a"},{"town":"仙波町一丁目","koaza":"","lat":35.911091,"lng":139.48957,"version":"14.0b/19.0a"},{"town":"新富町二丁目","koaza":"","lat":35.912521,"lng":139.482323,"version":"14.0b/19.0a"},{"town":"川鶴二丁目","koaza":"","lat":35.921778,"lng":139.412795,"version":"14.0b/19.0a"},{"town":"寿町二丁目","koaza":"","lat":35.9077,"lng":139.466263,"version":"14.0b/19.0a"},{"town":"砂新田三丁目","koaza":"","lat":35.88856,"lng":139.488881,"version":"14.0b/19.0a"},{"town":"六軒町一丁目","koaza":"","lat":35.915683,"lng":139.478442,"version":"14.0b/19.0a"},{"town":"伊勢原町三丁目","koaza":"","lat":35.923475,"lng":139.426869,"version":"14.0b/19.0a"},{"town":"豊田町三丁目","koaza":"","lat":35.901397,"lng":139.463429,"version":"14.0b/19.0a"},{"town":"霞ケ関東一丁目","koaza":"","lat":35.923375,"lng":139.441919,"version":"14.0b/19.0a"},{"town":"砂新田四丁目","koaza":"","lat":35.88545,"lng":139.491654,"version":"14.0b/19.0a"},{"town":"南通町","koaza":"","lat":35.910642,"lng":139.485988,"version":"14.0b/19.0a"},{"town":"並木西町","koaza":"","lat":35.900667,"lng":139.514316,"version":"14.0b/19.0a"},{"town":"宮下町一丁目","koaza":"","lat":35.926275,"lng":139.488463,"version":"14.0b/19.0a"},{"town":"小仙波町四丁目","koaza":"","lat":35.914719,"lng":139.495308,"version":"14.0b/19.0a"},{"town":"伊勢原町二丁目","koaza":"","lat":35.921236,"lng":139.429784,"version":"14.0b/19.0a"},{"town":"菅原町","koaza":"","lat":35.906839,"lng":139.486042,"version":"14.0b/19.0a"},{"town":"砂新田二丁目","koaza":"","lat":35.890062,"lng":139.490081,"version":"14.0b/19.0a"},{"town":"大字下新河岸","koaza":"","lat":35.880605,"lng":139.490485,"version":"14.0b/19.0a"},{"town":"かすみ野三丁目","koaza":"","lat":35.899823,"lng":139.414309,"version":"14.0b/19.0a"},{"town":"西小仙波町二丁目","koaza":"","lat":35.91414,"lng":139.487811,"version":"14.0b/19.0a"},{"town":"三光町","koaza":"","lat":35.918563,"lng":139.47639,"version":"14.0b/19.0a"},{"town":"小仙波町五丁目","koaza":"","lat":35.914245,"lng":139.491309,"version":"14.0b/19.0a"},{"town":"四都野台","koaza":"","lat":35.894733,"lng":139.4661,"version":"14.0b/19.0a"},{"town":"大字鯨井新田","koaza":"","lat":35.933353,"lng":139.420291,"version":"14.0b/19.0a"},{"town":"清水町","koaza":"","lat":35.877976,"lng":139.505819,"version":"14.0b/19.0a"},{"town":"藤木町","koaza":"","lat":35.896726,"lng":139.512168,"version":"14.0b/19.0a"},{"town":"大字川越","koaza":"","lat":35.93036,"lng":139.501678,"version":"14.0b/19.0a"},{"town":"上戸新町","koaza":"","lat":35.925821,"lng":139.449784,"version":"14.0b/19.0a"},{"town":"小仙波町一丁目","koaza":"","lat":35.917614,"lng":139.490035,"version":"14.0b/19.0a"},{"town":"熊野町","koaza":"","lat":35.875894,"lng":139.503234,"version":"14.0b/19.0a"},{"town":"脇田町","koaza":"","lat":35.908277,"lng":139.483291,"version":"14.0b/19.0a"},{"town":"大字平塚新田","koaza":"","lat":35.955058,"lng":139.462269,"version":"14.0b/19.0a"},{"town":"南台三丁目","koaza":"","lat":35.887905,"lng":139.454368,"version":"14.0b/19.0a"},{"town":"大字寺井","koaza":"","lat":35.933485,"lng":139.507074,"version":"14.0b/19.0a"},{"town":"中福東","koaza":"","lat":35.868184,"lng":139.474143,"version":"14.0b/19.0a"},{"town":"小仙波町三丁目","koaza":"","lat":35.917301,"lng":139.495388,"version":"14.0b/19.0a"},{"town":"かすみ野一丁目","koaza":"","lat":35.902281,"lng":139.417137,"version":"14.0b/19.0a"},{"town":"今成一丁目","koaza":"","lat":35.924702,"lng":139.473608,"version":"14.0b/19.0a"},{"town":"問屋町","koaza":"","lat":35.922883,"lng":139.511314,"version":"14.0b/19.0a"},{"town":"南大塚四丁目","koaza":"","lat":35.889078,"lng":139.457597,"version":"14.0b/19.0a"},{"town":"新宿町二丁目","koaza":"","lat":35.902704,"lng":139.485507,"version":"14.0b/19.0a"},{"town":"伊勢原町五丁目","koaza":"","lat":35.921592,"lng":139.423382,"version":"14.0b/19.0a"},{"town":"諏訪町","koaza":"","lat":35.879495,"lng":139.499986,"version":"14.0b/19.0a"},{"town":"砂新田一丁目","koaza":"","lat":35.892422,"lng":139.487513,"version":"14.0b/19.0a"},{"town":"南大塚五丁目","koaza":"","lat":35.88702,"lng":139.463055,"version":"14.0b/19.0a"},{"town":"南台二丁目","koaza":"","lat":35.890658,"lng":139.452115,"version":"14.0b/19.0a"},{"town":"脇田新町","koaza":"","lat":35.905511,"lng":139.472619,"version":"14.0b/19.0a"},{"town":"田町","koaza":"","lat":35.914121,"lng":139.475836,"version":"14.0b/19.0a"},{"town":"広谷新町","koaza":"","lat":35.946863,"lng":139.42891,"version":"14.0b/19.0a"},{"town":"砂新田五丁目","koaza":"","lat":35.883887,"lng":139.489017,"version":"14.0b/19.0a"},{"town":"南大塚三丁目","koaza":"","lat":35.890554,"lng":139.460013,"version":"14.0b/19.0a"},{"town":"砂新田六丁目","koaza":"","lat":35.879816,"lng":139.485953,"version":"14.0b/19.0a"},{"town":"川鶴一丁目","koaza":"","lat":35.922629,"lng":139.416331,"version":"14.0b/19.0a"},{"town":"寿町一丁目","koaza":"","lat":35.905055,"lng":139.466907,"version":"14.0b/19.0a"},{"town":"藤原町","koaza":"","lat":35.883064,"lng":139.499508,"version":"14.0b/19.0a"},{"town":"泉町","koaza":"","lat":35.904778,"lng":139.512687,"version":"14.0b/19.0a"},{"town":"稲荷町","koaza":"","lat":35.881332,"lng":139.503039,"version":"14.0b/19.0a"},{"town":"的場二丁目","koaza":"","lat":35.915753,"lng":139.42701,"version":"14.0b/19.0a"},{"town":"仙波町二丁目","koaza":"","lat":35.907699,"lng":139.489496,"version":"14.0b/19.0a"},{"town":"富士見町","koaza":"","lat":35.903453,"lng":139.488421,"version":"14.0b/19.0a"},{"town":"広栄町","koaza":"","lat":35.902056,"lng":139.468042,"version":"14.0b/19.0a"},{"town":"野田町二丁目","koaza":"","lat":35.908036,"lng":139.470905,"version":"14.0b/19.0a"},{"town":"新宿町三丁目","koaza":"","lat":35.899203,"lng":139.483823,"version":"14.0b/19.0a"},{"town":"旭町二丁目","koaza":"","lat":35.901059,"lng":139.473597,"version":"14.0b/19.0a"},{"town":"石原町一丁目","koaza":"","lat":35.924902,"lng":139.477644,"version":"14.0b/19.0a"},{"town":"野田町一丁目","koaza":"","lat":35.911767,"lng":139.474016,"version":"14.0b/19.0a"},{"town":"仙波町四丁目","koaza":"","lat":35.906702,"lng":139.493496,"version":"14.0b/19.0a"},{"town":"的場一丁目","koaza":"","lat":35.913124,"lng":139.428404,"version":"14.0b/19.0a"},{"town":"旭町一丁目","koaza":"","lat":35.90405,"lng":139.475619,"version":"14.0b/19.0a"},{"town":"中台元町一丁目","koaza":"","lat":35.891939,"lng":139.479296,"version":"14.0b/19.0a"},{"town":"芳野台三丁目","koaza":"","lat":35.942526,"lng":139.522922,"version":"14.0b/19.0a"},{"town":"今成三丁目","koaza":"","lat":35.921305,"lng":139.467257,"version":"14.0b/19.0a"},{"town":"月吉町","koaza":"","lat":35.920487,"lng":139.473453,"version":"14.0b/19.0a"},{"town":"郭町二丁目","koaza":"","lat":35.924,"lng":139.491692,"version":"14.0b/19.0a"},{"town":"小仙波町二丁目","koaza":"","lat":35.920502,"lng":139.493832,"version":"14.0b/19.0a"},{"town":"東田町","koaza":"","lat":35.909461,"lng":139.477043,"version":"14.0b/19.0a"},{"town":"新宿町一丁目","koaza":"","lat":35.902933,"lng":139.480752,"version":"14.0b/19.0a"},{"town":"南大塚二丁目","koaza":"","lat":35.893572,"lng":139.456251,"version":"14.0b/19.0a"},{"town":"旭町三丁目","koaza":"","lat":35.898553,"lng":139.471365,"version":"14.0b/19.0a"},{"town":"大字高島","koaza":"","lat":35.914135,"lng":139.509496,"version":"14.0b/19.0a"},{"town":"仙波町三丁目","koaza":"","lat":35.911975,"lng":139.494157,"version":"14.0b/19.0a"},{"town":"今成四丁目","koaza":"","lat":35.919236,"lng":139.466882,"version":"14.0b/19.0a"},{"town":"新宿町五丁目","koaza":"","lat":35.899698,"lng":139.478256,"version":"14.0b/19.0a"},{"town":"南大塚一丁目","koaza":"","lat":35.897732,"lng":139.453606,"version":"14.0b/19.0a"},{"town":"岸町三丁目","koaza":"","lat":35.894253,"lng":139.483564,"version":"14.0b/19.0a"},{"town":"脇田本町","koaza":"","lat":35.907469,"lng":139.480144,"version":"14.0b/19.0a"},{"town":"大字竹野","koaza":"","lat":35.954131,"lng":139.424933,"version":"14.0b/19.0a"},{"town":"豊田町二丁目","koaza":"","lat":35.901414,"lng":139.458424,"version":"14.0b/19.0a"},{"town":"むさし野","koaza":"","lat":35.891895,"lng":139.466824,"version":"14.0b/19.0a"},{"town":"大塚一丁目","koaza":"","lat":35.897533,"lng":139.459968,"version":"14.0b/19.0a"},{"town":"岸町二丁目","koaza":"","lat":35.897624,"lng":139.488282,"version":"14.0b/19.0a"},{"town":"大字八ツ島","koaza":"","lat":35.916573,"lng":139.509887,"version":"14.0b/19.0a"},{"town":"城下町","koaza":"","lat":35.928342,"lng":139.49403,"version":"14.0b/19.0a"},{"town":"的場新町","koaza":"","lat":35.918391,"lng":139.426977,"version":"14.0b/19.0a"},{"town":"今成二丁目","koaza":"","lat":35.924298,"lng":139.4674,"version":"14.0b/19.0a"},{"town":"新宿町六丁目","koaza":"","lat":35.894632,"lng":139.476081,"version":"14.0b/19.0a"},{"town":"芳野台一丁目","koaza":"","lat":35.948508,"lng":139.520485,"version":"14.0b/19.0a"},{"town":"神明町","koaza":"","lat":35.930981,"lng":139.479174,"version":"14.0b/19.0a"},{"town":"上野田町","koaza":"","lat":35.913291,"lng":139.470099,"version":"14.0b/19.0a"},{"town":"氷川町","koaza":"","lat":35.930024,"lng":139.490842,"version":"14.0b/19.0a"},{"town":"大字砂久保","koaza":"","lat":35.885635,"lng":139.482803,"version":"14.0b/19.0a"},{"town":"宮元町","koaza":"","lat":35.932692,"lng":139.484581,"version":"14.0b/19.0a"},{"town":"大字牛子","koaza":"","lat":35.892066,"lng":139.508738,"version":"14.0b/19.0a"},{"town":"石原町二丁目","koaza":"","lat":35.928984,"lng":139.473865,"version":"14.0b/19.0a"},{"town":"芳野台二丁目","koaza":"","lat":35.95106,"lng":139.509185,"version":"14.0b/19.0a"},{"town":"大字谷中","koaza":"","lat":35.942572,"lng":139.495251,"version":"14.0b/19.0a"},{"town":"大字小仙波","koaza":"","lat":35.917308,"lng":139.502212,"version":"14.0b/19.0a"},{"town":"大字鹿飼","koaza":"","lat":35.946918,"lng":139.516144,"version":"14.0b/19.0a"},{"town":"大字今泉","koaza":"","lat":35.895325,"lng":139.526683,"version":"14.0b/19.0a"},{"town":"御成町","koaza":"","lat":35.935719,"lng":139.491354,"version":"14.0b/19.0a"},{"town":"大字並木","koaza":"","lat":35.90207,"lng":139.523316,"version":"14.0b/19.0a"},{"town":"大字東本宿","koaza":"","lat":35.935372,"lng":139.53609,"version":"14.0b/19.0a"},{"town":"大字萱沼","koaza":"","lat":35.890892,"lng":139.551584,"version":"14.0b/19.0a"},{"town":"大字石田","koaza":"","lat":35.940979,"lng":139.487559,"version":"14.0b/19.0a"},{"town":"大字大中居","koaza":"","lat":35.908515,"lng":139.512612,"version":"14.0b/19.0a"},{"town":"大字上戸","koaza":"","lat":35.928423,"lng":139.44924,"version":"14.0b/19.0a"},{"town":"大字上松原","koaza":"","lat":35.865571,"lng":139.476914,"version":"14.0b/19.0a"},{"town":"大字上老袋","koaza":"","lat":35.946445,"lng":139.530417,"version":"14.0b/19.0a"},{"town":"大字古市場","koaza":"","lat":35.886366,"lng":139.528888,"version":"14.0b/19.0a"},{"town":"大字中老袋","koaza":"","lat":35.94232,"lng":139.535609,"version":"14.0b/19.0a"},{"town":"大字小中居","koaza":"","lat":35.9076,"lng":139.524144,"version":"14.0b/19.0a"},{"town":"大字石田本郷","koaza":"","lat":35.944096,"lng":139.504614,"version":"14.0b/19.0a"},{"town":"大字吉田","koaza":"","lat":35.929575,"lng":139.429195,"version":"14.0b/19.0a"},{"town":"大字平塚","koaza":"","lat":35.946629,"lng":139.465369,"version":"14.0b/19.0a"},{"town":"大字木野目","koaza":"","lat":35.895275,"lng":139.518338,"version":"14.0b/19.0a"},{"town":"大字北田島","koaza":"","lat":35.93669,"lng":139.500565,"version":"14.0b/19.0a"},{"town":"大字渋井","koaza":"","lat":35.882321,"lng":139.536316,"version":"14.0b/19.0a"},{"town":"大字大袋","koaza":"","lat":35.89787,"lng":139.443872,"version":"14.0b/19.0a"},{"town":"大字寺山","koaza":"","lat":35.941363,"lng":139.469764,"version":"14.0b/19.0a"},{"town":"大字伊佐沼","koaza":"","lat":35.926899,"lng":139.512927,"version":"14.0b/19.0a"},{"town":"大字天沼新田","koaza":"","lat":35.934775,"lng":139.426859,"version":"14.0b/19.0a"},{"town":"大字下老袋","koaza":"","lat":35.930566,"lng":139.531116,"version":"14.0b/19.0a"},{"town":"大字上寺山","koaza":"","lat":35.933132,"lng":139.466622,"version":"14.0b/19.0a"},{"town":"大字砂","koaza":"","lat":35.89465,"lng":139.497635,"version":"14.0b/19.0a"},{"town":"大字安比奈新田","koaza":"","lat":35.90159,"lng":139.42474,"version":"14.0b/19.0a"},{"town":"大字南田島","koaza":"","lat":35.901255,"lng":139.507384,"version":"14.0b/19.0a"},{"town":"大字砂新田","koaza":"","lat":35.882105,"lng":139.493504,"version":"14.0b/19.0a"},{"town":"大字松郷","koaza":"","lat":35.92408,"lng":139.501777,"version":"14.0b/19.0a"},{"town":"大字福田","koaza":"","lat":35.954312,"lng":139.473247,"version":"14.0b/19.0a"},{"town":"大字寺尾","koaza":"","lat":35.885231,"lng":139.509471,"version":"14.0b/19.0a"},{"town":"大字小ケ谷","koaza":"","lat":35.921487,"lng":139.457673,"version":"14.0b/19.0a"},{"town":"大字府川","koaza":"","lat":35.948391,"lng":139.484735,"version":"14.0b/19.0a"},{"town":"大字小堤","koaza":"","lat":35.939557,"lng":139.440266,"version":"14.0b/19.0a"},{"town":"大字下赤坂","koaza":"","lat":35.860134,"lng":139.478455,"version":"14.0b/19.0a"},{"town":"大字菅間","koaza":"","lat":35.951834,"lng":139.496928,"version":"14.0b/19.0a"},{"town":"大字下小坂","koaza":"","lat":35.947461,"lng":139.45502,"version":"14.0b/19.0a"},{"town":"大字中福","koaza":"","lat":35.86165,"lng":139.46532,"version":"14.0b/19.0a"},{"town":"大字下松原","koaza":"","lat":35.869043,"lng":139.488442,"version":"14.0b/19.0a"},{"town":"大字池辺","koaza":"","lat":35.907112,"lng":139.444906,"version":"14.0b/19.0a"},{"town":"大字山田","koaza":"","lat":35.944225,"lng":139.477853,"version":"14.0b/19.0a"},{"town":"大字藤間","koaza":"","lat":35.88006,"lng":139.496716,"version":"14.0b/19.0a"},{"town":"大字下広谷","koaza":"","lat":35.951094,"lng":139.42861,"version":"14.0b/19.0a"},{"town":"大字鯨井","koaza":"","lat":35.93752,"lng":139.453685,"version":"14.0b/19.0a"},{"town":"大字鴨田","koaza":"","lat":35.935397,"lng":139.517297,"version":"14.0b/19.0a"},{"town":"大字久下戸","koaza":"","lat":35.895023,"lng":139.538122,"version":"14.0b/19.0a"},{"town":"大字的場","koaza":"","lat":35.913387,"lng":139.437627,"version":"14.0b/19.0a"},{"town":"大字古谷本郷","koaza":"","lat":35.908993,"lng":139.544091,"version":"14.0b/19.0a"},{"town":"大字古谷上","koaza":"","lat":35.921471,"lng":139.530763,"version":"14.0b/19.0a"},{"town":"大字笠幡","koaza":"","lat":35.908242,"lng":139.404865,"version":"14.0b/19.0a"},{"town":"大字大袋新田","koaza":"","lat":35.892488,"lng":139.4421,"version":"14.0b/19.0a"},{"town":"藤倉一丁目","koaza":"","lat":35.889859,"lng":139.437021,"version":"14.0b/19.0a"},{"town":"大字増形","koaza":"","lat":35.895189,"lng":139.427104,"version":"14.0b/19.0a"},{"town":"藤倉二丁目","koaza":"","lat":35.885983,"lng":139.436015,"version":"14.0b/19.0a"},{"town":"大字山城","koaza":"","lat":35.890864,"lng":139.444314,"version":"14.0b/19.0a"},{"town":"南台一丁目","koaza":"","lat":35.884812,"lng":139.44796,"version":"14.0b/19.0a"},{"town":"かし野台二丁目","koaza":"","lat":35.887291,"lng":139.443177,"version":"14.0b/19.0a"},{"town":"かし野台一丁目","koaza":"","lat":35.887809,"lng":139.441254,"version":"14.0b/19.0a"},{"town":"大字豊田本","koaza":"","lat":35.898308,"lng":139.456998,"version":"14.0b/19.0a"},{"town":"豊田町一丁目","koaza":"","lat":35.905399,"lng":139.461502,"version":"14.0b/19.0a"},{"town":"大字小室","koaza":"","lat":35.91631,"lng":139.463163,"version":"14.0b/19.0a"},{"town":"豊田本二丁目","koaza":"","lat":35.910877,"lng":139.459572,"version":"14.0b/19.0a"},{"town":"豊田本一丁目","koaza":"","lat":35.911298,"lng":139.46558,"version":"14.0b/19.0a"},{"town":"南大塚六丁目","koaza":"","lat":35.880322,"lng":139.45926,"version":"14.0b/19.0a"},{"town":"中台南三丁目","koaza":"","lat":35.876234,"lng":139.459032,"version":"14.0b/19.0a"},{"town":"中台南一丁目","koaza":"","lat":35.885287,"lng":139.465619,"version":"14.0b/19.0a"},{"town":"中台二丁目","koaza":"","lat":35.888308,"lng":139.473402,"version":"14.0b/19.0a"},{"town":"岸町一丁目","koaza":"","lat":35.900751,"lng":139.491491,"version":"14.0b/19.0a"},{"town":"大字大仙波新田","koaza":"","lat":35.901051,"lng":139.494573,"version":"14.0b/19.0a"},{"town":"大字大仙波","koaza":"","lat":35.908772,"lng":139.500868,"version":"14.0b/19.0a"},{"town":"大塚二丁目","koaza":"","lat":35.89585,"lng":139.469751,"version":"14.0b/19.0a"},{"town":"大字大塚新田","koaza":"","lat":35.897999,"lng":139.464973,"version":"14.0b/19.0a"},{"town":"大塚新町","koaza":"","lat":35.89534,"lng":139.463345,"version":"14.0b/19.0a"},{"town":"中台南二丁目","koaza":"","lat":35.881832,"lng":139.465145,"version":"14.0b/19.0a"},{"town":"大字今福","koaza":"","lat":35.880888,"lng":139.473591,"version":"14.0b/19.0a"},{"town":"豊田本三丁目","koaza":"","lat":35.911058,"lng":139.454275,"version":"14.0b/19.0a"},{"town":"豊田本四丁目","koaza":"","lat":35.904573,"lng":139.455732,"version":"14.0b/19.0a"},{"town":"豊田本五丁目","koaza":"","lat":35.901479,"lng":139.45149,"version":"14.0b/19.0a"}]