[{"town":"吉野一丁目","koaza":"","lat":36.059288,"lng":139.725347,"version":"13.0b/18.0a"},{"town":"西一丁目","koaza":"","lat":36.08244,"lng":139.714586,"version":"13.0b/18.0a"},{"town":"緑台二丁目","koaza":"","lat":36.068774,"lng":139.727459,"version":"13.0b/18.0a"},{"town":"香日向三丁目","koaza":"","lat":36.087965,"lng":139.696392,"version":"13.0b/18.0a"},{"town":"西二丁目","koaza":"","lat":36.085538,"lng":139.715231,"version":"13.0b/18.0a"},{"town":"香日向一丁目","koaza":"","lat":36.085505,"lng":139.699651,"version":"13.0b/18.0a"},{"town":"香日向四丁目","koaza":"","lat":36.08792,"lng":139.700832,"version":"13.0b/18.0a"},{"town":"東五丁目","koaza":"","lat":36.079839,"lng":139.727342,"version":"13.0b/18.0a"},{"town":"中二丁目","koaza":"","lat":36.073739,"lng":139.719884,"version":"13.0b/18.0a"},{"town":"上高野一丁目","koaza":"","lat":36.06723,"lng":139.718439,"version":"13.0b/18.0a"},{"town":"東四丁目","koaza":"","lat":36.07742,"lng":139.727006,"version":"13.0b/18.0a"},{"town":"南一丁目","koaza":"","lat":36.070241,"lng":139.716587,"version":"13.0b/18.0a"},{"town":"香日向二丁目","koaza":"","lat":36.08568,"lng":139.695266,"version":"13.0b/18.0a"},{"town":"東三丁目","koaza":"","lat":36.074612,"lng":139.725826,"version":"13.0b/18.0a"},{"town":"東一丁目","koaza":"","lat":36.068676,"lng":139.722058,"version":"13.0b/18.0a"},{"town":"中一丁目","koaza":"","lat":36.074539,"lng":139.716709,"version":"13.0b/18.0a"},{"town":"北三丁目","koaza":"","lat":36.086606,"lng":139.72735,"version":"13.0b/18.0a"},{"town":"北二丁目","koaza":"","lat":36.084053,"lng":139.723081,"version":"13.0b/18.0a"},{"town":"中四丁目","koaza":"","lat":36.079704,"lng":139.717791,"version":"13.0b/18.0a"},{"town":"戸島一丁目","koaza":"","lat":36.049633,"lng":139.732972,"version":"13.0b/18.0a"},{"town":"天神島一丁目","koaza":"","lat":36.061065,"lng":139.726003,"version":"13.0b/18.0a"},{"town":"中三丁目","koaza":"","lat":36.077298,"lng":139.7218,"version":"13.0b/18.0a"},{"town":"大字細野","koaza":"","lat":36.055307,"lng":139.77901,"version":"13.0b/18.0a"},{"town":"戸島二丁目","koaza":"","lat":36.049394,"lng":139.741393,"version":"13.0b/18.0a"},{"town":"東二丁目","koaza":"","lat":36.071723,"lng":139.723769,"version":"13.0b/18.0a"},{"town":"南二丁目","koaza":"","lat":36.068751,"lng":139.711788,"version":"13.0b/18.0a"},{"town":"大字下宇和田","koaza":"","lat":36.070045,"lng":139.767365,"version":"13.0b/18.0a"},{"town":"南三丁目","koaza":"","lat":36.073291,"lng":139.711768,"version":"13.0b/18.0a"},{"town":"緑台一丁目","koaza":"","lat":36.065394,"lng":139.723919,"version":"13.0b/18.0a"},{"town":"栄","koaza":"","lat":36.057007,"lng":139.720884,"version":"13.0b/18.0a"},{"town":"中五丁目","koaza":"","lat":36.077939,"lng":139.711362,"version":"13.0b/18.0a"},{"town":"大字松石","koaza":"","lat":36.09826,"lng":139.710824,"version":"13.0b/18.0a"},{"town":"大字中島","koaza":"","lat":36.079416,"lng":139.778172,"version":"13.0b/18.0a"},{"town":"大字花島","koaza":"","lat":36.068243,"lng":139.782327,"version":"13.0b/18.0a"},{"town":"大字西関宿","koaza":"","lat":36.08599,"lng":139.775174,"version":"13.0b/18.0a"},{"town":"北一丁目","koaza":"","lat":36.084497,"lng":139.718703,"version":"13.0b/18.0a"},{"town":"大字内国府間","koaza":"","lat":36.090528,"lng":139.721829,"version":"13.0b/18.0a"},{"town":"大字幸手","koaza":"","lat":36.074382,"lng":139.729623,"version":"13.0b/18.0a"},{"town":"大字吉野","koaza":"","lat":36.053374,"lng":139.726778,"version":"13.0b/18.0a"},{"town":"大字円藤内","koaza":"","lat":36.091634,"lng":139.712586,"version":"13.0b/18.0a"},{"town":"平須賀一丁目","koaza":"","lat":36.057831,"lng":139.735205,"version":"13.0b/18.0a"},{"town":"大字中野","koaza":"","lat":36.054267,"lng":139.758387,"version":"13.0b/18.0a"},{"town":"大字天神島","koaza":"","lat":36.066827,"lng":139.731862,"version":"13.0b/18.0a"},{"town":"大字槙野地","koaza":"","lat":36.061035,"lng":139.783922,"version":"13.0b/18.0a"},{"town":"大字高須賀","koaza":"","lat":36.094929,"lng":139.717625,"version":"13.0b/18.0a"},{"town":"大字平野","koaza":"","lat":36.061327,"lng":139.758007,"version":"13.0b/18.0a"},{"town":"大字下川崎","koaza":"","lat":36.082599,"lng":139.706038,"version":"13.0b/18.0a"},{"town":"大字上宇和田","koaza":"","lat":36.075835,"lng":139.764238,"version":"13.0b/18.0a"},{"town":"大字中川崎","koaza":"","lat":36.080917,"lng":139.697997,"version":"13.0b/18.0a"},{"town":"平須賀二丁目","koaza":"","lat":36.055907,"lng":139.72987,"version":"13.0b/18.0a"},{"town":"大字外国府間","koaza":"","lat":36.103519,"lng":139.723924,"version":"13.0b/18.0a"},{"town":"大字権現堂","koaza":"","lat":36.088747,"lng":139.728122,"version":"13.0b/18.0a"},{"town":"大字平須賀","koaza":"","lat":36.06539,"lng":139.739984,"version":"13.0b/18.0a"},{"town":"大字長間","koaza":"","lat":36.048859,"lng":139.766663,"version":"13.0b/18.0a"},{"town":"大字戸島","koaza":"","lat":36.04725,"lng":139.735717,"version":"13.0b/18.0a"},{"town":"大字神明内","koaza":"","lat":36.07429,"lng":139.744704,"version":"13.0b/18.0a"},{"town":"大字下吉羽","koaza":"","lat":36.069376,"lng":139.759766,"version":"13.0b/18.0a"},{"town":"大字千塚","koaza":"","lat":36.090704,"lng":139.702001,"version":"13.0b/18.0a"},{"town":"大字神扇","koaza":"","lat":36.061138,"lng":139.745516,"version":"13.0b/18.0a"},{"town":"大字木立","koaza":"","lat":36.078516,"lng":139.755005,"version":"13.0b/18.0a"},{"town":"大字上吉羽","koaza":"","lat":36.07781,"lng":139.738254,"version":"13.0b/18.0a"},{"town":"大字上高野","koaza":"","lat":36.06042,"lng":139.713703,"version":"13.0b/18.0a"},{"town":"大字惣新田","koaza":"","lat":36.060365,"lng":139.771209,"version":"13.0b/18.0a"},{"town":"吉野一丁目","koaza":"","lat":36.059288,"lng":139.725347,"version":"14.0b/19.0a"},{"town":"西一丁目","koaza":"","lat":36.08244,"lng":139.714586,"version":"14.0b/19.0a"},{"town":"緑台二丁目","koaza":"","lat":36.068774,"lng":139.727459,"version":"14.0b/19.0a"},{"town":"香日向三丁目","koaza":"","lat":36.087965,"lng":139.696392,"version":"14.0b/19.0a"},{"town":"西二丁目","koaza":"","lat":36.085538,"lng":139.715231,"version":"14.0b/19.0a"},{"town":"香日向一丁目","koaza":"","lat":36.085505,"lng":139.699651,"version":"14.0b/19.0a"},{"town":"香日向四丁目","koaza":"","lat":36.08792,"lng":139.700832,"version":"14.0b/19.0a"},{"town":"東五丁目","koaza":"","lat":36.079839,"lng":139.727342,"version":"14.0b/19.0a"},{"town":"中二丁目","koaza":"","lat":36.073739,"lng":139.719884,"version":"14.0b/19.0a"},{"town":"上高野一丁目","koaza":"","lat":36.06723,"lng":139.718439,"version":"14.0b/19.0a"},{"town":"東四丁目","koaza":"","lat":36.07742,"lng":139.727006,"version":"14.0b/19.0a"},{"town":"南一丁目","koaza":"","lat":36.070241,"lng":139.716587,"version":"14.0b/19.0a"},{"town":"香日向二丁目","koaza":"","lat":36.08568,"lng":139.695266,"version":"14.0b/19.0a"},{"town":"東三丁目","koaza":"","lat":36.074612,"lng":139.725826,"version":"14.0b/19.0a"},{"town":"東一丁目","koaza":"","lat":36.068676,"lng":139.722058,"version":"14.0b/19.0a"},{"town":"中一丁目","koaza":"","lat":36.074539,"lng":139.716709,"version":"14.0b/19.0a"},{"town":"北三丁目","koaza":"","lat":36.086606,"lng":139.72735,"version":"14.0b/19.0a"},{"town":"北二丁目","koaza":"","lat":36.084053,"lng":139.723081,"version":"14.0b/19.0a"},{"town":"中四丁目","koaza":"","lat":36.079704,"lng":139.717791,"version":"14.0b/19.0a"},{"town":"戸島一丁目","koaza":"","lat":36.049633,"lng":139.732972,"version":"14.0b/19.0a"},{"town":"天神島一丁目","koaza":"","lat":36.061065,"lng":139.726003,"version":"14.0b/19.0a"},{"town":"中三丁目","koaza":"","lat":36.077298,"lng":139.7218,"version":"14.0b/19.0a"},{"town":"大字細野","koaza":"","lat":36.055307,"lng":139.77901,"version":"14.0b/19.0a"},{"town":"戸島二丁目","koaza":"","lat":36.049394,"lng":139.741393,"version":"14.0b/19.0a"},{"town":"東二丁目","koaza":"","lat":36.071723,"lng":139.723769,"version":"14.0b/19.0a"},{"town":"南二丁目","koaza":"","lat":36.068751,"lng":139.711788,"version":"14.0b/19.0a"},{"town":"大字下宇和田","koaza":"","lat":36.070045,"lng":139.767365,"version":"14.0b/19.0a"},{"town":"南三丁目","koaza":"","lat":36.073291,"lng":139.711768,"version":"14.0b/19.0a"},{"town":"緑台一丁目","koaza":"","lat":36.065394,"lng":139.723919,"version":"14.0b/19.0a"},{"town":"栄","koaza":"","lat":36.057007,"lng":139.720884,"version":"14.0b/19.0a"},{"town":"中五丁目","koaza":"","lat":36.077939,"lng":139.711362,"version":"14.0b/19.0a"},{"town":"大字松石","koaza":"","lat":36.09826,"lng":139.710824,"version":"14.0b/19.0a"},{"town":"大字中島","koaza":"","lat":36.079416,"lng":139.778172,"version":"14.0b/19.0a"},{"town":"大字花島","koaza":"","lat":36.068243,"lng":139.782327,"version":"14.0b/19.0a"},{"town":"大字西関宿","koaza":"","lat":36.08599,"lng":139.775174,"version":"14.0b/19.0a"},{"town":"北一丁目","koaza":"","lat":36.084497,"lng":139.718703,"version":"14.0b/19.0a"},{"town":"大字内国府間","koaza":"","lat":36.090528,"lng":139.721829,"version":"14.0b/19.0a"},{"town":"大字幸手","koaza":"","lat":36.074382,"lng":139.729623,"version":"14.0b/19.0a"},{"town":"大字吉野","koaza":"","lat":36.053374,"lng":139.726778,"version":"14.0b/19.0a"},{"town":"大字円藤内","koaza":"","lat":36.091634,"lng":139.712586,"version":"14.0b/19.0a"},{"town":"平須賀一丁目","koaza":"","lat":36.057831,"lng":139.735205,"version":"14.0b/19.0a"},{"town":"大字中野","koaza":"","lat":36.054267,"lng":139.758387,"version":"14.0b/19.0a"},{"town":"大字天神島","koaza":"","lat":36.066827,"lng":139.731862,"version":"14.0b/19.0a"},{"town":"大字槙野地","koaza":"","lat":36.061035,"lng":139.783922,"version":"14.0b/19.0a"},{"town":"大字高須賀","koaza":"","lat":36.094929,"lng":139.717625,"version":"14.0b/19.0a"},{"town":"大字平野","koaza":"","lat":36.061327,"lng":139.758007,"version":"14.0b/19.0a"},{"town":"大字下川崎","koaza":"","lat":36.082599,"lng":139.706038,"version":"14.0b/19.0a"},{"town":"大字上宇和田","koaza":"","lat":36.075835,"lng":139.764238,"version":"14.0b/19.0a"},{"town":"大字中川崎","koaza":"","lat":36.080917,"lng":139.697997,"version":"14.0b/19.0a"},{"town":"平須賀二丁目","koaza":"","lat":36.055907,"lng":139.72987,"version":"14.0b/19.0a"},{"town":"大字外国府間","koaza":"","lat":36.103519,"lng":139.723924,"version":"14.0b/19.0a"},{"town":"大字権現堂","koaza":"","lat":36.088747,"lng":139.728122,"version":"14.0b/19.0a"},{"town":"大字平須賀","koaza":"","lat":36.06539,"lng":139.739984,"version":"14.0b/19.0a"},{"town":"大字長間","koaza":"","lat":36.048859,"lng":139.766663,"version":"14.0b/19.0a"},{"town":"大字戸島","koaza":"","lat":36.04725,"lng":139.735717,"version":"14.0b/19.0a"},{"town":"大字神明内","koaza":"","lat":36.07429,"lng":139.744704,"version":"14.0b/19.0a"},{"town":"大字下吉羽","koaza":"","lat":36.069376,"lng":139.759766,"version":"14.0b/19.0a"},{"town":"大字千塚","koaza":"","lat":36.090704,"lng":139.702001,"version":"14.0b/19.0a"},{"town":"大字神扇","koaza":"","lat":36.061138,"lng":139.745516,"version":"14.0b/19.0a"},{"town":"大字木立","koaza":"","lat":36.078516,"lng":139.755005,"version":"14.0b/19.0a"},{"town":"大字上吉羽","koaza":"","lat":36.07781,"lng":139.738254,"version":"14.0b/19.0a"},{"town":"大字上高野","koaza":"","lat":36.06042,"lng":139.713703,"version":"14.0b/19.0a"},{"town":"大字惣新田","koaza":"","lat":36.060365,"lng":139.771209,"version":"14.0b/19.0a"}]