[{"town":"猿田上ノ台","koaza":"","lat":35.892491,"lng":139.333933,"version":"13.0b/18.0a"},{"town":"大字女影新田","koaza":"","lat":35.905391,"lng":139.361517,"version":"13.0b/18.0a"},{"town":"武蔵台四丁目","koaza":"","lat":35.875559,"lng":139.298836,"version":"13.0b/18.0a"},{"town":"四本木二丁目","koaza":"","lat":35.898695,"lng":139.33306,"version":"13.0b/18.0a"},{"town":"高麗川三丁目","koaza":"","lat":35.89578,"lng":139.334251,"version":"13.0b/18.0a"},{"town":"四本木一丁目","koaza":"","lat":35.897369,"lng":139.333888,"version":"13.0b/18.0a"},{"town":"高萩東三丁目","koaza":"","lat":35.909923,"lng":139.383333,"version":"13.0b/18.0a"},{"town":"高麗川一丁目","koaza":"","lat":35.898107,"lng":139.336249,"version":"13.0b/18.0a"},{"town":"高萩東一丁目","koaza":"","lat":35.908356,"lng":139.379437,"version":"13.0b/18.0a"},{"town":"大字新堀新田","koaza":"","lat":35.905002,"lng":139.347853,"version":"13.0b/18.0a"},{"town":"武蔵台六丁目","koaza":"","lat":35.870392,"lng":139.296779,"version":"13.0b/18.0a"},{"town":"高萩東二丁目","koaza":"","lat":35.910591,"lng":139.38157,"version":"13.0b/18.0a"},{"town":"武蔵台三丁目","koaza":"","lat":35.875772,"lng":139.300527,"version":"13.0b/18.0a"},{"town":"武蔵台二丁目","koaza":"","lat":35.875511,"lng":139.303218,"version":"13.0b/18.0a"},{"town":"武蔵台七丁目","koaza":"","lat":35.874821,"lng":139.29751,"version":"13.0b/18.0a"},{"town":"高麗川二丁目","koaza":"","lat":35.894191,"lng":139.336431,"version":"13.0b/18.0a"},{"town":"武蔵台五丁目","koaza":"","lat":35.872685,"lng":139.30263,"version":"13.0b/18.0a"},{"town":"武蔵台一丁目","koaza":"","lat":35.879605,"lng":139.301211,"version":"13.0b/18.0a"},{"town":"大字久保","koaza":"","lat":35.882301,"lng":139.301491,"version":"13.0b/18.0a"},{"town":"大字野々宮","koaza":"","lat":35.893606,"lng":139.329388,"version":"13.0b/18.0a"},{"town":"横手二丁目","koaza":"","lat":35.874292,"lng":139.285845,"version":"13.0b/18.0a"},{"town":"大字下高萩新田","koaza":"","lat":35.91615,"lng":139.380885,"version":"13.0b/18.0a"},{"town":"横手一丁目","koaza":"","lat":35.873967,"lng":139.29022,"version":"13.0b/18.0a"},{"town":"大字高富","koaza":"","lat":35.876983,"lng":139.385601,"version":"13.0b/18.0a"},{"town":"大字猿田","koaza":"","lat":35.888504,"lng":139.33388,"version":"13.0b/18.0a"},{"town":"大字馬引沢","koaza":"","lat":35.873651,"lng":139.369368,"version":"13.0b/18.0a"},{"town":"大字楡木","koaza":"","lat":35.886242,"lng":139.328124,"version":"13.0b/18.0a"},{"town":"大字田木","koaza":"","lat":35.874171,"lng":139.377635,"version":"13.0b/18.0a"},{"town":"大字山根","koaza":"","lat":35.918953,"lng":139.32394,"version":"13.0b/18.0a"},{"town":"大字中鹿山","koaza":"","lat":35.890566,"lng":139.345756,"version":"13.0b/18.0a"},{"town":"大字森戸新田","koaza":"","lat":35.916155,"lng":139.374107,"version":"13.0b/18.0a"},{"town":"大字梅原","koaza":"","lat":35.881198,"lng":139.317455,"version":"13.0b/18.0a"},{"town":"大字台","koaza":"","lat":35.879212,"lng":139.306957,"version":"13.0b/18.0a"},{"town":"大字下鹿山","koaza":"","lat":35.894594,"lng":139.354061,"version":"13.0b/18.0a"},{"town":"大字清流","koaza":"","lat":35.894666,"lng":139.307059,"version":"13.0b/18.0a"},{"town":"大字鹿山","koaza":"","lat":35.899761,"lng":139.348341,"version":"13.0b/18.0a"},{"town":"大字高岡","koaza":"","lat":35.896269,"lng":139.314825,"version":"13.0b/18.0a"},{"town":"大字栗坪","koaza":"","lat":35.885843,"lng":139.322602,"version":"13.0b/18.0a"},{"town":"大字大谷沢","koaza":"","lat":35.88509,"lng":139.380791,"version":"13.0b/18.0a"},{"town":"大字駒寺野新田","koaza":"","lat":35.921842,"lng":139.362429,"version":"13.0b/18.0a"},{"town":"大字上鹿山","koaza":"","lat":35.885917,"lng":139.340906,"version":"13.0b/18.0a"},{"town":"大字中沢","koaza":"","lat":35.887052,"lng":139.371455,"version":"13.0b/18.0a"},{"town":"大字田波目","koaza":"","lat":35.919478,"lng":139.347099,"version":"13.0b/18.0a"},{"town":"大字原宿","koaza":"","lat":35.904058,"lng":139.344175,"version":"13.0b/18.0a"},{"town":"大字南平沢","koaza":"","lat":35.910819,"lng":139.335865,"version":"13.0b/18.0a"},{"town":"大字旭ケ丘","koaza":"","lat":35.911907,"lng":139.362086,"version":"13.0b/18.0a"},{"town":"大字下大谷沢","koaza":"","lat":35.89102,"lng":139.38989,"version":"13.0b/18.0a"},{"town":"大字新堀","koaza":"","lat":35.899218,"lng":139.324104,"version":"13.0b/18.0a"},{"town":"大字女影","koaza":"","lat":35.889511,"lng":139.358829,"version":"13.0b/18.0a"},{"town":"大字北平沢","koaza":"","lat":35.910718,"lng":139.319041,"version":"13.0b/18.0a"},{"town":"大字高麗本郷","koaza":"","lat":35.892082,"lng":139.297823,"version":"13.0b/18.0a"},{"town":"大字横手","koaza":"","lat":35.885743,"lng":139.285151,"version":"13.0b/18.0a"},{"town":"大字高萩","koaza":"","lat":35.900997,"lng":139.376946,"version":"13.0b/18.0a"},{"town":"猿田上ノ台","koaza":"","lat":35.892491,"lng":139.333933,"version":"14.0b/19.0a"},{"town":"大字女影新田","koaza":"","lat":35.905391,"lng":139.361517,"version":"14.0b/19.0a"},{"town":"武蔵台四丁目","koaza":"","lat":35.875559,"lng":139.298836,"version":"14.0b/19.0a"},{"town":"四本木二丁目","koaza":"","lat":35.898695,"lng":139.33306,"version":"14.0b/19.0a"},{"town":"高麗川三丁目","koaza":"","lat":35.89578,"lng":139.334251,"version":"14.0b/19.0a"},{"town":"四本木一丁目","koaza":"","lat":35.897369,"lng":139.333888,"version":"14.0b/19.0a"},{"town":"高萩東三丁目","koaza":"","lat":35.909923,"lng":139.383333,"version":"14.0b/19.0a"},{"town":"高麗川一丁目","koaza":"","lat":35.898107,"lng":139.336249,"version":"14.0b/19.0a"},{"town":"高萩東一丁目","koaza":"","lat":35.908356,"lng":139.379437,"version":"14.0b/19.0a"},{"town":"大字新堀新田","koaza":"","lat":35.905002,"lng":139.347853,"version":"14.0b/19.0a"},{"town":"武蔵台六丁目","koaza":"","lat":35.870392,"lng":139.296779,"version":"14.0b/19.0a"},{"town":"高萩東二丁目","koaza":"","lat":35.910591,"lng":139.38157,"version":"14.0b/19.0a"},{"town":"武蔵台三丁目","koaza":"","lat":35.875772,"lng":139.300527,"version":"14.0b/19.0a"},{"town":"武蔵台二丁目","koaza":"","lat":35.875511,"lng":139.303218,"version":"14.0b/19.0a"},{"town":"武蔵台七丁目","koaza":"","lat":35.874821,"lng":139.29751,"version":"14.0b/19.0a"},{"town":"高麗川二丁目","koaza":"","lat":35.894191,"lng":139.336431,"version":"14.0b/19.0a"},{"town":"武蔵台五丁目","koaza":"","lat":35.872685,"lng":139.30263,"version":"14.0b/19.0a"},{"town":"武蔵台一丁目","koaza":"","lat":35.879605,"lng":139.301211,"version":"14.0b/19.0a"},{"town":"大字久保","koaza":"","lat":35.882301,"lng":139.301491,"version":"14.0b/19.0a"},{"town":"大字野々宮","koaza":"","lat":35.893606,"lng":139.329388,"version":"14.0b/19.0a"},{"town":"横手二丁目","koaza":"","lat":35.874292,"lng":139.285845,"version":"14.0b/19.0a"},{"town":"大字下高萩新田","koaza":"","lat":35.91615,"lng":139.380885,"version":"14.0b/19.0a"},{"town":"横手一丁目","koaza":"","lat":35.873967,"lng":139.29022,"version":"14.0b/19.0a"},{"town":"大字高富","koaza":"","lat":35.876983,"lng":139.385601,"version":"14.0b/19.0a"},{"town":"大字猿田","koaza":"","lat":35.888504,"lng":139.33388,"version":"14.0b/19.0a"},{"town":"大字馬引沢","koaza":"","lat":35.873651,"lng":139.369368,"version":"14.0b/19.0a"},{"town":"大字楡木","koaza":"","lat":35.886242,"lng":139.328124,"version":"14.0b/19.0a"},{"town":"大字田木","koaza":"","lat":35.874171,"lng":139.377635,"version":"14.0b/19.0a"},{"town":"大字山根","koaza":"","lat":35.918953,"lng":139.32394,"version":"14.0b/19.0a"},{"town":"大字中鹿山","koaza":"","lat":35.890566,"lng":139.345756,"version":"14.0b/19.0a"},{"town":"大字森戸新田","koaza":"","lat":35.916155,"lng":139.374107,"version":"14.0b/19.0a"},{"town":"大字梅原","koaza":"","lat":35.881198,"lng":139.317455,"version":"14.0b/19.0a"},{"town":"大字台","koaza":"","lat":35.879212,"lng":139.306957,"version":"14.0b/19.0a"},{"town":"大字下鹿山","koaza":"","lat":35.894594,"lng":139.354061,"version":"14.0b/19.0a"},{"town":"大字清流","koaza":"","lat":35.894666,"lng":139.307059,"version":"14.0b/19.0a"},{"town":"大字鹿山","koaza":"","lat":35.899761,"lng":139.348341,"version":"14.0b/19.0a"},{"town":"大字高岡","koaza":"","lat":35.896269,"lng":139.314825,"version":"14.0b/19.0a"},{"town":"大字栗坪","koaza":"","lat":35.885843,"lng":139.322602,"version":"14.0b/19.0a"},{"town":"大字大谷沢","koaza":"","lat":35.88509,"lng":139.380791,"version":"14.0b/19.0a"},{"town":"大字駒寺野新田","koaza":"","lat":35.921842,"lng":139.362429,"version":"14.0b/19.0a"},{"town":"大字上鹿山","koaza":"","lat":35.885917,"lng":139.340906,"version":"14.0b/19.0a"},{"town":"大字中沢","koaza":"","lat":35.887052,"lng":139.371455,"version":"14.0b/19.0a"},{"town":"大字田波目","koaza":"","lat":35.919478,"lng":139.347099,"version":"14.0b/19.0a"},{"town":"大字原宿","koaza":"","lat":35.904058,"lng":139.344175,"version":"14.0b/19.0a"},{"town":"大字南平沢","koaza":"","lat":35.910819,"lng":139.335865,"version":"14.0b/19.0a"},{"town":"大字旭ケ丘","koaza":"","lat":35.911907,"lng":139.362086,"version":"14.0b/19.0a"},{"town":"大字下大谷沢","koaza":"","lat":35.89102,"lng":139.38989,"version":"14.0b/19.0a"},{"town":"大字新堀","koaza":"","lat":35.899218,"lng":139.324104,"version":"14.0b/19.0a"},{"town":"大字女影","koaza":"","lat":35.889511,"lng":139.358829,"version":"14.0b/19.0a"},{"town":"大字北平沢","koaza":"","lat":35.910718,"lng":139.319041,"version":"14.0b/19.0a"},{"town":"大字高麗本郷","koaza":"","lat":35.892082,"lng":139.297823,"version":"14.0b/19.0a"},{"town":"大字横手","koaza":"","lat":35.885743,"lng":139.285151,"version":"14.0b/19.0a"},{"town":"大字高萩","koaza":"","lat":35.900997,"lng":139.376946,"version":"14.0b/19.0a"}]