[{"town":"西八木崎一丁目","koaza":"","lat":35.975616,"lng":139.739504,"version":"13.0b/18.0a"},{"town":"西八木崎二丁目","koaza":"","lat":35.974031,"lng":139.737449,"version":"13.0b/18.0a"},{"town":"豊町四丁目","koaza":"","lat":35.967097,"lng":139.739216,"version":"13.0b/18.0a"},{"town":"八木崎町","koaza":"","lat":35.978092,"lng":139.739159,"version":"13.0b/18.0a"},{"town":"千間一丁目","koaza":"","lat":35.936672,"lng":139.766801,"version":"13.0b/18.0a"},{"town":"粕壁四丁目","koaza":"","lat":35.984624,"lng":139.747776,"version":"13.0b/18.0a"},{"town":"道順川戸","koaza":"","lat":35.969288,"lng":139.729167,"version":"13.0b/18.0a"},{"town":"粕壁二丁目","koaza":"","lat":35.982803,"lng":139.752386,"version":"13.0b/18.0a"},{"town":"西八木崎三丁目","koaza":"","lat":35.976185,"lng":139.73735,"version":"13.0b/18.0a"},{"town":"豊町三丁目","koaza":"","lat":35.966516,"lng":139.743858,"version":"13.0b/18.0a"},{"town":"中央八丁目","koaza":"","lat":35.97054,"lng":139.755759,"version":"13.0b/18.0a"},{"town":"豊野町三丁目","koaza":"","lat":35.960183,"lng":139.795984,"version":"13.0b/18.0a"},{"town":"梅田三丁目","koaza":"","lat":35.986591,"lng":139.739902,"version":"13.0b/18.0a"},{"town":"中央六丁目","koaza":"","lat":35.974933,"lng":139.752529,"version":"13.0b/18.0a"},{"town":"一ノ割二丁目","koaza":"","lat":35.959037,"lng":139.764025,"version":"13.0b/18.0a"},{"town":"備後西二丁目","koaza":"","lat":35.956074,"lng":139.766437,"version":"13.0b/18.0a"},{"town":"備後西一丁目","koaza":"","lat":35.95902,"lng":139.766631,"version":"13.0b/18.0a"},{"town":"大沼一丁目","koaza":"","lat":35.966994,"lng":139.74607,"version":"13.0b/18.0a"},{"town":"備後西五丁目","koaza":"","lat":35.955905,"lng":139.762477,"version":"13.0b/18.0a"},{"town":"豊町六丁目","koaza":"","lat":35.965708,"lng":139.736129,"version":"13.0b/18.0a"},{"town":"粕壁三丁目","koaza":"","lat":35.983162,"lng":139.749305,"version":"13.0b/18.0a"},{"town":"本田町一丁目","koaza":"","lat":35.967756,"lng":139.778475,"version":"13.0b/18.0a"},{"town":"大沼二丁目","koaza":"","lat":35.9674,"lng":139.749028,"version":"13.0b/18.0a"},{"town":"粕壁一丁目","koaza":"","lat":35.981687,"lng":139.753674,"version":"13.0b/18.0a"},{"town":"大沼三丁目","koaza":"","lat":35.96787,"lng":139.752117,"version":"13.0b/18.0a"},{"town":"中央五丁目","koaza":"","lat":35.972833,"lng":139.752006,"version":"13.0b/18.0a"},{"town":"谷原二丁目","koaza":"","lat":35.970992,"lng":139.746952,"version":"13.0b/18.0a"},{"town":"浜川戸二丁目","koaza":"","lat":35.979614,"lng":139.737845,"version":"13.0b/18.0a"},{"town":"中央四丁目","koaza":"","lat":35.974111,"lng":139.74705,"version":"13.0b/18.0a"},{"town":"浜川戸一丁目","koaza":"","lat":35.982337,"lng":139.740076,"version":"13.0b/18.0a"},{"town":"豊町二丁目","koaza":"","lat":35.970397,"lng":139.741788,"version":"13.0b/18.0a"},{"town":"中央七丁目","koaza":"","lat":35.973358,"lng":139.755416,"version":"13.0b/18.0a"},{"town":"豊町一丁目","koaza":"","lat":35.972563,"lng":139.739346,"version":"13.0b/18.0a"},{"town":"備後西四丁目","koaza":"","lat":35.953292,"lng":139.763738,"version":"13.0b/18.0a"},{"town":"備後西三丁目","koaza":"","lat":35.953147,"lng":139.767679,"version":"13.0b/18.0a"},{"town":"梅田二丁目","koaza":"","lat":35.986202,"lng":139.743273,"version":"13.0b/18.0a"},{"town":"南二丁目","koaza":"","lat":35.972603,"lng":139.758663,"version":"13.0b/18.0a"},{"town":"本田町二丁目","koaza":"","lat":35.967738,"lng":139.775458,"version":"13.0b/18.0a"},{"town":"備後東三丁目","koaza":"","lat":35.956885,"lng":139.773577,"version":"13.0b/18.0a"},{"town":"備後東六丁目","koaza":"","lat":35.950578,"lng":139.77363,"version":"13.0b/18.0a"},{"town":"谷原一丁目","koaza":"","lat":35.971186,"lng":139.744337,"version":"13.0b/18.0a"},{"town":"緑町一丁目","koaza":"","lat":35.972648,"lng":139.765131,"version":"13.0b/18.0a"},{"town":"大沼六丁目","koaza":"","lat":35.964645,"lng":139.752115,"version":"13.0b/18.0a"},{"town":"粕壁東一丁目","koaza":"","lat":35.980106,"lng":139.756199,"version":"13.0b/18.0a"},{"town":"一ノ割三丁目","koaza":"","lat":35.959275,"lng":139.760786,"version":"13.0b/18.0a"},{"town":"大沼七丁目","koaza":"","lat":35.96422,"lng":139.747589,"version":"13.0b/18.0a"},{"town":"道口蛭田","koaza":"","lat":35.967172,"lng":139.722249,"version":"13.0b/18.0a"},{"town":"豊町五丁目","koaza":"","lat":35.969275,"lng":139.738097,"version":"13.0b/18.0a"},{"town":"南五丁目","koaza":"","lat":35.967062,"lng":139.76022,"version":"13.0b/18.0a"},{"town":"大沼五丁目","koaza":"","lat":35.965213,"lng":139.756312,"version":"13.0b/18.0a"},{"town":"備後東五丁目","koaza":"","lat":35.951781,"lng":139.77696,"version":"13.0b/18.0a"},{"town":"一ノ割四丁目","koaza":"","lat":35.963426,"lng":139.76058,"version":"13.0b/18.0a"},{"town":"谷原三丁目","koaza":"","lat":35.970525,"lng":139.750751,"version":"13.0b/18.0a"},{"town":"中央二丁目","koaza":"","lat":35.977134,"lng":139.747576,"version":"13.0b/18.0a"},{"town":"備後東七丁目","koaza":"","lat":35.953968,"lng":139.774016,"version":"13.0b/18.0a"},{"town":"大沼四丁目","koaza":"","lat":35.967956,"lng":139.756621,"version":"13.0b/18.0a"},{"town":"豊野町一丁目","koaza":"","lat":35.959494,"lng":139.789385,"version":"13.0b/18.0a"},{"town":"栄町二丁目","koaza":"","lat":35.986618,"lng":139.732225,"version":"13.0b/18.0a"},{"town":"粕壁東三丁目","koaza":"","lat":35.978471,"lng":139.760626,"version":"13.0b/18.0a"},{"town":"粕壁東五丁目","koaza":"","lat":35.977294,"lng":139.765261,"version":"13.0b/18.0a"},{"town":"備後東八丁目","koaza":"","lat":35.954469,"lng":139.770277,"version":"13.0b/18.0a"},{"town":"中央三丁目","koaza":"","lat":35.975176,"lng":139.74308,"version":"13.0b/18.0a"},{"town":"備後東一丁目","koaza":"","lat":35.96303,"lng":139.76939,"version":"13.0b/18.0a"},{"town":"南三丁目","koaza":"","lat":35.972768,"lng":139.761788,"version":"13.0b/18.0a"},{"town":"栄町三丁目","koaza":"","lat":35.990721,"lng":139.73495,"version":"13.0b/18.0a"},{"town":"粕壁東四丁目","koaza":"","lat":35.980941,"lng":139.765871,"version":"13.0b/18.0a"},{"town":"備後東四丁目","koaza":"","lat":35.959989,"lng":139.774742,"version":"13.0b/18.0a"},{"town":"梅田本町二丁目","koaza":"","lat":35.992405,"lng":139.74249,"version":"13.0b/18.0a"},{"town":"緑町五丁目","koaza":"","lat":35.967867,"lng":139.77093,"version":"13.0b/18.0a"},{"town":"緑町四丁目","koaza":"","lat":35.971732,"lng":139.770683,"version":"13.0b/18.0a"},{"town":"備後東二丁目","koaza":"","lat":35.959477,"lng":139.770759,"version":"13.0b/18.0a"},{"town":"粕壁東二丁目","koaza":"","lat":35.981809,"lng":139.759837,"version":"13.0b/18.0a"},{"town":"緑町二丁目","koaza":"","lat":35.976777,"lng":139.77097,"version":"13.0b/18.0a"},{"town":"緑町三丁目","koaza":"","lat":35.974166,"lng":139.770235,"version":"13.0b/18.0a"},{"town":"梅田一丁目","koaza":"","lat":35.987165,"lng":139.747773,"version":"13.0b/18.0a"},{"town":"粕壁東六丁目","koaza":"","lat":35.979343,"lng":139.769531,"version":"13.0b/18.0a"},{"town":"一ノ割一丁目","koaza":"","lat":35.962897,"lng":139.764867,"version":"13.0b/18.0a"},{"town":"南一丁目","koaza":"","lat":35.976664,"lng":139.757527,"version":"13.0b/18.0a"},{"town":"南四丁目","koaza":"","lat":35.967144,"lng":139.763521,"version":"13.0b/18.0a"},{"town":"緑町六丁目","koaza":"","lat":35.967888,"lng":139.767164,"version":"13.0b/18.0a"},{"town":"樋堀","koaza":"","lat":35.984943,"lng":139.765444,"version":"13.0b/18.0a"},{"town":"六軒町","koaza":"","lat":35.968175,"lng":139.783629,"version":"13.0b/18.0a"},{"town":"栄町一丁目","koaza":"","lat":35.98622,"lng":139.735882,"version":"13.0b/18.0a"},{"town":"中央一丁目","koaza":"","lat":35.97815,"lng":139.751459,"version":"13.0b/18.0a"},{"town":"花積","koaza":"","lat":35.966928,"lng":139.717879,"version":"13.0b/18.0a"},{"town":"豊野町二丁目","koaza":"","lat":35.961106,"lng":139.792477,"version":"13.0b/18.0a"},{"town":"梅田本町一丁目","koaza":"","lat":35.993352,"lng":139.744206,"version":"13.0b/18.0a"},{"town":"梅田","koaza":"","lat":35.993101,"lng":139.739624,"version":"13.0b/18.0a"},{"town":"塚崎","koaza":"","lat":36.032266,"lng":139.804394,"version":"13.0b/18.0a"},{"town":"新川","koaza":"","lat":35.991064,"lng":139.780466,"version":"13.0b/18.0a"},{"town":"薄谷","koaza":"","lat":35.95745,"lng":139.753315,"version":"13.0b/18.0a"},{"town":"下蛭田","koaza":"","lat":35.96251,"lng":139.722601,"version":"13.0b/18.0a"},{"town":"南栄町","koaza":"","lat":35.980796,"lng":139.734144,"version":"13.0b/18.0a"},{"town":"米崎","koaza":"","lat":35.972041,"lng":139.806162,"version":"13.0b/18.0a"},{"town":"一ノ割","koaza":"","lat":35.960183,"lng":139.75528,"version":"13.0b/18.0a"},{"town":"粕壁","koaza":"","lat":35.980828,"lng":139.74596,"version":"13.0b/18.0a"},{"town":"下大増新田","koaza":"","lat":35.954761,"lng":139.739764,"version":"13.0b/18.0a"},{"town":"上大増新田","koaza":"","lat":35.961075,"lng":139.738985,"version":"13.0b/18.0a"},{"town":"増田新田","koaza":"","lat":35.945211,"lng":139.751926,"version":"13.0b/18.0a"},{"town":"上蛭田","koaza":"","lat":35.96748,"lng":139.727351,"version":"13.0b/18.0a"},{"town":"大衾","koaza":"","lat":35.982686,"lng":139.804,"version":"13.0b/18.0a"},{"town":"新方袋","koaza":"","lat":35.977264,"lng":139.729235,"version":"13.0b/18.0a"},{"town":"増富","koaza":"","lat":35.962982,"lng":139.732536,"version":"13.0b/18.0a"},{"town":"木崎","koaza":"","lat":36.031391,"lng":139.797268,"version":"13.0b/18.0a"},{"town":"西親野井","koaza":"","lat":36.038223,"lng":139.809366,"version":"13.0b/18.0a"},{"town":"大畑","koaza":"","lat":35.943269,"lng":139.768974,"version":"13.0b/18.0a"},{"town":"武里中野","koaza":"","lat":35.951743,"lng":139.757828,"version":"13.0b/18.0a"},{"town":"南中曽根","koaza":"","lat":35.972557,"lng":139.73012,"version":"13.0b/18.0a"},{"town":"西宝珠花","koaza":"","lat":36.030407,"lng":139.813044,"version":"13.0b/18.0a"},{"town":"榎","koaza":"","lat":36.014985,"lng":139.787714,"version":"13.0b/18.0a"},{"town":"大枝","koaza":"","lat":35.941508,"lng":139.776934,"version":"13.0b/18.0a"},{"town":"増戸","koaza":"","lat":35.956643,"lng":139.726403,"version":"13.0b/18.0a"},{"town":"上金崎","koaza":"","lat":35.998361,"lng":139.808985,"version":"13.0b/18.0a"},{"town":"下吉妻","koaza":"","lat":36.016588,"lng":139.80974,"version":"13.0b/18.0a"},{"town":"銚子口","koaza":"","lat":35.959601,"lng":139.783128,"version":"13.0b/18.0a"},{"town":"芦橋","koaza":"","lat":36.026523,"lng":139.794004,"version":"13.0b/18.0a"},{"town":"新宿新田","koaza":"","lat":35.974117,"lng":139.824121,"version":"13.0b/18.0a"},{"town":"谷原新田","koaza":"","lat":35.9584,"lng":139.746483,"version":"13.0b/18.0a"},{"town":"米島","koaza":"","lat":35.978021,"lng":139.808452,"version":"13.0b/18.0a"},{"town":"上吉妻","koaza":"","lat":36.023796,"lng":139.807634,"version":"13.0b/18.0a"},{"town":"椚","koaza":"","lat":36.006081,"lng":139.800157,"version":"13.0b/18.0a"},{"town":"牛島","koaza":"","lat":35.982744,"lng":139.773843,"version":"13.0b/18.0a"},{"town":"立野","koaza":"","lat":36.006907,"lng":139.787519,"version":"13.0b/18.0a"},{"town":"飯沼","koaza":"","lat":35.96597,"lng":139.813868,"version":"13.0b/18.0a"},{"town":"東中野","koaza":"","lat":35.970709,"lng":139.819623,"version":"13.0b/18.0a"},{"town":"樋籠","koaza":"","lat":35.990179,"lng":139.770811,"version":"13.0b/18.0a"},{"town":"小平","koaza":"","lat":36.005063,"lng":139.811291,"version":"13.0b/18.0a"},{"town":"倉常","koaza":"","lat":36.02295,"lng":139.784312,"version":"13.0b/18.0a"},{"town":"赤崎","koaza":"","lat":35.96049,"lng":139.804674,"version":"13.0b/18.0a"},{"town":"大場","koaza":"","lat":35.944914,"lng":139.761618,"version":"13.0b/18.0a"},{"town":"八丁目","koaza":"","lat":35.995717,"lng":139.772713,"version":"13.0b/18.0a"},{"town":"金崎","koaza":"","lat":35.989589,"lng":139.801026,"version":"13.0b/18.0a"},{"town":"水角","koaza":"","lat":35.967849,"lng":139.796739,"version":"13.0b/18.0a"},{"town":"赤沼","koaza":"","lat":35.950967,"lng":139.799582,"version":"13.0b/18.0a"},{"town":"上柳","koaza":"","lat":35.996936,"lng":139.789922,"version":"13.0b/18.0a"},{"town":"下柳","koaza":"","lat":35.986949,"lng":139.788979,"version":"13.0b/18.0a"},{"town":"神間","koaza":"","lat":36.018377,"lng":139.79774,"version":"13.0b/18.0a"},{"town":"小渕","koaza":"","lat":35.993061,"lng":139.752872,"version":"13.0b/18.0a"},{"town":"永沼","koaza":"","lat":35.975012,"lng":139.790908,"version":"13.0b/18.0a"},{"town":"藤塚","koaza":"","lat":35.969873,"lng":139.779751,"version":"13.0b/18.0a"},{"town":"西金野井","koaza":"","lat":35.988527,"lng":139.813322,"version":"13.0b/18.0a"},{"town":"不動院野","koaza":"","lat":36.000137,"lng":139.767054,"version":"13.0b/18.0a"},{"town":"内牧","koaza":"","lat":35.993086,"lng":139.724142,"version":"13.0b/18.0a"},{"town":"小渕","koaza":"前田","lat":35.994671,"lng":139.759642,"version":"13.0b/18.0a"},{"town":"西八木崎一丁目","koaza":"","lat":35.975616,"lng":139.739504,"version":"14.0b/19.0a"},{"town":"西八木崎二丁目","koaza":"","lat":35.974031,"lng":139.737449,"version":"14.0b/19.0a"},{"town":"豊町四丁目","koaza":"","lat":35.967097,"lng":139.739216,"version":"14.0b/19.0a"},{"town":"八木崎町","koaza":"","lat":35.978092,"lng":139.739159,"version":"14.0b/19.0a"},{"town":"千間一丁目","koaza":"","lat":35.936672,"lng":139.766801,"version":"14.0b/19.0a"},{"town":"粕壁四丁目","koaza":"","lat":35.984624,"lng":139.747776,"version":"14.0b/19.0a"},{"town":"道順川戸","koaza":"","lat":35.969288,"lng":139.729167,"version":"14.0b/19.0a"},{"town":"粕壁二丁目","koaza":"","lat":35.982803,"lng":139.752386,"version":"14.0b/19.0a"},{"town":"西八木崎三丁目","koaza":"","lat":35.976185,"lng":139.73735,"version":"14.0b/19.0a"},{"town":"豊町三丁目","koaza":"","lat":35.966516,"lng":139.743858,"version":"14.0b/19.0a"},{"town":"中央八丁目","koaza":"","lat":35.97054,"lng":139.755759,"version":"14.0b/19.0a"},{"town":"豊野町三丁目","koaza":"","lat":35.960183,"lng":139.795984,"version":"14.0b/19.0a"},{"town":"梅田三丁目","koaza":"","lat":35.986591,"lng":139.739902,"version":"14.0b/19.0a"},{"town":"中央六丁目","koaza":"","lat":35.974933,"lng":139.752529,"version":"14.0b/19.0a"},{"town":"一ノ割二丁目","koaza":"","lat":35.959037,"lng":139.764025,"version":"14.0b/19.0a"},{"town":"備後西二丁目","koaza":"","lat":35.956074,"lng":139.766437,"version":"14.0b/19.0a"},{"town":"備後西一丁目","koaza":"","lat":35.95902,"lng":139.766631,"version":"14.0b/19.0a"},{"town":"大沼一丁目","koaza":"","lat":35.966994,"lng":139.74607,"version":"14.0b/19.0a"},{"town":"備後西五丁目","koaza":"","lat":35.955905,"lng":139.762477,"version":"14.0b/19.0a"},{"town":"豊町六丁目","koaza":"","lat":35.965708,"lng":139.736129,"version":"14.0b/19.0a"},{"town":"粕壁三丁目","koaza":"","lat":35.983162,"lng":139.749305,"version":"14.0b/19.0a"},{"town":"本田町一丁目","koaza":"","lat":35.967756,"lng":139.778475,"version":"14.0b/19.0a"},{"town":"大沼二丁目","koaza":"","lat":35.9674,"lng":139.749028,"version":"14.0b/19.0a"},{"town":"粕壁一丁目","koaza":"","lat":35.981687,"lng":139.753674,"version":"14.0b/19.0a"},{"town":"大沼三丁目","koaza":"","lat":35.96787,"lng":139.752117,"version":"14.0b/19.0a"},{"town":"中央五丁目","koaza":"","lat":35.972833,"lng":139.752006,"version":"14.0b/19.0a"},{"town":"谷原二丁目","koaza":"","lat":35.970992,"lng":139.746952,"version":"14.0b/19.0a"},{"town":"浜川戸二丁目","koaza":"","lat":35.979614,"lng":139.737845,"version":"14.0b/19.0a"},{"town":"中央四丁目","koaza":"","lat":35.974111,"lng":139.74705,"version":"14.0b/19.0a"},{"town":"浜川戸一丁目","koaza":"","lat":35.982337,"lng":139.740076,"version":"14.0b/19.0a"},{"town":"豊町二丁目","koaza":"","lat":35.970397,"lng":139.741788,"version":"14.0b/19.0a"},{"town":"中央七丁目","koaza":"","lat":35.973358,"lng":139.755416,"version":"14.0b/19.0a"},{"town":"豊町一丁目","koaza":"","lat":35.972563,"lng":139.739346,"version":"14.0b/19.0a"},{"town":"備後西四丁目","koaza":"","lat":35.953292,"lng":139.763738,"version":"14.0b/19.0a"},{"town":"備後西三丁目","koaza":"","lat":35.953147,"lng":139.767679,"version":"14.0b/19.0a"},{"town":"梅田二丁目","koaza":"","lat":35.986202,"lng":139.743273,"version":"14.0b/19.0a"},{"town":"南二丁目","koaza":"","lat":35.972603,"lng":139.758663,"version":"14.0b/19.0a"},{"town":"本田町二丁目","koaza":"","lat":35.967738,"lng":139.775458,"version":"14.0b/19.0a"},{"town":"備後東三丁目","koaza":"","lat":35.956885,"lng":139.773577,"version":"14.0b/19.0a"},{"town":"備後東六丁目","koaza":"","lat":35.950578,"lng":139.77363,"version":"14.0b/19.0a"},{"town":"谷原一丁目","koaza":"","lat":35.971186,"lng":139.744337,"version":"14.0b/19.0a"},{"town":"緑町一丁目","koaza":"","lat":35.972648,"lng":139.765131,"version":"14.0b/19.0a"},{"town":"大沼六丁目","koaza":"","lat":35.964645,"lng":139.752115,"version":"14.0b/19.0a"},{"town":"粕壁東一丁目","koaza":"","lat":35.980106,"lng":139.756199,"version":"14.0b/19.0a"},{"town":"一ノ割三丁目","koaza":"","lat":35.959275,"lng":139.760786,"version":"14.0b/19.0a"},{"town":"大沼七丁目","koaza":"","lat":35.96422,"lng":139.747589,"version":"14.0b/19.0a"},{"town":"道口蛭田","koaza":"","lat":35.967172,"lng":139.722249,"version":"14.0b/19.0a"},{"town":"豊町五丁目","koaza":"","lat":35.969275,"lng":139.738097,"version":"14.0b/19.0a"},{"town":"南五丁目","koaza":"","lat":35.967062,"lng":139.76022,"version":"14.0b/19.0a"},{"town":"大沼五丁目","koaza":"","lat":35.965213,"lng":139.756312,"version":"14.0b/19.0a"},{"town":"備後東五丁目","koaza":"","lat":35.951781,"lng":139.77696,"version":"14.0b/19.0a"},{"town":"一ノ割四丁目","koaza":"","lat":35.963426,"lng":139.76058,"version":"14.0b/19.0a"},{"town":"谷原三丁目","koaza":"","lat":35.970525,"lng":139.750751,"version":"14.0b/19.0a"},{"town":"中央二丁目","koaza":"","lat":35.977134,"lng":139.747576,"version":"14.0b/19.0a"},{"town":"備後東七丁目","koaza":"","lat":35.953968,"lng":139.774016,"version":"14.0b/19.0a"},{"town":"大沼四丁目","koaza":"","lat":35.967956,"lng":139.756621,"version":"14.0b/19.0a"},{"town":"豊野町一丁目","koaza":"","lat":35.959494,"lng":139.789385,"version":"14.0b/19.0a"},{"town":"栄町二丁目","koaza":"","lat":35.986618,"lng":139.732225,"version":"14.0b/19.0a"},{"town":"粕壁東三丁目","koaza":"","lat":35.978471,"lng":139.760626,"version":"14.0b/19.0a"},{"town":"粕壁東五丁目","koaza":"","lat":35.977294,"lng":139.765261,"version":"14.0b/19.0a"},{"town":"備後東八丁目","koaza":"","lat":35.954469,"lng":139.770277,"version":"14.0b/19.0a"},{"town":"中央三丁目","koaza":"","lat":35.975176,"lng":139.74308,"version":"14.0b/19.0a"},{"town":"備後東一丁目","koaza":"","lat":35.96303,"lng":139.76939,"version":"14.0b/19.0a"},{"town":"南三丁目","koaza":"","lat":35.972768,"lng":139.761788,"version":"14.0b/19.0a"},{"town":"栄町三丁目","koaza":"","lat":35.990721,"lng":139.73495,"version":"14.0b/19.0a"},{"town":"粕壁東四丁目","koaza":"","lat":35.980941,"lng":139.765871,"version":"14.0b/19.0a"},{"town":"備後東四丁目","koaza":"","lat":35.959989,"lng":139.774742,"version":"14.0b/19.0a"},{"town":"梅田本町二丁目","koaza":"","lat":35.992405,"lng":139.74249,"version":"14.0b/19.0a"},{"town":"緑町五丁目","koaza":"","lat":35.967867,"lng":139.77093,"version":"14.0b/19.0a"},{"town":"緑町四丁目","koaza":"","lat":35.971732,"lng":139.770683,"version":"14.0b/19.0a"},{"town":"備後東二丁目","koaza":"","lat":35.959477,"lng":139.770759,"version":"14.0b/19.0a"},{"town":"粕壁東二丁目","koaza":"","lat":35.981809,"lng":139.759837,"version":"14.0b/19.0a"},{"town":"緑町二丁目","koaza":"","lat":35.976777,"lng":139.77097,"version":"14.0b/19.0a"},{"town":"緑町三丁目","koaza":"","lat":35.974166,"lng":139.770235,"version":"14.0b/19.0a"},{"town":"梅田一丁目","koaza":"","lat":35.987165,"lng":139.747773,"version":"14.0b/19.0a"},{"town":"粕壁東六丁目","koaza":"","lat":35.979343,"lng":139.769531,"version":"14.0b/19.0a"},{"town":"一ノ割一丁目","koaza":"","lat":35.962897,"lng":139.764867,"version":"14.0b/19.0a"},{"town":"南一丁目","koaza":"","lat":35.976664,"lng":139.757527,"version":"14.0b/19.0a"},{"town":"南四丁目","koaza":"","lat":35.967144,"lng":139.763521,"version":"14.0b/19.0a"},{"town":"緑町六丁目","koaza":"","lat":35.967888,"lng":139.767164,"version":"14.0b/19.0a"},{"town":"樋堀","koaza":"","lat":35.984943,"lng":139.765444,"version":"14.0b/19.0a"},{"town":"六軒町","koaza":"","lat":35.968175,"lng":139.783629,"version":"14.0b/19.0a"},{"town":"栄町一丁目","koaza":"","lat":35.98622,"lng":139.735882,"version":"14.0b/19.0a"},{"town":"中央一丁目","koaza":"","lat":35.97815,"lng":139.751459,"version":"14.0b/19.0a"},{"town":"花積","koaza":"","lat":35.966928,"lng":139.717879,"version":"14.0b/19.0a"},{"town":"豊野町二丁目","koaza":"","lat":35.961106,"lng":139.792477,"version":"14.0b/19.0a"},{"town":"梅田本町一丁目","koaza":"","lat":35.993352,"lng":139.744206,"version":"14.0b/19.0a"},{"town":"梅田","koaza":"","lat":35.993101,"lng":139.739624,"version":"14.0b/19.0a"},{"town":"塚崎","koaza":"","lat":36.032266,"lng":139.804394,"version":"14.0b/19.0a"},{"town":"新川","koaza":"","lat":35.991064,"lng":139.780466,"version":"14.0b/19.0a"},{"town":"薄谷","koaza":"","lat":35.95745,"lng":139.753315,"version":"14.0b/19.0a"},{"town":"下蛭田","koaza":"","lat":35.96251,"lng":139.722601,"version":"14.0b/19.0a"},{"town":"南栄町","koaza":"","lat":35.980796,"lng":139.734144,"version":"14.0b/19.0a"},{"town":"米崎","koaza":"","lat":35.972041,"lng":139.806162,"version":"14.0b/19.0a"},{"town":"一ノ割","koaza":"","lat":35.960183,"lng":139.75528,"version":"14.0b/19.0a"},{"town":"粕壁","koaza":"","lat":35.980828,"lng":139.74596,"version":"14.0b/19.0a"},{"town":"下大増新田","koaza":"","lat":35.954761,"lng":139.739764,"version":"14.0b/19.0a"},{"town":"上大増新田","koaza":"","lat":35.961075,"lng":139.738985,"version":"14.0b/19.0a"},{"town":"増田新田","koaza":"","lat":35.945211,"lng":139.751926,"version":"14.0b/19.0a"},{"town":"上蛭田","koaza":"","lat":35.96748,"lng":139.727351,"version":"14.0b/19.0a"},{"town":"大衾","koaza":"","lat":35.982686,"lng":139.804,"version":"14.0b/19.0a"},{"town":"新方袋","koaza":"","lat":35.977264,"lng":139.729235,"version":"14.0b/19.0a"},{"town":"増富","koaza":"","lat":35.962982,"lng":139.732536,"version":"14.0b/19.0a"},{"town":"木崎","koaza":"","lat":36.031391,"lng":139.797268,"version":"14.0b/19.0a"},{"town":"西親野井","koaza":"","lat":36.038223,"lng":139.809366,"version":"14.0b/19.0a"},{"town":"大畑","koaza":"","lat":35.943269,"lng":139.768974,"version":"14.0b/19.0a"},{"town":"武里中野","koaza":"","lat":35.951743,"lng":139.757828,"version":"14.0b/19.0a"},{"town":"南中曽根","koaza":"","lat":35.972557,"lng":139.73012,"version":"14.0b/19.0a"},{"town":"西宝珠花","koaza":"","lat":36.030407,"lng":139.813044,"version":"14.0b/19.0a"},{"town":"榎","koaza":"","lat":36.014985,"lng":139.787714,"version":"14.0b/19.0a"},{"town":"大枝","koaza":"","lat":35.941508,"lng":139.776934,"version":"14.0b/19.0a"},{"town":"増戸","koaza":"","lat":35.956643,"lng":139.726403,"version":"14.0b/19.0a"},{"town":"上金崎","koaza":"","lat":35.998361,"lng":139.808985,"version":"14.0b/19.0a"},{"town":"下吉妻","koaza":"","lat":36.016588,"lng":139.80974,"version":"14.0b/19.0a"},{"town":"銚子口","koaza":"","lat":35.959601,"lng":139.783128,"version":"14.0b/19.0a"},{"town":"芦橋","koaza":"","lat":36.026523,"lng":139.794004,"version":"14.0b/19.0a"},{"town":"新宿新田","koaza":"","lat":35.974117,"lng":139.824121,"version":"14.0b/19.0a"},{"town":"谷原新田","koaza":"","lat":35.9584,"lng":139.746483,"version":"14.0b/19.0a"},{"town":"米島","koaza":"","lat":35.978021,"lng":139.808452,"version":"14.0b/19.0a"},{"town":"上吉妻","koaza":"","lat":36.023796,"lng":139.807634,"version":"14.0b/19.0a"},{"town":"椚","koaza":"","lat":36.006081,"lng":139.800157,"version":"14.0b/19.0a"},{"town":"牛島","koaza":"","lat":35.982744,"lng":139.773843,"version":"14.0b/19.0a"},{"town":"立野","koaza":"","lat":36.006907,"lng":139.787519,"version":"14.0b/19.0a"},{"town":"飯沼","koaza":"","lat":35.96597,"lng":139.813868,"version":"14.0b/19.0a"},{"town":"東中野","koaza":"","lat":35.970709,"lng":139.819623,"version":"14.0b/19.0a"},{"town":"樋籠","koaza":"","lat":35.990179,"lng":139.770811,"version":"14.0b/19.0a"},{"town":"小平","koaza":"","lat":36.005063,"lng":139.811291,"version":"14.0b/19.0a"},{"town":"倉常","koaza":"","lat":36.02295,"lng":139.784312,"version":"14.0b/19.0a"},{"town":"赤崎","koaza":"","lat":35.96049,"lng":139.804674,"version":"14.0b/19.0a"},{"town":"大場","koaza":"","lat":35.944914,"lng":139.761618,"version":"14.0b/19.0a"},{"town":"八丁目","koaza":"","lat":35.995717,"lng":139.772713,"version":"14.0b/19.0a"},{"town":"金崎","koaza":"","lat":35.989589,"lng":139.801026,"version":"14.0b/19.0a"},{"town":"水角","koaza":"","lat":35.967849,"lng":139.796739,"version":"14.0b/19.0a"},{"town":"赤沼","koaza":"","lat":35.950967,"lng":139.799582,"version":"14.0b/19.0a"},{"town":"上柳","koaza":"","lat":35.996936,"lng":139.789922,"version":"14.0b/19.0a"},{"town":"下柳","koaza":"","lat":35.986949,"lng":139.788979,"version":"14.0b/19.0a"},{"town":"神間","koaza":"","lat":36.018377,"lng":139.79774,"version":"14.0b/19.0a"},{"town":"小渕","koaza":"","lat":35.993061,"lng":139.752872,"version":"14.0b/19.0a"},{"town":"永沼","koaza":"","lat":35.975012,"lng":139.790908,"version":"14.0b/19.0a"},{"town":"藤塚","koaza":"","lat":35.969873,"lng":139.779751,"version":"14.0b/19.0a"},{"town":"西金野井","koaza":"","lat":35.988527,"lng":139.813322,"version":"14.0b/19.0a"},{"town":"不動院野","koaza":"","lat":36.000137,"lng":139.767054,"version":"14.0b/19.0a"},{"town":"内牧","koaza":"","lat":35.993086,"lng":139.724142,"version":"14.0b/19.0a"},{"town":"小渕","koaza":"前田","lat":35.994671,"lng":139.759642,"version":"14.0b/19.0a"}]