[{"town":"東小川一丁目","koaza":"","lat":36.056291,"lng":139.28751,"version":"13.0b/18.0a"},{"town":"ひばり台三丁目","koaza":"","lat":36.077105,"lng":139.246373,"version":"13.0b/18.0a"},{"town":"東小川三丁目","koaza":"","lat":36.056516,"lng":139.290299,"version":"13.0b/18.0a"},{"town":"東小川四丁目","koaza":"","lat":36.057881,"lng":139.293971,"version":"13.0b/18.0a"},{"town":"ひばり台一丁目","koaza":"","lat":36.076867,"lng":139.242845,"version":"13.0b/18.0a"},{"town":"みどりが丘一丁目","koaza":"","lat":36.065182,"lng":139.260879,"version":"13.0b/18.0a"},{"town":"みどりが丘五丁目","koaza":"","lat":36.073147,"lng":139.264401,"version":"13.0b/18.0a"},{"town":"東小川六丁目","koaza":"","lat":36.059415,"lng":139.300094,"version":"13.0b/18.0a"},{"town":"みどりが丘二丁目","koaza":"","lat":36.069613,"lng":139.260677,"version":"13.0b/18.0a"},{"town":"みどりが丘三丁目","koaza":"","lat":36.070174,"lng":139.257824,"version":"13.0b/18.0a"},{"town":"東小川二丁目","koaza":"","lat":36.053937,"lng":139.289932,"version":"13.0b/18.0a"},{"town":"東小川五丁目","koaza":"","lat":36.05918,"lng":139.296355,"version":"13.0b/18.0a"},{"town":"みどりが丘四丁目","koaza":"","lat":36.073653,"lng":139.260818,"version":"13.0b/18.0a"},{"town":"大字鷹巣","koaza":"","lat":36.091187,"lng":139.288576,"version":"13.0b/18.0a"},{"town":"大字伊勢根","koaza":"","lat":36.082998,"lng":139.277894,"version":"13.0b/18.0a"},{"town":"大字下古寺","koaza":"","lat":36.040982,"lng":139.240276,"version":"13.0b/18.0a"},{"town":"ひばり台二丁目","koaza":"","lat":36.079262,"lng":139.246009,"version":"13.0b/18.0a"},{"town":"大字原川","koaza":"","lat":36.076235,"lng":139.249766,"version":"13.0b/18.0a"},{"town":"大字増尾","koaza":"","lat":36.054325,"lng":139.249743,"version":"13.0b/18.0a"},{"town":"大字奈良梨","koaza":"","lat":36.084644,"lng":139.285978,"version":"13.0b/18.0a"},{"town":"大字能増","koaza":"","lat":36.089065,"lng":139.278229,"version":"13.0b/18.0a"},{"town":"大字西古里","koaza":"","lat":36.093981,"lng":139.294348,"version":"13.0b/18.0a"},{"town":"大字下横田","koaza":"","lat":36.068031,"lng":139.288084,"version":"13.0b/18.0a"},{"town":"大字笠原","koaza":"","lat":36.064196,"lng":139.232874,"version":"13.0b/18.0a"},{"town":"大字高見","koaza":"","lat":36.092879,"lng":139.270797,"version":"13.0b/18.0a"},{"town":"大字大塚","koaza":"","lat":36.058917,"lng":139.25755,"version":"13.0b/18.0a"},{"town":"大字木部","koaza":"","lat":36.068353,"lng":139.22429,"version":"13.0b/18.0a"},{"town":"大字飯田","koaza":"","lat":36.060167,"lng":139.239612,"version":"13.0b/18.0a"},{"town":"大字上横田","koaza":"","lat":36.071912,"lng":139.281101,"version":"13.0b/18.0a"},{"town":"大字角山","koaza":"","lat":36.070669,"lng":139.252604,"version":"13.0b/18.0a"},{"town":"大字中爪","koaza":"","lat":36.064274,"lng":139.297624,"version":"13.0b/18.0a"},{"town":"大字靭負","koaza":"","lat":36.078785,"lng":139.238089,"version":"13.0b/18.0a"},{"town":"大字小川","koaza":"","lat":36.053846,"lng":139.271533,"version":"13.0b/18.0a"},{"town":"大字木呂子","koaza":"","lat":36.07889,"lng":139.211892,"version":"13.0b/18.0a"},{"town":"大字勝呂","koaza":"","lat":36.07296,"lng":139.220817,"version":"13.0b/18.0a"},{"town":"大字高谷","koaza":"","lat":36.07589,"lng":139.270768,"version":"13.0b/18.0a"},{"town":"大字上古寺","koaza":"","lat":36.026689,"lng":139.233966,"version":"13.0b/18.0a"},{"town":"大字青山","koaza":"","lat":36.042451,"lng":139.257309,"version":"13.0b/18.0a"},{"town":"大字下里","koaza":"","lat":36.042555,"lng":139.284874,"version":"13.0b/18.0a"},{"town":"大字腰越","koaza":"","lat":36.029974,"lng":139.212631,"version":"13.0b/18.0a"},{"town":"東小川一丁目","koaza":"","lat":36.056291,"lng":139.28751,"version":"14.0b/19.0a"},{"town":"ひばり台三丁目","koaza":"","lat":36.077105,"lng":139.246373,"version":"14.0b/19.0a"},{"town":"東小川三丁目","koaza":"","lat":36.056516,"lng":139.290299,"version":"14.0b/19.0a"},{"town":"東小川四丁目","koaza":"","lat":36.057881,"lng":139.293971,"version":"14.0b/19.0a"},{"town":"ひばり台一丁目","koaza":"","lat":36.076867,"lng":139.242845,"version":"14.0b/19.0a"},{"town":"みどりが丘一丁目","koaza":"","lat":36.065182,"lng":139.260879,"version":"14.0b/19.0a"},{"town":"みどりが丘五丁目","koaza":"","lat":36.073147,"lng":139.264401,"version":"14.0b/19.0a"},{"town":"東小川六丁目","koaza":"","lat":36.059415,"lng":139.300094,"version":"14.0b/19.0a"},{"town":"みどりが丘二丁目","koaza":"","lat":36.069613,"lng":139.260677,"version":"14.0b/19.0a"},{"town":"みどりが丘三丁目","koaza":"","lat":36.070174,"lng":139.257824,"version":"14.0b/19.0a"},{"town":"東小川二丁目","koaza":"","lat":36.053937,"lng":139.289932,"version":"14.0b/19.0a"},{"town":"東小川五丁目","koaza":"","lat":36.05918,"lng":139.296355,"version":"14.0b/19.0a"},{"town":"みどりが丘四丁目","koaza":"","lat":36.073653,"lng":139.260818,"version":"14.0b/19.0a"},{"town":"大字鷹巣","koaza":"","lat":36.091187,"lng":139.288576,"version":"14.0b/19.0a"},{"town":"大字伊勢根","koaza":"","lat":36.082998,"lng":139.277894,"version":"14.0b/19.0a"},{"town":"大字下古寺","koaza":"","lat":36.040982,"lng":139.240276,"version":"14.0b/19.0a"},{"town":"ひばり台二丁目","koaza":"","lat":36.079262,"lng":139.246009,"version":"14.0b/19.0a"},{"town":"大字原川","koaza":"","lat":36.076235,"lng":139.249766,"version":"14.0b/19.0a"},{"town":"大字増尾","koaza":"","lat":36.054325,"lng":139.249743,"version":"14.0b/19.0a"},{"town":"大字奈良梨","koaza":"","lat":36.084644,"lng":139.285978,"version":"14.0b/19.0a"},{"town":"大字能増","koaza":"","lat":36.089065,"lng":139.278229,"version":"14.0b/19.0a"},{"town":"大字西古里","koaza":"","lat":36.093981,"lng":139.294348,"version":"14.0b/19.0a"},{"town":"大字下横田","koaza":"","lat":36.068031,"lng":139.288084,"version":"14.0b/19.0a"},{"town":"大字笠原","koaza":"","lat":36.064196,"lng":139.232874,"version":"14.0b/19.0a"},{"town":"大字高見","koaza":"","lat":36.092879,"lng":139.270797,"version":"14.0b/19.0a"},{"town":"大字大塚","koaza":"","lat":36.058917,"lng":139.25755,"version":"14.0b/19.0a"},{"town":"大字木部","koaza":"","lat":36.068353,"lng":139.22429,"version":"14.0b/19.0a"},{"town":"大字飯田","koaza":"","lat":36.060167,"lng":139.239612,"version":"14.0b/19.0a"},{"town":"大字上横田","koaza":"","lat":36.071912,"lng":139.281101,"version":"14.0b/19.0a"},{"town":"大字角山","koaza":"","lat":36.070669,"lng":139.252604,"version":"14.0b/19.0a"},{"town":"大字中爪","koaza":"","lat":36.064274,"lng":139.297624,"version":"14.0b/19.0a"},{"town":"大字靭負","koaza":"","lat":36.078785,"lng":139.238089,"version":"14.0b/19.0a"},{"town":"大字小川","koaza":"","lat":36.053846,"lng":139.271533,"version":"14.0b/19.0a"},{"town":"大字木呂子","koaza":"","lat":36.07889,"lng":139.211892,"version":"14.0b/19.0a"},{"town":"大字勝呂","koaza":"","lat":36.07296,"lng":139.220817,"version":"14.0b/19.0a"},{"town":"大字高谷","koaza":"","lat":36.07589,"lng":139.270768,"version":"14.0b/19.0a"},{"town":"大字上古寺","koaza":"","lat":36.026689,"lng":139.233966,"version":"14.0b/19.0a"},{"town":"大字青山","koaza":"","lat":36.042451,"lng":139.257309,"version":"14.0b/19.0a"},{"town":"大字下里","koaza":"","lat":36.042555,"lng":139.284874,"version":"14.0b/19.0a"},{"town":"大字腰越","koaza":"","lat":36.029974,"lng":139.212631,"version":"14.0b/19.0a"}]