[{"town":"星川二丁目","koaza":"","lat":36.142298,"lng":139.3872,"version":"13.0b/18.0a"},{"town":"玉井二丁目","koaza":"","lat":36.178846,"lng":139.337384,"version":"13.0b/18.0a"},{"town":"星川一丁目","koaza":"","lat":36.143179,"lng":139.384423,"version":"13.0b/18.0a"},{"town":"弥生一丁目","koaza":"","lat":36.142171,"lng":139.383706,"version":"13.0b/18.0a"},{"town":"弥生二丁目","koaza":"","lat":36.141276,"lng":139.386784,"version":"13.0b/18.0a"},{"town":"中央四丁目","koaza":"","lat":36.157101,"lng":139.389953,"version":"13.0b/18.0a"},{"town":"玉井南一丁目","koaza":"","lat":36.176896,"lng":139.345655,"version":"13.0b/18.0a"},{"town":"桜町一丁目","koaza":"","lat":36.149774,"lng":139.380829,"version":"13.0b/18.0a"},{"town":"箱田三丁目","koaza":"","lat":36.150288,"lng":139.388037,"version":"13.0b/18.0a"},{"town":"美土里町三丁目","koaza":"","lat":36.169612,"lng":139.317707,"version":"13.0b/18.0a"},{"town":"末広一丁目","koaza":"","lat":36.145679,"lng":139.390574,"version":"13.0b/18.0a"},{"town":"曙町三丁目","koaza":"","lat":36.134416,"lng":139.394541,"version":"13.0b/18.0a"},{"town":"仲町","koaza":"","lat":36.146861,"lng":139.382743,"version":"13.0b/18.0a"},{"town":"玉井四丁目","koaza":"","lat":36.178388,"lng":139.340989,"version":"13.0b/18.0a"},{"town":"玉井南二丁目","koaza":"","lat":36.174831,"lng":139.346896,"version":"13.0b/18.0a"},{"town":"鎌倉町","koaza":"","lat":36.144104,"lng":139.38176,"version":"13.0b/18.0a"},{"town":"玉井五丁目","koaza":"","lat":36.177534,"lng":139.338871,"version":"13.0b/18.0a"},{"town":"中西二丁目","koaza":"","lat":36.147816,"lng":139.394217,"version":"13.0b/18.0a"},{"town":"問屋町一丁目","koaza":"","lat":36.133228,"lng":139.425542,"version":"13.0b/18.0a"},{"town":"問屋町四丁目","koaza":"","lat":36.130032,"lng":139.425237,"version":"13.0b/18.0a"},{"town":"曙町二丁目","koaza":"","lat":36.135961,"lng":139.393445,"version":"13.0b/18.0a"},{"town":"曙町五丁目","koaza":"","lat":36.136873,"lng":139.395128,"version":"13.0b/18.0a"},{"town":"玉井南三丁目","koaza":"","lat":36.175082,"lng":139.345128,"version":"13.0b/18.0a"},{"town":"玉井一丁目","koaza":"","lat":36.178761,"lng":139.335329,"version":"13.0b/18.0a"},{"town":"筑波三丁目","koaza":"","lat":36.14043,"lng":139.391265,"version":"13.0b/18.0a"},{"town":"銀座一丁目","koaza":"","lat":36.141869,"lng":139.393526,"version":"13.0b/18.0a"},{"town":"本町二丁目","koaza":"","lat":36.143902,"lng":139.387703,"version":"13.0b/18.0a"},{"town":"曙町一丁目","koaza":"","lat":36.137077,"lng":139.39135,"version":"13.0b/18.0a"},{"town":"箱田","koaza":"","lat":36.147284,"lng":139.402732,"version":"13.0b/18.0a"},{"town":"曙町四丁目","koaza":"","lat":36.134805,"lng":139.396983,"version":"13.0b/18.0a"},{"town":"玉井三丁目","koaza":"","lat":36.179607,"lng":139.339719,"version":"13.0b/18.0a"},{"town":"銀座六丁目","koaza":"","lat":36.140113,"lng":139.401168,"version":"13.0b/18.0a"},{"town":"中西一丁目","koaza":"","lat":36.14887,"lng":139.392135,"version":"13.0b/18.0a"},{"town":"銀座五丁目","koaza":"","lat":36.141484,"lng":139.398292,"version":"13.0b/18.0a"},{"town":"宮町一丁目","koaza":"","lat":36.14697,"lng":139.385238,"version":"13.0b/18.0a"},{"town":"美土里町二丁目","koaza":"","lat":36.167928,"lng":139.314594,"version":"13.0b/18.0a"},{"town":"桜町二丁目","koaza":"","lat":36.150913,"lng":139.382,"version":"13.0b/18.0a"},{"town":"妻沼東三丁目","koaza":"","lat":36.22122,"lng":139.386506,"version":"13.0b/18.0a"},{"town":"銀座三丁目","koaza":"","lat":36.141285,"lng":139.395605,"version":"13.0b/18.0a"},{"town":"箱田四丁目","koaza":"","lat":36.150184,"lng":139.389745,"version":"13.0b/18.0a"},{"town":"問屋町二丁目","koaza":"","lat":36.13218,"lng":139.425432,"version":"13.0b/18.0a"},{"town":"別府一丁目","koaza":"","lat":36.181616,"lng":139.333394,"version":"13.0b/18.0a"},{"town":"銀座四丁目","koaza":"","lat":36.139695,"lng":139.39879,"version":"13.0b/18.0a"},{"town":"筑波二丁目","koaza":"","lat":36.140469,"lng":139.388935,"version":"13.0b/18.0a"},{"town":"美土里町一丁目","koaza":"","lat":36.170299,"lng":139.316062,"version":"13.0b/18.0a"},{"town":"江南中央一丁目","koaza":"","lat":36.11486,"lng":139.334185,"version":"13.0b/18.0a"},{"town":"妻沼東一丁目","koaza":"","lat":36.222126,"lng":139.382893,"version":"13.0b/18.0a"},{"town":"久下二丁目","koaza":"","lat":36.114826,"lng":139.428873,"version":"13.0b/18.0a"},{"town":"宮前町一丁目","koaza":"","lat":36.140995,"lng":139.382509,"version":"13.0b/18.0a"},{"town":"箱田二丁目","koaza":"","lat":36.150188,"lng":139.38635,"version":"13.0b/18.0a"},{"town":"箱田五丁目","koaza":"","lat":36.150574,"lng":139.392184,"version":"13.0b/18.0a"},{"town":"筑波一丁目","koaza":"","lat":36.143077,"lng":139.390899,"version":"13.0b/18.0a"},{"town":"江南中央三丁目","koaza":"","lat":36.114816,"lng":139.341579,"version":"13.0b/18.0a"},{"town":"問屋町三丁目","koaza":"","lat":36.13107,"lng":139.425445,"version":"13.0b/18.0a"},{"town":"妻沼東二丁目","koaza":"","lat":36.219997,"lng":139.382508,"version":"13.0b/18.0a"},{"town":"桜木町一丁目","koaza":"","lat":36.138445,"lng":139.388866,"version":"13.0b/18.0a"},{"town":"箱田七丁目","koaza":"","lat":36.154189,"lng":139.388821,"version":"13.0b/18.0a"},{"town":"船木台二丁目","koaza":"","lat":36.075794,"lng":139.417279,"version":"13.0b/18.0a"},{"town":"赤城町三丁目","koaza":"","lat":36.147166,"lng":139.366843,"version":"13.0b/18.0a"},{"town":"妻沼東四丁目","koaza":"","lat":36.218985,"lng":139.385715,"version":"13.0b/18.0a"},{"town":"宮前町二丁目","koaza":"","lat":36.139902,"lng":139.385696,"version":"13.0b/18.0a"},{"town":"中央五丁目","koaza":"","lat":36.158412,"lng":139.393717,"version":"13.0b/18.0a"},{"town":"肥塚三丁目","koaza":"","lat":36.160247,"lng":139.386791,"version":"13.0b/18.0a"},{"town":"肥塚二丁目","koaza":"","lat":36.157878,"lng":139.386532,"version":"13.0b/18.0a"},{"town":"本町一丁目","koaza":"","lat":36.144767,"lng":139.384461,"version":"13.0b/18.0a"},{"town":"石原一丁目","koaza":"","lat":36.151831,"lng":139.374419,"version":"13.0b/18.0a"},{"town":"瀬南","koaza":"","lat":36.145966,"lng":139.354092,"version":"13.0b/18.0a"},{"town":"箱田一丁目","koaza":"","lat":36.150076,"lng":139.384036,"version":"13.0b/18.0a"},{"town":"石原二丁目","koaza":"","lat":36.148534,"lng":139.375049,"version":"13.0b/18.0a"},{"town":"宮本町","koaza":"","lat":36.141437,"lng":139.379635,"version":"13.0b/18.0a"},{"town":"肥塚一丁目","koaza":"","lat":36.15867,"lng":139.390099,"version":"13.0b/18.0a"},{"town":"中西三丁目","koaza":"","lat":36.150259,"lng":139.395803,"version":"13.0b/18.0a"},{"town":"銀座七丁目","koaza":"","lat":36.13693,"lng":139.399133,"version":"13.0b/18.0a"},{"town":"妻沼中央","koaza":"","lat":36.224474,"lng":139.371325,"version":"13.0b/18.0a"},{"town":"肥塚四丁目","koaza":"","lat":36.162243,"lng":139.389362,"version":"13.0b/18.0a"},{"town":"妻沼東五丁目","koaza":"","lat":36.219555,"lng":139.389297,"version":"13.0b/18.0a"},{"town":"久下四丁目","koaza":"","lat":36.119315,"lng":139.432167,"version":"13.0b/18.0a"},{"town":"本石一丁目","koaza":"","lat":36.147661,"lng":139.379989,"version":"13.0b/18.0a"},{"town":"銀座二丁目","koaza":"","lat":36.138906,"lng":139.395088,"version":"13.0b/18.0a"},{"town":"別府三丁目","koaza":"","lat":36.184519,"lng":139.336698,"version":"13.0b/18.0a"},{"town":"久下三丁目","koaza":"","lat":36.11726,"lng":139.431071,"version":"13.0b/18.0a"},{"town":"別府二丁目","koaza":"","lat":36.185716,"lng":139.33348,"version":"13.0b/18.0a"},{"town":"久下一丁目","koaza":"","lat":36.115833,"lng":139.425922,"version":"13.0b/18.0a"},{"town":"船木台五丁目","koaza":"","lat":36.079185,"lng":139.414847,"version":"13.0b/18.0a"},{"town":"大原二丁目","koaza":"","lat":36.159863,"lng":139.378827,"version":"13.0b/18.0a"},{"town":"末広二丁目","koaza":"","lat":36.14489,"lng":139.39339,"version":"13.0b/18.0a"},{"town":"中央三丁目","koaza":"","lat":36.156749,"lng":139.395156,"version":"13.0b/18.0a"},{"town":"中央一丁目","koaza":"","lat":36.15523,"lng":139.391346,"version":"13.0b/18.0a"},{"town":"円光二丁目","koaza":"","lat":36.15962,"lng":139.382997,"version":"13.0b/18.0a"},{"town":"船木台一丁目","koaza":"","lat":36.074566,"lng":139.420588,"version":"13.0b/18.0a"},{"town":"伊勢町","koaza":"","lat":36.143965,"lng":139.374858,"version":"13.0b/18.0a"},{"town":"中央二丁目","koaza":"","lat":36.153949,"lng":139.39424,"version":"13.0b/18.0a"},{"town":"箱田六丁目","koaza":"","lat":36.154464,"lng":139.386234,"version":"13.0b/18.0a"},{"town":"中西四丁目","koaza":"","lat":36.148245,"lng":139.398023,"version":"13.0b/18.0a"},{"town":"船木台三丁目","koaza":"","lat":36.077987,"lng":139.417946,"version":"13.0b/18.0a"},{"town":"宮町二丁目","koaza":"","lat":36.146737,"lng":139.388729,"version":"13.0b/18.0a"},{"town":"本石二丁目","koaza":"","lat":36.145481,"lng":139.378493,"version":"13.0b/18.0a"},{"town":"末広三丁目","koaza":"","lat":36.144631,"lng":139.397304,"version":"13.0b/18.0a"},{"town":"月見町一丁目","koaza":"","lat":36.145002,"lng":139.368985,"version":"13.0b/18.0a"},{"town":"別府五丁目","koaza":"","lat":36.181241,"lng":139.337337,"version":"13.0b/18.0a"},{"town":"石原三丁目","koaza":"","lat":36.150258,"lng":139.37743,"version":"13.0b/18.0a"},{"town":"江南中央二丁目","koaza":"","lat":36.114911,"lng":139.337695,"version":"13.0b/18.0a"},{"town":"円光一丁目","koaza":"","lat":36.155336,"lng":139.383398,"version":"13.0b/18.0a"},{"town":"高柳","koaza":"","lat":36.173147,"lng":139.343391,"version":"13.0b/18.0a"},{"town":"大原四丁目","koaza":"","lat":36.156238,"lng":139.373755,"version":"13.0b/18.0a"},{"town":"別府四丁目","koaza":"","lat":36.183224,"lng":139.340565,"version":"13.0b/18.0a"},{"town":"大原三丁目","koaza":"","lat":36.155761,"lng":139.376671,"version":"13.0b/18.0a"},{"town":"妻沼西二丁目","koaza":"","lat":36.224765,"lng":139.351988,"version":"13.0b/18.0a"},{"town":"吉所敷","koaza":"","lat":36.104072,"lng":139.39743,"version":"13.0b/18.0a"},{"town":"籠原南二丁目","koaza":"","lat":36.168703,"lng":139.328628,"version":"13.0b/18.0a"},{"town":"籠原南三丁目","koaza":"","lat":36.170865,"lng":139.324112,"version":"13.0b/18.0a"},{"town":"籠原南一丁目","koaza":"","lat":36.172562,"lng":139.330149,"version":"13.0b/18.0a"},{"town":"大原一丁目","koaza":"","lat":36.155733,"lng":139.379916,"version":"13.0b/18.0a"},{"town":"月見町二丁目","koaza":"","lat":36.143972,"lng":139.370333,"version":"13.0b/18.0a"},{"town":"船木台四丁目","koaza":"","lat":36.078284,"lng":139.422221,"version":"13.0b/18.0a"},{"town":"武体","koaza":"","lat":36.148728,"lng":139.325853,"version":"13.0b/18.0a"},{"town":"末広四丁目","koaza":"","lat":36.144161,"lng":139.401987,"version":"13.0b/18.0a"},{"town":"向谷","koaza":"","lat":36.096423,"lng":139.414799,"version":"13.0b/18.0a"},{"town":"新堀新田","koaza":"","lat":36.16691,"lng":139.334075,"version":"13.0b/18.0a"},{"town":"赤城町二丁目","koaza":"","lat":36.146081,"lng":139.366361,"version":"13.0b/18.0a"},{"town":"原井","koaza":"","lat":36.204349,"lng":139.350781,"version":"13.0b/18.0a"},{"town":"妻沼西一丁目","koaza":"","lat":36.22704,"lng":139.356182,"version":"13.0b/18.0a"},{"town":"弁財","koaza":"","lat":36.207624,"lng":139.406322,"version":"13.0b/18.0a"},{"town":"柴","koaza":"","lat":36.115216,"lng":139.325224,"version":"13.0b/18.0a"},{"town":"沼黒","koaza":"","lat":36.099404,"lng":139.401493,"version":"13.0b/18.0a"},{"town":"新島","koaza":"","lat":36.163936,"lng":139.358736,"version":"13.0b/18.0a"},{"town":"高本","koaza":"","lat":36.097072,"lng":139.407651,"version":"13.0b/18.0a"},{"town":"奈良新田","koaza":"","lat":36.196158,"lng":139.365518,"version":"13.0b/18.0a"},{"town":"田島","koaza":"","lat":36.201097,"lng":139.377316,"version":"13.0b/18.0a"},{"town":"相上","koaza":"","lat":36.090405,"lng":139.415292,"version":"13.0b/18.0a"},{"town":"市ノ坪","koaza":"","lat":36.213681,"lng":139.34023,"version":"13.0b/18.0a"},{"town":"上恩田","koaza":"","lat":36.117143,"lng":139.382076,"version":"13.0b/18.0a"},{"town":"冑山","koaza":"","lat":36.079371,"lng":139.409542,"version":"13.0b/18.0a"},{"town":"平塚新田","koaza":"","lat":36.115706,"lng":139.373729,"version":"13.0b/18.0a"},{"town":"道ケ谷戸","koaza":"","lat":36.210918,"lng":139.35581,"version":"13.0b/18.0a"},{"town":"江波","koaza":"","lat":36.209716,"lng":139.391914,"version":"13.0b/18.0a"},{"town":"赤城町一丁目","koaza":"","lat":36.147184,"lng":139.361212,"version":"13.0b/18.0a"},{"town":"四方寺","koaza":"","lat":36.189009,"lng":139.396231,"version":"13.0b/18.0a"},{"town":"戸出","koaza":"","lat":36.138408,"lng":139.415793,"version":"13.0b/18.0a"},{"town":"中恩田","koaza":"","lat":36.108235,"lng":139.393527,"version":"13.0b/18.0a"},{"town":"西野","koaza":"","lat":36.204636,"lng":139.372776,"version":"13.0b/18.0a"},{"town":"下恩田","koaza":"","lat":36.107918,"lng":139.387859,"version":"13.0b/18.0a"},{"town":"大塚","koaza":"","lat":36.167822,"lng":139.420269,"version":"13.0b/18.0a"},{"town":"八ツ口","koaza":"","lat":36.21518,"lng":139.391418,"version":"13.0b/18.0a"},{"town":"平戸","koaza":"","lat":36.141552,"lng":139.40921,"version":"13.0b/18.0a"},{"town":"上新田","koaza":"","lat":36.131063,"lng":139.316995,"version":"13.0b/18.0a"},{"town":"川原明戸","koaza":"","lat":36.142228,"lng":139.315395,"version":"13.0b/18.0a"},{"town":"小曽根","koaza":"","lat":36.173626,"lng":139.389887,"version":"13.0b/18.0a"},{"town":"屈戸","koaza":"","lat":36.10567,"lng":139.423951,"version":"13.0b/18.0a"},{"town":"中曽根","koaza":"","lat":36.104881,"lng":139.404236,"version":"13.0b/18.0a"},{"town":"新川","koaza":"","lat":36.109762,"lng":139.424345,"version":"13.0b/18.0a"},{"town":"上根","koaza":"","lat":36.209235,"lng":139.382585,"version":"13.0b/18.0a"},{"town":"肥塚","koaza":"","lat":36.164366,"lng":139.391436,"version":"13.0b/18.0a"},{"town":"出来島","koaza":"","lat":36.239986,"lng":139.352679,"version":"13.0b/18.0a"},{"town":"津田新田","koaza":"","lat":36.108944,"lng":139.410923,"version":"13.0b/18.0a"},{"town":"箕輪","koaza":"","lat":36.084197,"lng":139.419102,"version":"13.0b/18.0a"},{"town":"男沼","koaza":"","lat":36.23225,"lng":139.359251,"version":"13.0b/18.0a"},{"town":"須賀広","koaza":"","lat":36.108005,"lng":139.341276,"version":"13.0b/18.0a"},{"town":"大野","koaza":"","lat":36.215424,"lng":139.410131,"version":"13.0b/18.0a"},{"town":"上江袋","koaza":"","lat":36.204965,"lng":139.361384,"version":"13.0b/18.0a"},{"town":"太井","koaza":"","lat":36.125354,"lng":139.42784,"version":"13.0b/18.0a"},{"town":"広瀬","koaza":"","lat":36.148549,"lng":139.352758,"version":"13.0b/18.0a"},{"town":"八木田","koaza":"","lat":36.216755,"lng":139.362592,"version":"13.0b/18.0a"},{"town":"御稜威ケ原","koaza":"","lat":36.159801,"lng":139.298662,"version":"13.0b/18.0a"},{"town":"玉作","koaza":"","lat":36.089098,"lng":139.425864,"version":"13.0b/18.0a"},{"town":"小島","koaza":"","lat":36.155857,"lng":139.346403,"version":"13.0b/18.0a"},{"town":"下増田","koaza":"","lat":36.206175,"lng":139.34005,"version":"13.0b/18.0a"},{"town":"柿沼","koaza":"","lat":36.168696,"lng":139.380482,"version":"13.0b/18.0a"},{"town":"手島","koaza":"","lat":36.125687,"lng":139.388769,"version":"13.0b/18.0a"},{"town":"御正新田","koaza":"","lat":36.12015,"lng":139.3577,"version":"13.0b/18.0a"},{"town":"池上","koaza":"","lat":36.152527,"lng":139.428474,"version":"13.0b/18.0a"},{"town":"妻沼台","koaza":"","lat":36.234701,"lng":139.36575,"version":"13.0b/18.0a"},{"town":"代","koaza":"","lat":36.172652,"lng":139.371391,"version":"13.0b/18.0a"},{"town":"俵瀬","koaza":"","lat":36.199365,"lng":139.430425,"version":"13.0b/18.0a"},{"town":"原島","koaza":"","lat":36.164915,"lng":139.37047,"version":"13.0b/18.0a"},{"town":"上川上","koaza":"","lat":36.165323,"lng":139.406778,"version":"13.0b/18.0a"},{"town":"津田","koaza":"","lat":36.098635,"lng":139.42108,"version":"13.0b/18.0a"},{"town":"上須戸","koaza":"","lat":36.203641,"lng":139.399583,"version":"13.0b/18.0a"},{"town":"三本","koaza":"","lat":36.128519,"lng":139.331157,"version":"13.0b/18.0a"},{"town":"新堀","koaza":"","lat":36.175068,"lng":139.335291,"version":"13.0b/18.0a"},{"town":"間々田","koaza":"","lat":36.23525,"lng":139.339498,"version":"13.0b/18.0a"},{"town":"小泉","koaza":"","lat":36.117484,"lng":139.399238,"version":"13.0b/18.0a"},{"town":"拾六間","koaza":"","lat":36.168404,"lng":139.322047,"version":"13.0b/18.0a"},{"town":"西城","koaza":"","lat":36.199647,"lng":139.389519,"version":"13.0b/18.0a"},{"town":"塩","koaza":"","lat":36.098397,"lng":139.319635,"version":"13.0b/18.0a"},{"town":"上奈良","koaza":"","lat":36.186846,"lng":139.358235,"version":"13.0b/18.0a"},{"town":"日向","koaza":"","lat":36.19382,"lng":139.415571,"version":"13.0b/18.0a"},{"town":"樋春","koaza":"","lat":36.134071,"lng":139.351499,"version":"13.0b/18.0a"},{"town":"成沢","koaza":"","lat":36.121008,"lng":139.347062,"version":"13.0b/18.0a"},{"town":"楊井","koaza":"","lat":36.104255,"lng":139.379649,"version":"13.0b/18.0a"},{"town":"小八林","koaza":"","lat":36.078434,"lng":139.434085,"version":"13.0b/18.0a"},{"town":"飯塚","koaza":"","lat":36.215954,"lng":139.348092,"version":"13.0b/18.0a"},{"town":"野原","koaza":"","lat":36.104901,"lng":139.36078,"version":"13.0b/18.0a"},{"town":"下川上","koaza":"","lat":36.163136,"lng":139.426585,"version":"13.0b/18.0a"},{"town":"板井","koaza":"","lat":36.109914,"lng":139.314082,"version":"13.0b/18.0a"},{"town":"村岡","koaza":"","lat":36.123195,"lng":139.378318,"version":"13.0b/18.0a"},{"town":"石原","koaza":"","lat":36.153383,"lng":139.367152,"version":"13.0b/18.0a"},{"town":"今井","koaza":"","lat":36.176753,"lng":139.399405,"version":"13.0b/18.0a"},{"town":"永井太田","koaza":"","lat":36.22355,"lng":139.340861,"version":"13.0b/18.0a"},{"town":"西別府","koaza":"","lat":36.194965,"lng":139.337958,"version":"13.0b/18.0a"},{"town":"善ケ島","koaza":"","lat":36.217229,"lng":139.400959,"version":"13.0b/18.0a"},{"town":"久保島","koaza":"","lat":36.164536,"lng":139.346722,"version":"13.0b/18.0a"},{"town":"東別府","koaza":"","lat":36.192164,"lng":139.351666,"version":"13.0b/18.0a"},{"town":"弥藤吾","koaza":"","lat":36.217146,"lng":139.376594,"version":"13.0b/18.0a"},{"town":"大麻生","koaza":"","lat":36.146581,"lng":139.334881,"version":"13.0b/18.0a"},{"town":"押切","koaza":"","lat":36.134723,"lng":139.333096,"version":"13.0b/18.0a"},{"town":"葛和田","koaza":"","lat":36.20336,"lng":139.417501,"version":"13.0b/18.0a"},{"town":"下奈良","koaza":"","lat":36.189536,"lng":139.38784,"version":"13.0b/18.0a"},{"town":"玉井","koaza":"","lat":36.175305,"lng":139.356147,"version":"13.0b/18.0a"},{"town":"久下","koaza":"","lat":36.121351,"lng":139.414944,"version":"13.0b/18.0a"},{"town":"千代","koaza":"","lat":36.121996,"lng":139.324516,"version":"13.0b/18.0a"},{"town":"中奈良","koaza":"","lat":36.189848,"lng":139.367329,"version":"13.0b/18.0a"},{"town":"小江川","koaza":"","lat":36.100743,"lng":139.334786,"version":"13.0b/18.0a"},{"town":"妻沼小島","koaza":"","lat":36.249131,"lng":139.355499,"version":"13.0b/18.0a"},{"town":"佐谷田","koaza":"","lat":36.129568,"lng":139.413328,"version":"13.0b/18.0a"},{"town":"妻沼","koaza":"","lat":36.231366,"lng":139.378797,"version":"13.0b/18.0a"},{"town":"万吉","koaza":"","lat":36.122932,"lng":139.365725,"version":"13.0b/18.0a"},{"town":"上之","koaza":"","lat":36.150925,"lng":139.412702,"version":"13.0b/18.0a"},{"town":"上中条","koaza":"","lat":36.180665,"lng":139.410658,"version":"13.0b/18.0a"},{"town":"三ケ尻","koaza":"","lat":36.158467,"lng":139.323092,"version":"13.0b/18.0a"},{"town":"見晴町","koaza":"","lat":36.142477,"lng":139.373104,"version":"13.0b/18.0a"},{"town":"榎町","koaza":"","lat":36.139704,"lng":139.378337,"version":"13.0b/18.0a"},{"town":"河原町一丁目","koaza":"","lat":36.138506,"lng":139.381156,"version":"13.0b/18.0a"},{"town":"河原町二丁目","koaza":"","lat":36.137327,"lng":139.383717,"version":"13.0b/18.0a"},{"town":"万平町二丁目","koaza":"","lat":36.134269,"lng":139.391374,"version":"13.0b/18.0a"},{"town":"桜木町二丁目","koaza":"","lat":36.1367,"lng":139.387458,"version":"13.0b/18.0a"},{"town":"万平町一丁目","koaza":"","lat":36.135408,"lng":139.389122,"version":"13.0b/18.0a"},{"town":"熊谷","koaza":"","lat":36.135016,"lng":139.382289,"version":"13.0b/18.0a"},{"town":"拾六間","koaza":"外原","lat":36.173174,"lng":139.310703,"version":"13.0b/18.0a"},{"town":"新堀","koaza":"北原","lat":36.182251,"lng":139.328373,"version":"13.0b/18.0a"},{"town":"佐谷田","koaza":"南砂原","lat":36.126216,"lng":139.419718,"version":"13.0b/18.0a"},{"town":"星川二丁目","koaza":"","lat":36.142298,"lng":139.3872,"version":"14.0b/19.0a"},{"town":"玉井二丁目","koaza":"","lat":36.178846,"lng":139.337384,"version":"14.0b/19.0a"},{"town":"星川一丁目","koaza":"","lat":36.143179,"lng":139.384423,"version":"14.0b/19.0a"},{"town":"弥生一丁目","koaza":"","lat":36.142171,"lng":139.383706,"version":"14.0b/19.0a"},{"town":"弥生二丁目","koaza":"","lat":36.141276,"lng":139.386784,"version":"14.0b/19.0a"},{"town":"中央四丁目","koaza":"","lat":36.157101,"lng":139.389953,"version":"14.0b/19.0a"},{"town":"玉井南一丁目","koaza":"","lat":36.176896,"lng":139.345655,"version":"14.0b/19.0a"},{"town":"桜町一丁目","koaza":"","lat":36.149774,"lng":139.380829,"version":"14.0b/19.0a"},{"town":"箱田三丁目","koaza":"","lat":36.150288,"lng":139.388037,"version":"14.0b/19.0a"},{"town":"美土里町三丁目","koaza":"","lat":36.169612,"lng":139.317707,"version":"14.0b/19.0a"},{"town":"末広一丁目","koaza":"","lat":36.145679,"lng":139.390574,"version":"14.0b/19.0a"},{"town":"曙町三丁目","koaza":"","lat":36.134416,"lng":139.394541,"version":"14.0b/19.0a"},{"town":"仲町","koaza":"","lat":36.146861,"lng":139.382743,"version":"14.0b/19.0a"},{"town":"玉井四丁目","koaza":"","lat":36.178388,"lng":139.340989,"version":"14.0b/19.0a"},{"town":"玉井南二丁目","koaza":"","lat":36.174831,"lng":139.346896,"version":"14.0b/19.0a"},{"town":"鎌倉町","koaza":"","lat":36.144104,"lng":139.38176,"version":"14.0b/19.0a"},{"town":"玉井五丁目","koaza":"","lat":36.177534,"lng":139.338871,"version":"14.0b/19.0a"},{"town":"中西二丁目","koaza":"","lat":36.147816,"lng":139.394217,"version":"14.0b/19.0a"},{"town":"問屋町一丁目","koaza":"","lat":36.133228,"lng":139.425542,"version":"14.0b/19.0a"},{"town":"問屋町四丁目","koaza":"","lat":36.130032,"lng":139.425237,"version":"14.0b/19.0a"},{"town":"曙町二丁目","koaza":"","lat":36.135961,"lng":139.393445,"version":"14.0b/19.0a"},{"town":"曙町五丁目","koaza":"","lat":36.136873,"lng":139.395128,"version":"14.0b/19.0a"},{"town":"玉井南三丁目","koaza":"","lat":36.175082,"lng":139.345128,"version":"14.0b/19.0a"},{"town":"玉井一丁目","koaza":"","lat":36.178761,"lng":139.335329,"version":"14.0b/19.0a"},{"town":"筑波三丁目","koaza":"","lat":36.14043,"lng":139.391265,"version":"14.0b/19.0a"},{"town":"銀座一丁目","koaza":"","lat":36.141869,"lng":139.393526,"version":"14.0b/19.0a"},{"town":"本町二丁目","koaza":"","lat":36.143902,"lng":139.387703,"version":"14.0b/19.0a"},{"town":"曙町一丁目","koaza":"","lat":36.137077,"lng":139.39135,"version":"14.0b/19.0a"},{"town":"箱田","koaza":"","lat":36.147284,"lng":139.402732,"version":"14.0b/19.0a"},{"town":"曙町四丁目","koaza":"","lat":36.134805,"lng":139.396983,"version":"14.0b/19.0a"},{"town":"玉井三丁目","koaza":"","lat":36.179607,"lng":139.339719,"version":"14.0b/19.0a"},{"town":"銀座六丁目","koaza":"","lat":36.140113,"lng":139.401168,"version":"14.0b/19.0a"},{"town":"中西一丁目","koaza":"","lat":36.14887,"lng":139.392135,"version":"14.0b/19.0a"},{"town":"銀座五丁目","koaza":"","lat":36.141484,"lng":139.398292,"version":"14.0b/19.0a"},{"town":"宮町一丁目","koaza":"","lat":36.14697,"lng":139.385238,"version":"14.0b/19.0a"},{"town":"美土里町二丁目","koaza":"","lat":36.167928,"lng":139.314594,"version":"14.0b/19.0a"},{"town":"桜町二丁目","koaza":"","lat":36.150913,"lng":139.382,"version":"14.0b/19.0a"},{"town":"妻沼東三丁目","koaza":"","lat":36.22122,"lng":139.386506,"version":"14.0b/19.0a"},{"town":"銀座三丁目","koaza":"","lat":36.141285,"lng":139.395605,"version":"14.0b/19.0a"},{"town":"箱田四丁目","koaza":"","lat":36.150184,"lng":139.389745,"version":"14.0b/19.0a"},{"town":"問屋町二丁目","koaza":"","lat":36.13218,"lng":139.425432,"version":"14.0b/19.0a"},{"town":"別府一丁目","koaza":"","lat":36.181616,"lng":139.333394,"version":"14.0b/19.0a"},{"town":"銀座四丁目","koaza":"","lat":36.139695,"lng":139.39879,"version":"14.0b/19.0a"},{"town":"筑波二丁目","koaza":"","lat":36.140469,"lng":139.388935,"version":"14.0b/19.0a"},{"town":"美土里町一丁目","koaza":"","lat":36.170299,"lng":139.316062,"version":"14.0b/19.0a"},{"town":"江南中央一丁目","koaza":"","lat":36.11486,"lng":139.334185,"version":"14.0b/19.0a"},{"town":"妻沼東一丁目","koaza":"","lat":36.222126,"lng":139.382893,"version":"14.0b/19.0a"},{"town":"久下二丁目","koaza":"","lat":36.114826,"lng":139.428873,"version":"14.0b/19.0a"},{"town":"宮前町一丁目","koaza":"","lat":36.140995,"lng":139.382509,"version":"14.0b/19.0a"},{"town":"箱田二丁目","koaza":"","lat":36.150188,"lng":139.38635,"version":"14.0b/19.0a"},{"town":"箱田五丁目","koaza":"","lat":36.150574,"lng":139.392184,"version":"14.0b/19.0a"},{"town":"筑波一丁目","koaza":"","lat":36.143077,"lng":139.390899,"version":"14.0b/19.0a"},{"town":"江南中央三丁目","koaza":"","lat":36.114816,"lng":139.341579,"version":"14.0b/19.0a"},{"town":"問屋町三丁目","koaza":"","lat":36.13107,"lng":139.425445,"version":"14.0b/19.0a"},{"town":"妻沼東二丁目","koaza":"","lat":36.219997,"lng":139.382508,"version":"14.0b/19.0a"},{"town":"桜木町一丁目","koaza":"","lat":36.138445,"lng":139.388866,"version":"14.0b/19.0a"},{"town":"箱田七丁目","koaza":"","lat":36.154189,"lng":139.388821,"version":"14.0b/19.0a"},{"town":"船木台二丁目","koaza":"","lat":36.075794,"lng":139.417279,"version":"14.0b/19.0a"},{"town":"赤城町三丁目","koaza":"","lat":36.147166,"lng":139.366843,"version":"14.0b/19.0a"},{"town":"妻沼東四丁目","koaza":"","lat":36.218985,"lng":139.385715,"version":"14.0b/19.0a"},{"town":"宮前町二丁目","koaza":"","lat":36.139902,"lng":139.385696,"version":"14.0b/19.0a"},{"town":"中央五丁目","koaza":"","lat":36.158412,"lng":139.393717,"version":"14.0b/19.0a"},{"town":"肥塚三丁目","koaza":"","lat":36.160247,"lng":139.386791,"version":"14.0b/19.0a"},{"town":"肥塚二丁目","koaza":"","lat":36.157878,"lng":139.386532,"version":"14.0b/19.0a"},{"town":"本町一丁目","koaza":"","lat":36.144767,"lng":139.384461,"version":"14.0b/19.0a"},{"town":"石原一丁目","koaza":"","lat":36.151831,"lng":139.374419,"version":"14.0b/19.0a"},{"town":"瀬南","koaza":"","lat":36.145966,"lng":139.354092,"version":"14.0b/19.0a"},{"town":"箱田一丁目","koaza":"","lat":36.150076,"lng":139.384036,"version":"14.0b/19.0a"},{"town":"石原二丁目","koaza":"","lat":36.148534,"lng":139.375049,"version":"14.0b/19.0a"},{"town":"宮本町","koaza":"","lat":36.141437,"lng":139.379635,"version":"14.0b/19.0a"},{"town":"肥塚一丁目","koaza":"","lat":36.15867,"lng":139.390099,"version":"14.0b/19.0a"},{"town":"中西三丁目","koaza":"","lat":36.150259,"lng":139.395803,"version":"14.0b/19.0a"},{"town":"銀座七丁目","koaza":"","lat":36.13693,"lng":139.399133,"version":"14.0b/19.0a"},{"town":"妻沼中央","koaza":"","lat":36.224474,"lng":139.371325,"version":"14.0b/19.0a"},{"town":"肥塚四丁目","koaza":"","lat":36.162243,"lng":139.389362,"version":"14.0b/19.0a"},{"town":"妻沼東五丁目","koaza":"","lat":36.219555,"lng":139.389297,"version":"14.0b/19.0a"},{"town":"久下四丁目","koaza":"","lat":36.119315,"lng":139.432167,"version":"14.0b/19.0a"},{"town":"本石一丁目","koaza":"","lat":36.147661,"lng":139.379989,"version":"14.0b/19.0a"},{"town":"銀座二丁目","koaza":"","lat":36.138906,"lng":139.395088,"version":"14.0b/19.0a"},{"town":"別府三丁目","koaza":"","lat":36.184519,"lng":139.336698,"version":"14.0b/19.0a"},{"town":"久下三丁目","koaza":"","lat":36.11726,"lng":139.431071,"version":"14.0b/19.0a"},{"town":"別府二丁目","koaza":"","lat":36.185716,"lng":139.33348,"version":"14.0b/19.0a"},{"town":"久下一丁目","koaza":"","lat":36.115833,"lng":139.425922,"version":"14.0b/19.0a"},{"town":"船木台五丁目","koaza":"","lat":36.079185,"lng":139.414847,"version":"14.0b/19.0a"},{"town":"大原二丁目","koaza":"","lat":36.159863,"lng":139.378827,"version":"14.0b/19.0a"},{"town":"末広二丁目","koaza":"","lat":36.14489,"lng":139.39339,"version":"14.0b/19.0a"},{"town":"中央三丁目","koaza":"","lat":36.156749,"lng":139.395156,"version":"14.0b/19.0a"},{"town":"中央一丁目","koaza":"","lat":36.15523,"lng":139.391346,"version":"14.0b/19.0a"},{"town":"円光二丁目","koaza":"","lat":36.15962,"lng":139.382997,"version":"14.0b/19.0a"},{"town":"船木台一丁目","koaza":"","lat":36.074566,"lng":139.420588,"version":"14.0b/19.0a"},{"town":"伊勢町","koaza":"","lat":36.143965,"lng":139.374858,"version":"14.0b/19.0a"},{"town":"中央二丁目","koaza":"","lat":36.153949,"lng":139.39424,"version":"14.0b/19.0a"},{"town":"箱田六丁目","koaza":"","lat":36.154464,"lng":139.386234,"version":"14.0b/19.0a"},{"town":"中西四丁目","koaza":"","lat":36.148245,"lng":139.398023,"version":"14.0b/19.0a"},{"town":"船木台三丁目","koaza":"","lat":36.077987,"lng":139.417946,"version":"14.0b/19.0a"},{"town":"宮町二丁目","koaza":"","lat":36.146737,"lng":139.388729,"version":"14.0b/19.0a"},{"town":"本石二丁目","koaza":"","lat":36.145481,"lng":139.378493,"version":"14.0b/19.0a"},{"town":"末広三丁目","koaza":"","lat":36.144631,"lng":139.397304,"version":"14.0b/19.0a"},{"town":"月見町一丁目","koaza":"","lat":36.145002,"lng":139.368985,"version":"14.0b/19.0a"},{"town":"別府五丁目","koaza":"","lat":36.181241,"lng":139.337337,"version":"14.0b/19.0a"},{"town":"石原三丁目","koaza":"","lat":36.150258,"lng":139.37743,"version":"14.0b/19.0a"},{"town":"江南中央二丁目","koaza":"","lat":36.114911,"lng":139.337695,"version":"14.0b/19.0a"},{"town":"円光一丁目","koaza":"","lat":36.155336,"lng":139.383398,"version":"14.0b/19.0a"},{"town":"高柳","koaza":"","lat":36.173147,"lng":139.343391,"version":"14.0b/19.0a"},{"town":"大原四丁目","koaza":"","lat":36.156238,"lng":139.373755,"version":"14.0b/19.0a"},{"town":"別府四丁目","koaza":"","lat":36.183224,"lng":139.340565,"version":"14.0b/19.0a"},{"town":"大原三丁目","koaza":"","lat":36.155761,"lng":139.376671,"version":"14.0b/19.0a"},{"town":"妻沼西二丁目","koaza":"","lat":36.224765,"lng":139.351988,"version":"14.0b/19.0a"},{"town":"吉所敷","koaza":"","lat":36.104072,"lng":139.39743,"version":"14.0b/19.0a"},{"town":"籠原南二丁目","koaza":"","lat":36.168703,"lng":139.328628,"version":"14.0b/19.0a"},{"town":"籠原南三丁目","koaza":"","lat":36.170865,"lng":139.324112,"version":"14.0b/19.0a"},{"town":"籠原南一丁目","koaza":"","lat":36.172562,"lng":139.330149,"version":"14.0b/19.0a"},{"town":"大原一丁目","koaza":"","lat":36.155733,"lng":139.379916,"version":"14.0b/19.0a"},{"town":"月見町二丁目","koaza":"","lat":36.143972,"lng":139.370333,"version":"14.0b/19.0a"},{"town":"船木台四丁目","koaza":"","lat":36.078284,"lng":139.422221,"version":"14.0b/19.0a"},{"town":"武体","koaza":"","lat":36.148728,"lng":139.325853,"version":"14.0b/19.0a"},{"town":"末広四丁目","koaza":"","lat":36.144161,"lng":139.401987,"version":"14.0b/19.0a"},{"town":"向谷","koaza":"","lat":36.096423,"lng":139.414799,"version":"14.0b/19.0a"},{"town":"新堀新田","koaza":"","lat":36.16691,"lng":139.334075,"version":"14.0b/19.0a"},{"town":"赤城町二丁目","koaza":"","lat":36.146081,"lng":139.366361,"version":"14.0b/19.0a"},{"town":"原井","koaza":"","lat":36.204349,"lng":139.350781,"version":"14.0b/19.0a"},{"town":"妻沼西一丁目","koaza":"","lat":36.22704,"lng":139.356182,"version":"14.0b/19.0a"},{"town":"弁財","koaza":"","lat":36.207624,"lng":139.406322,"version":"14.0b/19.0a"},{"town":"柴","koaza":"","lat":36.115216,"lng":139.325224,"version":"14.0b/19.0a"},{"town":"沼黒","koaza":"","lat":36.099404,"lng":139.401493,"version":"14.0b/19.0a"},{"town":"新島","koaza":"","lat":36.163936,"lng":139.358736,"version":"14.0b/19.0a"},{"town":"高本","koaza":"","lat":36.097072,"lng":139.407651,"version":"14.0b/19.0a"},{"town":"奈良新田","koaza":"","lat":36.196158,"lng":139.365518,"version":"14.0b/19.0a"},{"town":"田島","koaza":"","lat":36.201097,"lng":139.377316,"version":"14.0b/19.0a"},{"town":"相上","koaza":"","lat":36.090405,"lng":139.415292,"version":"14.0b/19.0a"},{"town":"市ノ坪","koaza":"","lat":36.213681,"lng":139.34023,"version":"14.0b/19.0a"},{"town":"上恩田","koaza":"","lat":36.117143,"lng":139.382076,"version":"14.0b/19.0a"},{"town":"冑山","koaza":"","lat":36.079371,"lng":139.409542,"version":"14.0b/19.0a"},{"town":"平塚新田","koaza":"","lat":36.115706,"lng":139.373729,"version":"14.0b/19.0a"},{"town":"道ケ谷戸","koaza":"","lat":36.210918,"lng":139.35581,"version":"14.0b/19.0a"},{"town":"江波","koaza":"","lat":36.209716,"lng":139.391914,"version":"14.0b/19.0a"},{"town":"赤城町一丁目","koaza":"","lat":36.147184,"lng":139.361212,"version":"14.0b/19.0a"},{"town":"四方寺","koaza":"","lat":36.189009,"lng":139.396231,"version":"14.0b/19.0a"},{"town":"戸出","koaza":"","lat":36.138408,"lng":139.415793,"version":"14.0b/19.0a"},{"town":"中恩田","koaza":"","lat":36.108235,"lng":139.393527,"version":"14.0b/19.0a"},{"town":"西野","koaza":"","lat":36.204636,"lng":139.372776,"version":"14.0b/19.0a"},{"town":"下恩田","koaza":"","lat":36.107918,"lng":139.387859,"version":"14.0b/19.0a"},{"town":"大塚","koaza":"","lat":36.167822,"lng":139.420269,"version":"14.0b/19.0a"},{"town":"八ツ口","koaza":"","lat":36.21518,"lng":139.391418,"version":"14.0b/19.0a"},{"town":"平戸","koaza":"","lat":36.141552,"lng":139.40921,"version":"14.0b/19.0a"},{"town":"上新田","koaza":"","lat":36.131063,"lng":139.316995,"version":"14.0b/19.0a"},{"town":"川原明戸","koaza":"","lat":36.142228,"lng":139.315395,"version":"14.0b/19.0a"},{"town":"小曽根","koaza":"","lat":36.173626,"lng":139.389887,"version":"14.0b/19.0a"},{"town":"屈戸","koaza":"","lat":36.10567,"lng":139.423951,"version":"14.0b/19.0a"},{"town":"中曽根","koaza":"","lat":36.104881,"lng":139.404236,"version":"14.0b/19.0a"},{"town":"新川","koaza":"","lat":36.109762,"lng":139.424345,"version":"14.0b/19.0a"},{"town":"上根","koaza":"","lat":36.209235,"lng":139.382585,"version":"14.0b/19.0a"},{"town":"肥塚","koaza":"","lat":36.164366,"lng":139.391436,"version":"14.0b/19.0a"},{"town":"出来島","koaza":"","lat":36.239986,"lng":139.352679,"version":"14.0b/19.0a"},{"town":"津田新田","koaza":"","lat":36.108944,"lng":139.410923,"version":"14.0b/19.0a"},{"town":"箕輪","koaza":"","lat":36.084197,"lng":139.419102,"version":"14.0b/19.0a"},{"town":"男沼","koaza":"","lat":36.23225,"lng":139.359251,"version":"14.0b/19.0a"},{"town":"須賀広","koaza":"","lat":36.108005,"lng":139.341276,"version":"14.0b/19.0a"},{"town":"大野","koaza":"","lat":36.215424,"lng":139.410131,"version":"14.0b/19.0a"},{"town":"上江袋","koaza":"","lat":36.204965,"lng":139.361384,"version":"14.0b/19.0a"},{"town":"太井","koaza":"","lat":36.125354,"lng":139.42784,"version":"14.0b/19.0a"},{"town":"広瀬","koaza":"","lat":36.148549,"lng":139.352758,"version":"14.0b/19.0a"},{"town":"八木田","koaza":"","lat":36.216755,"lng":139.362592,"version":"14.0b/19.0a"},{"town":"御稜威ケ原","koaza":"","lat":36.159801,"lng":139.298662,"version":"14.0b/19.0a"},{"town":"玉作","koaza":"","lat":36.089098,"lng":139.425864,"version":"14.0b/19.0a"},{"town":"小島","koaza":"","lat":36.155857,"lng":139.346403,"version":"14.0b/19.0a"},{"town":"下増田","koaza":"","lat":36.206175,"lng":139.34005,"version":"14.0b/19.0a"},{"town":"柿沼","koaza":"","lat":36.168696,"lng":139.380482,"version":"14.0b/19.0a"},{"town":"手島","koaza":"","lat":36.125687,"lng":139.388769,"version":"14.0b/19.0a"},{"town":"御正新田","koaza":"","lat":36.12015,"lng":139.3577,"version":"14.0b/19.0a"},{"town":"池上","koaza":"","lat":36.152527,"lng":139.428474,"version":"14.0b/19.0a"},{"town":"妻沼台","koaza":"","lat":36.234701,"lng":139.36575,"version":"14.0b/19.0a"},{"town":"代","koaza":"","lat":36.172652,"lng":139.371391,"version":"14.0b/19.0a"},{"town":"俵瀬","koaza":"","lat":36.199365,"lng":139.430425,"version":"14.0b/19.0a"},{"town":"原島","koaza":"","lat":36.164915,"lng":139.37047,"version":"14.0b/19.0a"},{"town":"上川上","koaza":"","lat":36.165323,"lng":139.406778,"version":"14.0b/19.0a"},{"town":"津田","koaza":"","lat":36.098635,"lng":139.42108,"version":"14.0b/19.0a"},{"town":"上須戸","koaza":"","lat":36.203641,"lng":139.399583,"version":"14.0b/19.0a"},{"town":"三本","koaza":"","lat":36.128519,"lng":139.331157,"version":"14.0b/19.0a"},{"town":"新堀","koaza":"","lat":36.175068,"lng":139.335291,"version":"14.0b/19.0a"},{"town":"間々田","koaza":"","lat":36.23525,"lng":139.339498,"version":"14.0b/19.0a"},{"town":"小泉","koaza":"","lat":36.117484,"lng":139.399238,"version":"14.0b/19.0a"},{"town":"拾六間","koaza":"","lat":36.168404,"lng":139.322047,"version":"14.0b/19.0a"},{"town":"西城","koaza":"","lat":36.199647,"lng":139.389519,"version":"14.0b/19.0a"},{"town":"塩","koaza":"","lat":36.098397,"lng":139.319635,"version":"14.0b/19.0a"},{"town":"上奈良","koaza":"","lat":36.186846,"lng":139.358235,"version":"14.0b/19.0a"},{"town":"日向","koaza":"","lat":36.19382,"lng":139.415571,"version":"14.0b/19.0a"},{"town":"樋春","koaza":"","lat":36.134071,"lng":139.351499,"version":"14.0b/19.0a"},{"town":"成沢","koaza":"","lat":36.121008,"lng":139.347062,"version":"14.0b/19.0a"},{"town":"楊井","koaza":"","lat":36.104255,"lng":139.379649,"version":"14.0b/19.0a"},{"town":"小八林","koaza":"","lat":36.078434,"lng":139.434085,"version":"14.0b/19.0a"},{"town":"飯塚","koaza":"","lat":36.215954,"lng":139.348092,"version":"14.0b/19.0a"},{"town":"野原","koaza":"","lat":36.104901,"lng":139.36078,"version":"14.0b/19.0a"},{"town":"下川上","koaza":"","lat":36.163136,"lng":139.426585,"version":"14.0b/19.0a"},{"town":"板井","koaza":"","lat":36.109914,"lng":139.314082,"version":"14.0b/19.0a"},{"town":"村岡","koaza":"","lat":36.123195,"lng":139.378318,"version":"14.0b/19.0a"},{"town":"石原","koaza":"","lat":36.153383,"lng":139.367152,"version":"14.0b/19.0a"},{"town":"今井","koaza":"","lat":36.176753,"lng":139.399405,"version":"14.0b/19.0a"},{"town":"永井太田","koaza":"","lat":36.22355,"lng":139.340861,"version":"14.0b/19.0a"},{"town":"西別府","koaza":"","lat":36.194965,"lng":139.337958,"version":"14.0b/19.0a"},{"town":"善ケ島","koaza":"","lat":36.217229,"lng":139.400959,"version":"14.0b/19.0a"},{"town":"久保島","koaza":"","lat":36.164536,"lng":139.346722,"version":"14.0b/19.0a"},{"town":"東別府","koaza":"","lat":36.192164,"lng":139.351666,"version":"14.0b/19.0a"},{"town":"弥藤吾","koaza":"","lat":36.217146,"lng":139.376594,"version":"14.0b/19.0a"},{"town":"大麻生","koaza":"","lat":36.146581,"lng":139.334881,"version":"14.0b/19.0a"},{"town":"押切","koaza":"","lat":36.134723,"lng":139.333096,"version":"14.0b/19.0a"},{"town":"葛和田","koaza":"","lat":36.20336,"lng":139.417501,"version":"14.0b/19.0a"},{"town":"下奈良","koaza":"","lat":36.189536,"lng":139.38784,"version":"14.0b/19.0a"},{"town":"玉井","koaza":"","lat":36.175305,"lng":139.356147,"version":"14.0b/19.0a"},{"town":"久下","koaza":"","lat":36.121351,"lng":139.414944,"version":"14.0b/19.0a"},{"town":"千代","koaza":"","lat":36.121996,"lng":139.324516,"version":"14.0b/19.0a"},{"town":"中奈良","koaza":"","lat":36.189848,"lng":139.367329,"version":"14.0b/19.0a"},{"town":"小江川","koaza":"","lat":36.100743,"lng":139.334786,"version":"14.0b/19.0a"},{"town":"妻沼小島","koaza":"","lat":36.249131,"lng":139.355499,"version":"14.0b/19.0a"},{"town":"佐谷田","koaza":"","lat":36.129568,"lng":139.413328,"version":"14.0b/19.0a"},{"town":"妻沼","koaza":"","lat":36.231366,"lng":139.378797,"version":"14.0b/19.0a"},{"town":"万吉","koaza":"","lat":36.122932,"lng":139.365725,"version":"14.0b/19.0a"},{"town":"上之","koaza":"","lat":36.150925,"lng":139.412702,"version":"14.0b/19.0a"},{"town":"上中条","koaza":"","lat":36.180665,"lng":139.410658,"version":"14.0b/19.0a"},{"town":"三ケ尻","koaza":"","lat":36.158467,"lng":139.323092,"version":"14.0b/19.0a"},{"town":"見晴町","koaza":"","lat":36.142477,"lng":139.373104,"version":"14.0b/19.0a"},{"town":"榎町","koaza":"","lat":36.139704,"lng":139.378337,"version":"14.0b/19.0a"},{"town":"河原町一丁目","koaza":"","lat":36.138506,"lng":139.381156,"version":"14.0b/19.0a"},{"town":"河原町二丁目","koaza":"","lat":36.137327,"lng":139.383717,"version":"14.0b/19.0a"},{"town":"万平町二丁目","koaza":"","lat":36.134269,"lng":139.391374,"version":"14.0b/19.0a"},{"town":"桜木町二丁目","koaza":"","lat":36.1367,"lng":139.387458,"version":"14.0b/19.0a"},{"town":"万平町一丁目","koaza":"","lat":36.135408,"lng":139.389122,"version":"14.0b/19.0a"},{"town":"熊谷","koaza":"","lat":36.135016,"lng":139.382289,"version":"14.0b/19.0a"},{"town":"拾六間","koaza":"外原","lat":36.173174,"lng":139.310703,"version":"14.0b/19.0a"},{"town":"新堀","koaza":"北原","lat":36.182251,"lng":139.328373,"version":"14.0b/19.0a"},{"town":"佐谷田","koaza":"南砂原","lat":36.126216,"lng":139.419718,"version":"14.0b/19.0a"}]