[{"town":"池船町","koaza":"","lat":32.95134,"lng":131.894765,"version":"13.0b/18.0a"},{"town":"臼坪","koaza":"","lat":32.965152,"lng":131.895029,"version":"13.0b/18.0a"},{"town":"内町","koaza":"","lat":32.957448,"lng":131.895361,"version":"13.0b/18.0a"},{"town":"宇目大字大平","koaza":"","lat":32.824474,"lng":131.711628,"version":"13.0b/18.0a"},{"town":"宇目大字小野市","koaza":"","lat":32.870735,"lng":131.627891,"version":"13.0b/18.0a"},{"town":"宇目大字河内","koaza":"","lat":32.875489,"lng":131.68956,"version":"13.0b/18.0a"},{"town":"宇目大字木浦内","koaza":"","lat":32.813818,"lng":131.543751,"version":"13.0b/18.0a"},{"town":"宇目大字木浦鉱山","koaza":"","lat":32.824368,"lng":131.546824,"version":"13.0b/18.0a"},{"town":"宇目大字塩見園","koaza":"","lat":32.858803,"lng":131.698239,"version":"13.0b/18.0a"},{"town":"宇目大字重岡","koaza":"","lat":32.809992,"lng":131.661598,"version":"13.0b/18.0a"},{"town":"宇目大字千束","koaza":"","lat":32.863583,"lng":131.673847,"version":"13.0b/18.0a"},{"town":"宇目大字南田原","koaza":"","lat":32.827234,"lng":131.610422,"version":"13.0b/18.0a"},{"town":"駅前一丁目","koaza":"","lat":32.97069,"lng":131.903977,"version":"13.0b/18.0a"},{"town":"駅前二丁目","koaza":"","lat":32.971876,"lng":131.904899,"version":"13.0b/18.0a"},{"town":"大字青山","koaza":"","lat":32.860501,"lng":131.876159,"version":"13.0b/18.0a"},{"town":"大字荒網代浦","koaza":"","lat":32.99269,"lng":131.93306,"version":"13.0b/18.0a"},{"town":"大字池田","koaza":"","lat":32.946339,"lng":131.894591,"version":"13.0b/18.0a"},{"town":"大字石間浦","koaza":"","lat":32.985445,"lng":131.921077,"version":"13.0b/18.0a"},{"town":"大字稲垣","koaza":"","lat":32.950885,"lng":131.869874,"version":"13.0b/18.0a"},{"town":"大字海崎","koaza":"","lat":32.998077,"lng":131.882313,"version":"13.0b/18.0a"},{"town":"大字霞ケ浦","koaza":"","lat":33.001288,"lng":131.896399,"version":"13.0b/18.0a"},{"town":"大字片神浦","koaza":"","lat":33.001757,"lng":131.928015,"version":"13.0b/18.0a"},{"town":"大字堅田","koaza":"","lat":32.90841,"lng":131.888314,"version":"13.0b/18.0a"},{"town":"大字上岡","koaza":"","lat":32.960909,"lng":131.855915,"version":"13.0b/18.0a"},{"town":"大字狩生","koaza":"","lat":33.016023,"lng":131.900036,"version":"13.0b/18.0a"},{"town":"大字木立","koaza":"","lat":32.911631,"lng":131.932931,"version":"13.0b/18.0a"},{"town":"大字久保浦","koaza":"","lat":32.99412,"lng":131.920688,"version":"13.0b/18.0a"},{"town":"大字塩内浦","koaza":"","lat":32.996724,"lng":131.935494,"version":"13.0b/18.0a"},{"town":"大字高松浦","koaza":"","lat":33.011728,"lng":131.929616,"version":"13.0b/18.0a"},{"town":"大字鶴望","koaza":"","lat":32.973101,"lng":131.886993,"version":"13.0b/18.0a"},{"town":"大字長良","koaza":"","lat":32.929494,"lng":131.891943,"version":"13.0b/18.0a"},{"town":"大字長谷","koaza":"","lat":32.900304,"lng":131.84734,"version":"13.0b/18.0a"},{"town":"大字戸穴","koaza":"","lat":33.011976,"lng":131.884571,"version":"13.0b/18.0a"},{"town":"大字日向泊浦","koaza":"","lat":33.010843,"lng":131.934327,"version":"13.0b/18.0a"},{"town":"大字二栄","koaza":"","lat":33.025173,"lng":131.912894,"version":"13.0b/18.0a"},{"town":"大字護江","koaza":"","lat":33.0059,"lng":131.903232,"version":"13.0b/18.0a"},{"town":"大字守後浦","koaza":"","lat":32.988539,"lng":131.915891,"version":"13.0b/18.0a"},{"town":"大手町一丁目","koaza":"","lat":32.957225,"lng":131.892634,"version":"13.0b/18.0a"},{"town":"大手町二丁目","koaza":"","lat":32.956213,"lng":131.894546,"version":"13.0b/18.0a"},{"town":"大手町三丁目","koaza":"","lat":32.955894,"lng":131.892349,"version":"13.0b/18.0a"},{"town":"春日町","koaza":"","lat":32.975492,"lng":131.902582,"version":"13.0b/18.0a"},{"town":"葛港","koaza":"","lat":32.978416,"lng":131.90207,"version":"13.0b/18.0a"},{"town":"蒲江大字猪串浦","koaza":"","lat":32.802283,"lng":131.905007,"version":"13.0b/18.0a"},{"town":"蒲江大字葛原浦","koaza":"","lat":32.768454,"lng":131.86398,"version":"13.0b/18.0a"},{"town":"蒲江大字蒲江浦","koaza":"","lat":32.80794,"lng":131.928506,"version":"13.0b/18.0a"},{"town":"蒲江大字楠本浦","koaza":"","lat":32.835605,"lng":131.931514,"version":"13.0b/18.0a"},{"town":"蒲江大字竹野浦河内","koaza":"","lat":32.815379,"lng":131.966878,"version":"13.0b/18.0a"},{"town":"蒲江大字西野浦","koaza":"","lat":32.828678,"lng":131.997294,"version":"13.0b/18.0a"},{"town":"蒲江大字野々河内浦","koaza":"","lat":32.818721,"lng":131.894852,"version":"13.0b/18.0a"},{"town":"蒲江大字畑野浦","koaza":"","lat":32.866507,"lng":131.948696,"version":"13.0b/18.0a"},{"town":"蒲江大字波当津浦","koaza":"","lat":32.750012,"lng":131.859345,"version":"13.0b/18.0a"},{"town":"蒲江大字丸市尾浦","koaza":"","lat":32.792015,"lng":131.866218,"version":"13.0b/18.0a"},{"town":"蒲江大字森崎浦","koaza":"","lat":32.797719,"lng":131.884039,"version":"13.0b/18.0a"},{"town":"上浦大字浅海井浦","koaza":"","lat":33.042542,"lng":131.906058,"version":"13.0b/18.0a"},{"town":"上浦大字津井浦","koaza":"","lat":33.054804,"lng":131.929383,"version":"13.0b/18.0a"},{"town":"上浦大字最勝海浦","koaza":"","lat":33.058297,"lng":131.999078,"version":"13.0b/18.0a"},{"town":"蟹田","koaza":"","lat":32.967437,"lng":131.902958,"version":"13.0b/18.0a"},{"town":"来島町","koaza":"","lat":32.959849,"lng":131.90287,"version":"13.0b/18.0a"},{"town":"城下西町","koaza":"","lat":32.95876,"lng":131.893729,"version":"13.0b/18.0a"},{"town":"城下東町","koaza":"","lat":32.960834,"lng":131.894478,"version":"13.0b/18.0a"},{"town":"城東町","koaza":"","lat":32.958247,"lng":131.896885,"version":"13.0b/18.0a"},{"town":"城南町","koaza":"","lat":32.952693,"lng":131.888007,"version":"13.0b/18.0a"},{"town":"船頭町","koaza":"","lat":32.95436,"lng":131.893181,"version":"13.0b/18.0a"},{"town":"田の浦町","koaza":"","lat":32.975977,"lng":131.900133,"version":"13.0b/18.0a"},{"town":"鶴岡西町一丁目","koaza":"","lat":32.961889,"lng":131.867962,"version":"13.0b/18.0a"},{"town":"鶴岡西町二丁目","koaza":"","lat":32.959627,"lng":131.865073,"version":"13.0b/18.0a"},{"town":"鶴岡町一丁目","koaza":"","lat":32.959445,"lng":131.882176,"version":"13.0b/18.0a"},{"town":"鶴岡町二丁目","koaza":"","lat":32.956798,"lng":131.881134,"version":"13.0b/18.0a"},{"town":"鶴岡町三丁目","koaza":"","lat":32.959926,"lng":131.876915,"version":"13.0b/18.0a"},{"town":"鶴見大字有明浦","koaza":"","lat":32.937532,"lng":131.981773,"version":"13.0b/18.0a"},{"town":"鶴見大字大島","koaza":"","lat":32.965413,"lng":132.073707,"version":"13.0b/18.0a"},{"town":"鶴見大字沖松浦","koaza":"","lat":32.945539,"lng":131.96505,"version":"13.0b/18.0a"},{"town":"鶴見大字梶寄浦","koaza":"","lat":32.94287,"lng":132.070863,"version":"13.0b/18.0a"},{"town":"鶴見大字地松浦","koaza":"","lat":32.945419,"lng":131.956196,"version":"13.0b/18.0a"},{"town":"鶴見大字丹賀浦","koaza":"","lat":32.948021,"lng":132.05166,"version":"13.0b/18.0a"},{"town":"鶴見大字中越浦","koaza":"","lat":32.941001,"lng":132.036723,"version":"13.0b/18.0a"},{"town":"鶴見大字羽出浦","koaza":"","lat":32.944941,"lng":131.99765,"version":"13.0b/18.0a"},{"town":"鶴見大字吹浦","koaza":"","lat":32.948299,"lng":131.941046,"version":"13.0b/18.0a"},{"town":"鶴谷町一丁目","koaza":"","lat":32.974226,"lng":131.906974,"version":"13.0b/18.0a"},{"town":"鶴谷町三丁目","koaza":"","lat":32.968849,"lng":131.913177,"version":"13.0b/18.0a"},{"town":"常盤西町","koaza":"","lat":32.964734,"lng":131.899212,"version":"13.0b/18.0a"},{"town":"常盤東町","koaza":"","lat":32.965378,"lng":131.902411,"version":"13.0b/18.0a"},{"town":"常盤南町","koaza":"","lat":32.963107,"lng":131.901592,"version":"13.0b/18.0a"},{"town":"直川大字赤木","koaza":"","lat":32.865386,"lng":131.790906,"version":"13.0b/18.0a"},{"town":"直川大字上直見","koaza":"","lat":32.895978,"lng":131.800226,"version":"13.0b/18.0a"},{"town":"直川大字下直見","koaza":"","lat":32.922467,"lng":131.800391,"version":"13.0b/18.0a"},{"town":"直川大字仁田原","koaza":"","lat":32.865119,"lng":131.754526,"version":"13.0b/18.0a"},{"town":"直川大字横川","koaza":"","lat":32.887485,"lng":131.736715,"version":"13.0b/18.0a"},{"town":"中江町","koaza":"","lat":32.96512,"lng":131.912295,"version":"13.0b/18.0a"},{"town":"長島町一丁目","koaza":"","lat":32.961855,"lng":131.905475,"version":"13.0b/18.0a"},{"town":"長島町二丁目","koaza":"","lat":32.960557,"lng":131.90968,"version":"13.0b/18.0a"},{"town":"長島町三丁目","koaza":"","lat":32.957578,"lng":131.907644,"version":"13.0b/18.0a"},{"town":"長島町四丁目","koaza":"","lat":32.955135,"lng":131.906078,"version":"13.0b/18.0a"},{"town":"中の島一丁目","koaza":"","lat":32.95662,"lng":131.901681,"version":"13.0b/18.0a"},{"town":"中の島二丁目","koaza":"","lat":32.953762,"lng":131.899384,"version":"13.0b/18.0a"},{"town":"中の島三丁目","koaza":"","lat":32.952454,"lng":131.903485,"version":"13.0b/18.0a"},{"town":"中ノ島東町","koaza":"","lat":32.954195,"lng":131.904111,"version":"13.0b/18.0a"},{"town":"中村北町","koaza":"","lat":32.962439,"lng":131.897946,"version":"13.0b/18.0a"},{"town":"中村西町","koaza":"","lat":32.961201,"lng":131.896564,"version":"13.0b/18.0a"},{"town":"中村東町","koaza":"","lat":32.96109,"lng":131.900794,"version":"13.0b/18.0a"},{"town":"中村南町","koaza":"","lat":32.959446,"lng":131.899174,"version":"13.0b/18.0a"},{"town":"西谷町","koaza":"","lat":32.95656,"lng":131.88656,"version":"13.0b/18.0a"},{"town":"西浜","koaza":"","lat":32.963869,"lng":131.92009,"version":"13.0b/18.0a"},{"town":"野岡町一丁目","koaza":"","lat":32.969669,"lng":131.906128,"version":"13.0b/18.0a"},{"town":"野岡町二丁目","koaza":"","lat":32.969045,"lng":131.909185,"version":"13.0b/18.0a"},{"town":"東町","koaza":"","lat":32.965785,"lng":131.907505,"version":"13.0b/18.0a"},{"town":"日の出町","koaza":"","lat":32.97478,"lng":131.90464,"version":"13.0b/18.0a"},{"town":"平野町","koaza":"","lat":32.971911,"lng":131.901388,"version":"13.0b/18.0a"},{"town":"向島一丁目","koaza":"","lat":32.956722,"lng":131.898248,"version":"13.0b/18.0a"},{"town":"向島二丁目","koaza":"","lat":32.954833,"lng":131.896521,"version":"13.0b/18.0a"},{"town":"本匠大字井ノ上","koaza":"","lat":32.948642,"lng":131.736512,"version":"13.0b/18.0a"},{"town":"本匠大字因尾","koaza":"","lat":32.945809,"lng":131.703294,"version":"13.0b/18.0a"},{"town":"本匠大字宇津々","koaza":"","lat":32.964548,"lng":131.773912,"version":"13.0b/18.0a"},{"town":"本匠大字小川","koaza":"","lat":32.920849,"lng":131.75706,"version":"13.0b/18.0a"},{"town":"本匠大字小半","koaza":"","lat":32.953395,"lng":131.755808,"version":"13.0b/18.0a"},{"town":"本匠大字笠掛","koaza":"","lat":32.953515,"lng":131.805486,"version":"13.0b/18.0a"},{"town":"本匠大字風戸","koaza":"","lat":32.97163,"lng":131.804369,"version":"13.0b/18.0a"},{"town":"本匠大字上津川","koaza":"","lat":32.894789,"lng":131.689051,"version":"13.0b/18.0a"},{"town":"本匠大字堂ノ間","koaza":"","lat":32.918602,"lng":131.71042,"version":"13.0b/18.0a"},{"town":"本匠大字波寄","koaza":"","lat":32.945125,"lng":131.779046,"version":"13.0b/18.0a"},{"town":"本匠大字三股","koaza":"","lat":32.941679,"lng":131.80008,"version":"13.0b/18.0a"},{"town":"本匠大字山部","koaza":"","lat":32.927099,"lng":131.664295,"version":"13.0b/18.0a"},{"town":"弥生大字井崎","koaza":"","lat":32.973132,"lng":131.848007,"version":"13.0b/18.0a"},{"town":"弥生大字江良","koaza":"","lat":32.937371,"lng":131.82815,"version":"13.0b/18.0a"},{"town":"弥生大字大坂本","koaza":"","lat":32.991711,"lng":131.846216,"version":"13.0b/18.0a"},{"town":"弥生大字上小倉","koaza":"","lat":32.970751,"lng":131.834042,"version":"13.0b/18.0a"},{"town":"弥生大字門田","koaza":"","lat":32.944749,"lng":131.844369,"version":"13.0b/18.0a"},{"town":"弥生大字小田","koaza":"","lat":32.959838,"lng":131.844831,"version":"13.0b/18.0a"},{"town":"弥生大字細田","koaza":"","lat":32.957676,"lng":131.819459,"version":"13.0b/18.0a"},{"town":"弥生大字尺間","koaza":"","lat":33.009841,"lng":131.811795,"version":"13.0b/18.0a"},{"town":"弥生大字提内","koaza":"","lat":32.916427,"lng":131.83128,"version":"13.0b/18.0a"},{"town":"弥生大字平井","koaza":"","lat":32.960551,"lng":131.834111,"version":"13.0b/18.0a"},{"town":"弥生大字山梨子","koaza":"","lat":32.968345,"lng":131.825667,"version":"13.0b/18.0a"},{"town":"弥生大字床木","koaza":"","lat":33.010505,"lng":131.855648,"version":"13.0b/18.0a"},{"town":"米水津大字色利浦","koaza":"","lat":32.892092,"lng":131.970238,"version":"13.0b/18.0a"},{"town":"米水津大字浦代浦","koaza":"","lat":32.918956,"lng":131.965945,"version":"13.0b/18.0a"},{"town":"米水津大字宮野浦","koaza":"","lat":32.891327,"lng":131.998932,"version":"13.0b/18.0a"},{"town":"若宮町","koaza":"","lat":32.960326,"lng":131.884846,"version":"13.0b/18.0a"},{"town":"東浜","koaza":"","lat":32.96959,"lng":131.920439,"version":"13.0b/18.0a"},{"town":"鶴谷町二丁目","koaza":"","lat":32.973175,"lng":131.910128,"version":"13.0b/18.0a"},{"town":"米水津大字小浦","koaza":"","lat":32.919277,"lng":132.002042,"version":"13.0b/18.0a"},{"town":"米水津大字竹野浦","koaza":"","lat":32.927741,"lng":131.989417,"version":"13.0b/18.0a"},{"town":"（大字なし）","koaza":"王子丸","lat":32.972368,"lng":131.885364,"version":"13.0b/18.0a"},{"town":"（大字なし）","koaza":"","lat":32.958937,"lng":131.912855,"version":"13.0b/18.0a"},{"town":"（大字なし）","koaza":"坂の浦","lat":32.981203,"lng":131.894962,"version":"13.0b/18.0a"},{"town":"（大字なし）","koaza":"新女島","lat":32.951485,"lng":131.906698,"version":"13.0b/18.0a"},{"town":"（大字なし）","koaza":"女島団地","lat":32.956237,"lng":131.910232,"version":"13.0b/18.0a"},{"town":"（大字なし）","koaza":"女島","lat":32.957631,"lng":131.915459,"version":"13.0b/18.0a"},{"town":"池船町","koaza":"","lat":32.95134,"lng":131.894765,"version":"14.0b/19.0a"},{"town":"臼坪","koaza":"","lat":32.965152,"lng":131.895029,"version":"14.0b/19.0a"},{"town":"内町","koaza":"","lat":32.957448,"lng":131.895361,"version":"14.0b/19.0a"},{"town":"宇目大字大平","koaza":"","lat":32.824474,"lng":131.711628,"version":"14.0b/19.0a"},{"town":"宇目大字小野市","koaza":"","lat":32.870735,"lng":131.627891,"version":"14.0b/19.0a"},{"town":"宇目大字河内","koaza":"","lat":32.875489,"lng":131.68956,"version":"14.0b/19.0a"},{"town":"宇目大字木浦内","koaza":"","lat":32.813818,"lng":131.543751,"version":"14.0b/19.0a"},{"town":"宇目大字木浦鉱山","koaza":"","lat":32.824368,"lng":131.546824,"version":"14.0b/19.0a"},{"town":"宇目大字塩見園","koaza":"","lat":32.858803,"lng":131.698239,"version":"14.0b/19.0a"},{"town":"宇目大字重岡","koaza":"","lat":32.809992,"lng":131.661598,"version":"14.0b/19.0a"},{"town":"宇目大字千束","koaza":"","lat":32.863583,"lng":131.673847,"version":"14.0b/19.0a"},{"town":"宇目大字南田原","koaza":"","lat":32.827234,"lng":131.610422,"version":"14.0b/19.0a"},{"town":"駅前一丁目","koaza":"","lat":32.97069,"lng":131.903977,"version":"14.0b/19.0a"},{"town":"駅前二丁目","koaza":"","lat":32.971876,"lng":131.904899,"version":"14.0b/19.0a"},{"town":"大字青山","koaza":"","lat":32.860501,"lng":131.876159,"version":"14.0b/19.0a"},{"town":"大字荒網代浦","koaza":"","lat":32.99269,"lng":131.93306,"version":"14.0b/19.0a"},{"town":"大字池田","koaza":"","lat":32.946339,"lng":131.894591,"version":"14.0b/19.0a"},{"town":"大字石間浦","koaza":"","lat":32.985445,"lng":131.921077,"version":"14.0b/19.0a"},{"town":"大字稲垣","koaza":"","lat":32.950885,"lng":131.869874,"version":"14.0b/19.0a"},{"town":"大字海崎","koaza":"","lat":32.998077,"lng":131.882313,"version":"14.0b/19.0a"},{"town":"大字霞ケ浦","koaza":"","lat":33.001288,"lng":131.896399,"version":"14.0b/19.0a"},{"town":"大字片神浦","koaza":"","lat":33.001757,"lng":131.928015,"version":"14.0b/19.0a"},{"town":"大字堅田","koaza":"","lat":32.90841,"lng":131.888314,"version":"14.0b/19.0a"},{"town":"大字上岡","koaza":"","lat":32.960909,"lng":131.855915,"version":"14.0b/19.0a"},{"town":"大字狩生","koaza":"","lat":33.016023,"lng":131.900036,"version":"14.0b/19.0a"},{"town":"大字木立","koaza":"","lat":32.911631,"lng":131.932931,"version":"14.0b/19.0a"},{"town":"大字久保浦","koaza":"","lat":32.99412,"lng":131.920688,"version":"14.0b/19.0a"},{"town":"大字塩内浦","koaza":"","lat":32.996724,"lng":131.935494,"version":"14.0b/19.0a"},{"town":"大字高松浦","koaza":"","lat":33.011728,"lng":131.929616,"version":"14.0b/19.0a"},{"town":"大字鶴望","koaza":"","lat":32.973101,"lng":131.886993,"version":"14.0b/19.0a"},{"town":"大字長良","koaza":"","lat":32.929494,"lng":131.891943,"version":"14.0b/19.0a"},{"town":"大字長谷","koaza":"","lat":32.900304,"lng":131.84734,"version":"14.0b/19.0a"},{"town":"大字戸穴","koaza":"","lat":33.011976,"lng":131.884571,"version":"14.0b/19.0a"},{"town":"大字日向泊浦","koaza":"","lat":33.010843,"lng":131.934327,"version":"14.0b/19.0a"},{"town":"大字二栄","koaza":"","lat":33.025173,"lng":131.912894,"version":"14.0b/19.0a"},{"town":"大字護江","koaza":"","lat":33.0059,"lng":131.903232,"version":"14.0b/19.0a"},{"town":"大字守後浦","koaza":"","lat":32.988539,"lng":131.915891,"version":"14.0b/19.0a"},{"town":"大手町一丁目","koaza":"","lat":32.957225,"lng":131.892634,"version":"14.0b/19.0a"},{"town":"大手町二丁目","koaza":"","lat":32.956213,"lng":131.894546,"version":"14.0b/19.0a"},{"town":"大手町三丁目","koaza":"","lat":32.955894,"lng":131.892349,"version":"14.0b/19.0a"},{"town":"春日町","koaza":"","lat":32.975492,"lng":131.902582,"version":"14.0b/19.0a"},{"town":"葛港","koaza":"","lat":32.978416,"lng":131.90207,"version":"14.0b/19.0a"},{"town":"蒲江大字猪串浦","koaza":"","lat":32.802283,"lng":131.905007,"version":"14.0b/19.0a"},{"town":"蒲江大字葛原浦","koaza":"","lat":32.768454,"lng":131.86398,"version":"14.0b/19.0a"},{"town":"蒲江大字蒲江浦","koaza":"","lat":32.80794,"lng":131.928506,"version":"14.0b/19.0a"},{"town":"蒲江大字楠本浦","koaza":"","lat":32.835605,"lng":131.931514,"version":"14.0b/19.0a"},{"town":"蒲江大字竹野浦河内","koaza":"","lat":32.815379,"lng":131.966878,"version":"14.0b/19.0a"},{"town":"蒲江大字西野浦","koaza":"","lat":32.828678,"lng":131.997294,"version":"14.0b/19.0a"},{"town":"蒲江大字野々河内浦","koaza":"","lat":32.818721,"lng":131.894852,"version":"14.0b/19.0a"},{"town":"蒲江大字畑野浦","koaza":"","lat":32.866507,"lng":131.948696,"version":"14.0b/19.0a"},{"town":"蒲江大字波当津浦","koaza":"","lat":32.750012,"lng":131.859345,"version":"14.0b/19.0a"},{"town":"蒲江大字丸市尾浦","koaza":"","lat":32.792015,"lng":131.866218,"version":"14.0b/19.0a"},{"town":"蒲江大字森崎浦","koaza":"","lat":32.797719,"lng":131.884039,"version":"14.0b/19.0a"},{"town":"上浦大字浅海井浦","koaza":"","lat":33.042542,"lng":131.906058,"version":"14.0b/19.0a"},{"town":"上浦大字津井浦","koaza":"","lat":33.054804,"lng":131.929383,"version":"14.0b/19.0a"},{"town":"上浦大字最勝海浦","koaza":"","lat":33.058297,"lng":131.999078,"version":"14.0b/19.0a"},{"town":"蟹田","koaza":"","lat":32.967437,"lng":131.902958,"version":"14.0b/19.0a"},{"town":"来島町","koaza":"","lat":32.959849,"lng":131.90287,"version":"14.0b/19.0a"},{"town":"城下西町","koaza":"","lat":32.95876,"lng":131.893729,"version":"14.0b/19.0a"},{"town":"城下東町","koaza":"","lat":32.960834,"lng":131.894478,"version":"14.0b/19.0a"},{"town":"城東町","koaza":"","lat":32.958247,"lng":131.896885,"version":"14.0b/19.0a"},{"town":"城南町","koaza":"","lat":32.952693,"lng":131.888007,"version":"14.0b/19.0a"},{"town":"船頭町","koaza":"","lat":32.95436,"lng":131.893181,"version":"14.0b/19.0a"},{"town":"田の浦町","koaza":"","lat":32.975977,"lng":131.900133,"version":"14.0b/19.0a"},{"town":"鶴岡西町一丁目","koaza":"","lat":32.961889,"lng":131.867962,"version":"14.0b/19.0a"},{"town":"鶴岡西町二丁目","koaza":"","lat":32.959627,"lng":131.865073,"version":"14.0b/19.0a"},{"town":"鶴岡町一丁目","koaza":"","lat":32.959445,"lng":131.882176,"version":"14.0b/19.0a"},{"town":"鶴岡町二丁目","koaza":"","lat":32.956798,"lng":131.881134,"version":"14.0b/19.0a"},{"town":"鶴岡町三丁目","koaza":"","lat":32.959926,"lng":131.876915,"version":"14.0b/19.0a"},{"town":"鶴見大字有明浦","koaza":"","lat":32.937532,"lng":131.981773,"version":"14.0b/19.0a"},{"town":"鶴見大字大島","koaza":"","lat":32.965413,"lng":132.073707,"version":"14.0b/19.0a"},{"town":"鶴見大字沖松浦","koaza":"","lat":32.945539,"lng":131.96505,"version":"14.0b/19.0a"},{"town":"鶴見大字梶寄浦","koaza":"","lat":32.94287,"lng":132.070863,"version":"14.0b/19.0a"},{"town":"鶴見大字地松浦","koaza":"","lat":32.945419,"lng":131.956196,"version":"14.0b/19.0a"},{"town":"鶴見大字丹賀浦","koaza":"","lat":32.948021,"lng":132.05166,"version":"14.0b/19.0a"},{"town":"鶴見大字中越浦","koaza":"","lat":32.941001,"lng":132.036723,"version":"14.0b/19.0a"},{"town":"鶴見大字羽出浦","koaza":"","lat":32.944941,"lng":131.99765,"version":"14.0b/19.0a"},{"town":"鶴見大字吹浦","koaza":"","lat":32.948299,"lng":131.941046,"version":"14.0b/19.0a"},{"town":"鶴谷町一丁目","koaza":"","lat":32.974226,"lng":131.906974,"version":"14.0b/19.0a"},{"town":"鶴谷町三丁目","koaza":"","lat":32.968849,"lng":131.913177,"version":"14.0b/19.0a"},{"town":"常盤西町","koaza":"","lat":32.964734,"lng":131.899212,"version":"14.0b/19.0a"},{"town":"常盤東町","koaza":"","lat":32.965378,"lng":131.902411,"version":"14.0b/19.0a"},{"town":"常盤南町","koaza":"","lat":32.963107,"lng":131.901592,"version":"14.0b/19.0a"},{"town":"直川大字赤木","koaza":"","lat":32.865386,"lng":131.790906,"version":"14.0b/19.0a"},{"town":"直川大字上直見","koaza":"","lat":32.895978,"lng":131.800226,"version":"14.0b/19.0a"},{"town":"直川大字下直見","koaza":"","lat":32.922467,"lng":131.800391,"version":"14.0b/19.0a"},{"town":"直川大字仁田原","koaza":"","lat":32.865119,"lng":131.754526,"version":"14.0b/19.0a"},{"town":"直川大字横川","koaza":"","lat":32.887485,"lng":131.736715,"version":"14.0b/19.0a"},{"town":"中江町","koaza":"","lat":32.96512,"lng":131.912295,"version":"14.0b/19.0a"},{"town":"長島町一丁目","koaza":"","lat":32.961855,"lng":131.905475,"version":"14.0b/19.0a"},{"town":"長島町二丁目","koaza":"","lat":32.960557,"lng":131.90968,"version":"14.0b/19.0a"},{"town":"長島町三丁目","koaza":"","lat":32.957578,"lng":131.907644,"version":"14.0b/19.0a"},{"town":"長島町四丁目","koaza":"","lat":32.955135,"lng":131.906078,"version":"14.0b/19.0a"},{"town":"中の島一丁目","koaza":"","lat":32.95662,"lng":131.901681,"version":"14.0b/19.0a"},{"town":"中の島二丁目","koaza":"","lat":32.953762,"lng":131.899384,"version":"14.0b/19.0a"},{"town":"中の島三丁目","koaza":"","lat":32.952454,"lng":131.903485,"version":"14.0b/19.0a"},{"town":"中ノ島東町","koaza":"","lat":32.954195,"lng":131.904111,"version":"14.0b/19.0a"},{"town":"中村北町","koaza":"","lat":32.962439,"lng":131.897946,"version":"14.0b/19.0a"},{"town":"中村西町","koaza":"","lat":32.961201,"lng":131.896564,"version":"14.0b/19.0a"},{"town":"中村東町","koaza":"","lat":32.96109,"lng":131.900794,"version":"14.0b/19.0a"},{"town":"中村南町","koaza":"","lat":32.959446,"lng":131.899174,"version":"14.0b/19.0a"},{"town":"西谷町","koaza":"","lat":32.95656,"lng":131.88656,"version":"14.0b/19.0a"},{"town":"西浜","koaza":"","lat":32.963869,"lng":131.92009,"version":"14.0b/19.0a"},{"town":"野岡町一丁目","koaza":"","lat":32.969669,"lng":131.906128,"version":"14.0b/19.0a"},{"town":"野岡町二丁目","koaza":"","lat":32.969045,"lng":131.909185,"version":"14.0b/19.0a"},{"town":"東町","koaza":"","lat":32.965785,"lng":131.907505,"version":"14.0b/19.0a"},{"town":"日の出町","koaza":"","lat":32.97478,"lng":131.90464,"version":"14.0b/19.0a"},{"town":"平野町","koaza":"","lat":32.971911,"lng":131.901388,"version":"14.0b/19.0a"},{"town":"向島一丁目","koaza":"","lat":32.956722,"lng":131.898248,"version":"14.0b/19.0a"},{"town":"向島二丁目","koaza":"","lat":32.954833,"lng":131.896521,"version":"14.0b/19.0a"},{"town":"本匠大字井ノ上","koaza":"","lat":32.948642,"lng":131.736512,"version":"14.0b/19.0a"},{"town":"本匠大字因尾","koaza":"","lat":32.945809,"lng":131.703294,"version":"14.0b/19.0a"},{"town":"本匠大字宇津々","koaza":"","lat":32.964548,"lng":131.773912,"version":"14.0b/19.0a"},{"town":"本匠大字小川","koaza":"","lat":32.920849,"lng":131.75706,"version":"14.0b/19.0a"},{"town":"本匠大字小半","koaza":"","lat":32.953395,"lng":131.755808,"version":"14.0b/19.0a"},{"town":"本匠大字笠掛","koaza":"","lat":32.953515,"lng":131.805486,"version":"14.0b/19.0a"},{"town":"本匠大字風戸","koaza":"","lat":32.97163,"lng":131.804369,"version":"14.0b/19.0a"},{"town":"本匠大字上津川","koaza":"","lat":32.894789,"lng":131.689051,"version":"14.0b/19.0a"},{"town":"本匠大字堂ノ間","koaza":"","lat":32.918602,"lng":131.71042,"version":"14.0b/19.0a"},{"town":"本匠大字波寄","koaza":"","lat":32.945125,"lng":131.779046,"version":"14.0b/19.0a"},{"town":"本匠大字三股","koaza":"","lat":32.941679,"lng":131.80008,"version":"14.0b/19.0a"},{"town":"本匠大字山部","koaza":"","lat":32.927099,"lng":131.664295,"version":"14.0b/19.0a"},{"town":"弥生大字井崎","koaza":"","lat":32.973132,"lng":131.848007,"version":"14.0b/19.0a"},{"town":"弥生大字江良","koaza":"","lat":32.937371,"lng":131.82815,"version":"14.0b/19.0a"},{"town":"弥生大字大坂本","koaza":"","lat":32.991711,"lng":131.846216,"version":"14.0b/19.0a"},{"town":"弥生大字上小倉","koaza":"","lat":32.970751,"lng":131.834042,"version":"14.0b/19.0a"},{"town":"弥生大字門田","koaza":"","lat":32.944749,"lng":131.844369,"version":"14.0b/19.0a"},{"town":"弥生大字小田","koaza":"","lat":32.959838,"lng":131.844831,"version":"14.0b/19.0a"},{"town":"弥生大字細田","koaza":"","lat":32.957676,"lng":131.819459,"version":"14.0b/19.0a"},{"town":"弥生大字尺間","koaza":"","lat":33.009841,"lng":131.811795,"version":"14.0b/19.0a"},{"town":"弥生大字提内","koaza":"","lat":32.916427,"lng":131.83128,"version":"14.0b/19.0a"},{"town":"弥生大字平井","koaza":"","lat":32.960551,"lng":131.834111,"version":"14.0b/19.0a"},{"town":"弥生大字山梨子","koaza":"","lat":32.968345,"lng":131.825667,"version":"14.0b/19.0a"},{"town":"弥生大字床木","koaza":"","lat":33.010505,"lng":131.855648,"version":"14.0b/19.0a"},{"town":"米水津大字色利浦","koaza":"","lat":32.892092,"lng":131.970238,"version":"14.0b/19.0a"},{"town":"米水津大字浦代浦","koaza":"","lat":32.918956,"lng":131.965945,"version":"14.0b/19.0a"},{"town":"米水津大字宮野浦","koaza":"","lat":32.891327,"lng":131.998932,"version":"14.0b/19.0a"},{"town":"若宮町","koaza":"","lat":32.960326,"lng":131.884846,"version":"14.0b/19.0a"},{"town":"東浜","koaza":"","lat":32.96959,"lng":131.920439,"version":"14.0b/19.0a"},{"town":"鶴谷町二丁目","koaza":"","lat":32.973175,"lng":131.910128,"version":"14.0b/19.0a"},{"town":"米水津大字小浦","koaza":"","lat":32.919277,"lng":132.002042,"version":"14.0b/19.0a"},{"town":"米水津大字竹野浦","koaza":"","lat":32.927741,"lng":131.989417,"version":"14.0b/19.0a"},{"town":"（大字なし）","koaza":"王子丸","lat":32.972368,"lng":131.885364,"version":"14.0b/19.0a"},{"town":"（大字なし）","koaza":"","lat":32.958937,"lng":131.912855,"version":"14.0b/19.0a"},{"town":"（大字なし）","koaza":"坂の浦","lat":32.981203,"lng":131.894962,"version":"14.0b/19.0a"},{"town":"（大字なし）","koaza":"新女島","lat":32.951485,"lng":131.906698,"version":"14.0b/19.0a"},{"town":"（大字なし）","koaza":"女島団地","lat":32.956237,"lng":131.910232,"version":"14.0b/19.0a"},{"town":"（大字なし）","koaza":"女島","lat":32.957631,"lng":131.915459,"version":"14.0b/19.0a"}]