[{"town":"安岐町朝来","koaza":"","lat":33.502662,"lng":131.62368,"version":"13.0b/18.0a"},{"town":"安岐町糸永","koaza":"","lat":33.503728,"lng":131.636579,"version":"13.0b/18.0a"},{"town":"安岐町大添","koaza":"","lat":33.44424,"lng":131.668828,"version":"13.0b/18.0a"},{"town":"安岐町掛樋","koaza":"","lat":33.479302,"lng":131.659489,"version":"13.0b/18.0a"},{"town":"安岐町向陽台","koaza":"","lat":33.476045,"lng":131.713682,"version":"13.0b/18.0a"},{"town":"安岐町塩屋","koaza":"","lat":33.454684,"lng":131.715032,"version":"13.0b/18.0a"},{"town":"安岐町下原","koaza":"","lat":33.469816,"lng":131.723576,"version":"13.0b/18.0a"},{"town":"安岐町下山口","koaza":"","lat":33.455893,"lng":131.684543,"version":"13.0b/18.0a"},{"town":"安岐町瀬戸田","koaza":"","lat":33.473662,"lng":131.681591,"version":"13.0b/18.0a"},{"town":"安岐町富清","koaza":"","lat":33.524144,"lng":131.627402,"version":"13.0b/18.0a"},{"town":"安岐町中園","koaza":"","lat":33.463445,"lng":131.701974,"version":"13.0b/18.0a"},{"town":"安岐町成久","koaza":"","lat":33.467934,"lng":131.678336,"version":"13.0b/18.0a"},{"town":"安岐町西本","koaza":"","lat":33.455266,"lng":131.699255,"version":"13.0b/18.0a"},{"town":"安岐町馬場","koaza":"","lat":33.468146,"lng":131.708839,"version":"13.0b/18.0a"},{"town":"安岐町両子","koaza":"","lat":33.558285,"lng":131.612334,"version":"13.0b/18.0a"},{"town":"安岐町明治","koaza":"","lat":33.535982,"lng":131.600382,"version":"13.0b/18.0a"},{"town":"安岐町矢川","koaza":"","lat":33.486697,"lng":131.614459,"version":"13.0b/18.0a"},{"town":"安岐町山浦","koaza":"","lat":33.475703,"lng":131.637324,"version":"13.0b/18.0a"},{"town":"安岐町山口","koaza":"","lat":33.458903,"lng":131.656246,"version":"13.0b/18.0a"},{"town":"安岐町油留木","koaza":"","lat":33.495812,"lng":131.656098,"version":"13.0b/18.0a"},{"town":"安岐町吉松","koaza":"","lat":33.487889,"lng":131.688768,"version":"13.0b/18.0a"},{"town":"国東町赤松","koaza":"","lat":33.556689,"lng":131.666056,"version":"13.0b/18.0a"},{"town":"国東町安国寺","koaza":"","lat":33.560703,"lng":131.724278,"version":"13.0b/18.0a"},{"town":"国東町岩戸寺","koaza":"","lat":33.615537,"lng":131.616049,"version":"13.0b/18.0a"},{"town":"国東町岩屋","koaza":"","lat":33.567106,"lng":131.686735,"version":"13.0b/18.0a"},{"town":"国東町小原","koaza":"","lat":33.550302,"lng":131.711268,"version":"13.0b/18.0a"},{"town":"国東町川原","koaza":"","lat":33.574438,"lng":131.705986,"version":"13.0b/18.0a"},{"town":"国東町北江","koaza":"","lat":33.582408,"lng":131.716989,"version":"13.0b/18.0a"},{"town":"国東町来浦","koaza":"","lat":33.627649,"lng":131.639275,"version":"13.0b/18.0a"},{"town":"国東町見地","koaza":"","lat":33.591632,"lng":131.676097,"version":"13.0b/18.0a"},{"town":"国東町重藤","koaza":"","lat":33.530574,"lng":131.700888,"version":"13.0b/18.0a"},{"town":"国東町下成仏","koaza":"","lat":33.593026,"lng":131.654357,"version":"13.0b/18.0a"},{"town":"国東町成仏","koaza":"","lat":33.587354,"lng":131.621988,"version":"13.0b/18.0a"},{"town":"国東町治郎丸","koaza":"","lat":33.539063,"lng":131.71917,"version":"13.0b/18.0a"},{"town":"国東町大恩寺","koaza":"","lat":33.607561,"lng":131.653983,"version":"13.0b/18.0a"},{"town":"国東町田深","koaza":"","lat":33.571563,"lng":131.724031,"version":"13.0b/18.0a"},{"town":"国東町綱井","koaza":"","lat":33.530147,"lng":131.725463,"version":"13.0b/18.0a"},{"town":"国東町鶴川","koaza":"","lat":33.558577,"lng":131.73514,"version":"13.0b/18.0a"},{"town":"国東町富来","koaza":"","lat":33.605367,"lng":131.685867,"version":"13.0b/18.0a"},{"town":"国東町富来浦","koaza":"","lat":33.603868,"lng":131.70257,"version":"13.0b/18.0a"},{"town":"国東町中田","koaza":"","lat":33.584902,"lng":131.690485,"version":"13.0b/18.0a"},{"town":"国東町浜","koaza":"","lat":33.630691,"lng":131.677576,"version":"13.0b/18.0a"},{"town":"国東町浜崎","koaza":"","lat":33.594941,"lng":131.709065,"version":"13.0b/18.0a"},{"town":"国東町原","koaza":"","lat":33.563827,"lng":131.701165,"version":"13.0b/18.0a"},{"town":"国東町東堅来","koaza":"","lat":33.613371,"lng":131.6784,"version":"13.0b/18.0a"},{"town":"国東町深江","koaza":"","lat":33.623943,"lng":131.681361,"version":"13.0b/18.0a"},{"town":"国東町横手","koaza":"","lat":33.573202,"lng":131.653289,"version":"13.0b/18.0a"},{"town":"国見町赤根","koaza":"","lat":33.600619,"lng":131.587786,"version":"13.0b/18.0a"},{"town":"国見町伊美","koaza":"","lat":33.679133,"lng":131.592322,"version":"13.0b/18.0a"},{"town":"国見町大熊毛","koaza":"","lat":33.651811,"lng":131.65407,"version":"13.0b/18.0a"},{"town":"国見町鬼籠","koaza":"","lat":33.657938,"lng":131.569105,"version":"13.0b/18.0a"},{"town":"国見町岐部","koaza":"","lat":33.650489,"lng":131.62335,"version":"13.0b/18.0a"},{"town":"国見町櫛来","koaza":"","lat":33.657925,"lng":131.606978,"version":"13.0b/18.0a"},{"town":"国見町櫛海","koaza":"","lat":33.659637,"lng":131.578127,"version":"13.0b/18.0a"},{"town":"国見町小熊毛","koaza":"","lat":33.649948,"lng":131.636649,"version":"13.0b/18.0a"},{"town":"国見町西方寺","koaza":"","lat":33.632383,"lng":131.567984,"version":"13.0b/18.0a"},{"town":"国見町千燈","koaza":"","lat":33.629627,"lng":131.5896,"version":"13.0b/18.0a"},{"town":"国見町竹田津","koaza":"","lat":33.666795,"lng":131.557033,"version":"13.0b/18.0a"},{"town":"国見町中","koaza":"","lat":33.673919,"lng":131.588912,"version":"13.0b/18.0a"},{"town":"国見町野田","koaza":"","lat":33.654447,"lng":131.589911,"version":"13.0b/18.0a"},{"town":"国見町向田","koaza":"","lat":33.646091,"lng":131.664362,"version":"13.0b/18.0a"},{"town":"武蔵町麻田","koaza":"","lat":33.528865,"lng":131.680826,"version":"13.0b/18.0a"},{"town":"武蔵町池ノ内","koaza":"","lat":33.519733,"lng":131.713381,"version":"13.0b/18.0a"},{"town":"武蔵町糸原","koaza":"","lat":33.488655,"lng":131.724414,"version":"13.0b/18.0a"},{"town":"武蔵町内田","koaza":"","lat":33.513962,"lng":131.71001,"version":"13.0b/18.0a"},{"town":"武蔵町小城","koaza":"","lat":33.486713,"lng":131.710132,"version":"13.0b/18.0a"},{"town":"武蔵町向陽台","koaza":"","lat":33.481338,"lng":131.712364,"version":"13.0b/18.0a"},{"town":"武蔵町志和利","koaza":"","lat":33.50479,"lng":131.682367,"version":"13.0b/18.0a"},{"town":"武蔵町手野","koaza":"","lat":33.514237,"lng":131.688643,"version":"13.0b/18.0a"},{"town":"武蔵町成吉","koaza":"","lat":33.509334,"lng":131.703162,"version":"13.0b/18.0a"},{"town":"武蔵町狭間","koaza":"","lat":33.543769,"lng":131.663275,"version":"13.0b/18.0a"},{"town":"武蔵町古市","koaza":"","lat":33.504347,"lng":131.719946,"version":"13.0b/18.0a"},{"town":"武蔵町丸小野","koaza":"","lat":33.547489,"lng":131.638438,"version":"13.0b/18.0a"},{"town":"武蔵町三井寺","koaza":"","lat":33.497214,"lng":131.704267,"version":"13.0b/18.0a"},{"town":"武蔵町吉広","koaza":"","lat":33.526573,"lng":131.653689,"version":"13.0b/18.0a"},{"town":"安岐町朝来","koaza":"","lat":33.502662,"lng":131.62368,"version":"14.0b/19.0a"},{"town":"安岐町糸永","koaza":"","lat":33.503728,"lng":131.636579,"version":"14.0b/19.0a"},{"town":"安岐町大添","koaza":"","lat":33.44424,"lng":131.668828,"version":"14.0b/19.0a"},{"town":"安岐町掛樋","koaza":"","lat":33.479302,"lng":131.659489,"version":"14.0b/19.0a"},{"town":"安岐町向陽台","koaza":"","lat":33.476045,"lng":131.713682,"version":"14.0b/19.0a"},{"town":"安岐町塩屋","koaza":"","lat":33.454684,"lng":131.715032,"version":"14.0b/19.0a"},{"town":"安岐町下原","koaza":"","lat":33.469816,"lng":131.723576,"version":"14.0b/19.0a"},{"town":"安岐町下山口","koaza":"","lat":33.455893,"lng":131.684543,"version":"14.0b/19.0a"},{"town":"安岐町瀬戸田","koaza":"","lat":33.473662,"lng":131.681591,"version":"14.0b/19.0a"},{"town":"安岐町富清","koaza":"","lat":33.524144,"lng":131.627402,"version":"14.0b/19.0a"},{"town":"安岐町中園","koaza":"","lat":33.463445,"lng":131.701974,"version":"14.0b/19.0a"},{"town":"安岐町成久","koaza":"","lat":33.467934,"lng":131.678336,"version":"14.0b/19.0a"},{"town":"安岐町西本","koaza":"","lat":33.455266,"lng":131.699255,"version":"14.0b/19.0a"},{"town":"安岐町馬場","koaza":"","lat":33.468146,"lng":131.708839,"version":"14.0b/19.0a"},{"town":"安岐町両子","koaza":"","lat":33.558285,"lng":131.612334,"version":"14.0b/19.0a"},{"town":"安岐町明治","koaza":"","lat":33.535982,"lng":131.600382,"version":"14.0b/19.0a"},{"town":"安岐町矢川","koaza":"","lat":33.486697,"lng":131.614459,"version":"14.0b/19.0a"},{"town":"安岐町山浦","koaza":"","lat":33.475703,"lng":131.637324,"version":"14.0b/19.0a"},{"town":"安岐町山口","koaza":"","lat":33.458903,"lng":131.656246,"version":"14.0b/19.0a"},{"town":"安岐町油留木","koaza":"","lat":33.495812,"lng":131.656098,"version":"14.0b/19.0a"},{"town":"安岐町吉松","koaza":"","lat":33.487889,"lng":131.688768,"version":"14.0b/19.0a"},{"town":"国東町赤松","koaza":"","lat":33.556689,"lng":131.666056,"version":"14.0b/19.0a"},{"town":"国東町安国寺","koaza":"","lat":33.560703,"lng":131.724278,"version":"14.0b/19.0a"},{"town":"国東町岩戸寺","koaza":"","lat":33.615537,"lng":131.616049,"version":"14.0b/19.0a"},{"town":"国東町岩屋","koaza":"","lat":33.567106,"lng":131.686735,"version":"14.0b/19.0a"},{"town":"国東町小原","koaza":"","lat":33.550302,"lng":131.711268,"version":"14.0b/19.0a"},{"town":"国東町川原","koaza":"","lat":33.574438,"lng":131.705986,"version":"14.0b/19.0a"},{"town":"国東町北江","koaza":"","lat":33.582408,"lng":131.716989,"version":"14.0b/19.0a"},{"town":"国東町来浦","koaza":"","lat":33.627649,"lng":131.639275,"version":"14.0b/19.0a"},{"town":"国東町見地","koaza":"","lat":33.591632,"lng":131.676097,"version":"14.0b/19.0a"},{"town":"国東町重藤","koaza":"","lat":33.530574,"lng":131.700888,"version":"14.0b/19.0a"},{"town":"国東町下成仏","koaza":"","lat":33.593026,"lng":131.654357,"version":"14.0b/19.0a"},{"town":"国東町成仏","koaza":"","lat":33.587354,"lng":131.621988,"version":"14.0b/19.0a"},{"town":"国東町治郎丸","koaza":"","lat":33.539063,"lng":131.71917,"version":"14.0b/19.0a"},{"town":"国東町大恩寺","koaza":"","lat":33.607561,"lng":131.653983,"version":"14.0b/19.0a"},{"town":"国東町田深","koaza":"","lat":33.571563,"lng":131.724031,"version":"14.0b/19.0a"},{"town":"国東町綱井","koaza":"","lat":33.530147,"lng":131.725463,"version":"14.0b/19.0a"},{"town":"国東町鶴川","koaza":"","lat":33.558577,"lng":131.73514,"version":"14.0b/19.0a"},{"town":"国東町富来","koaza":"","lat":33.605367,"lng":131.685867,"version":"14.0b/19.0a"},{"town":"国東町富来浦","koaza":"","lat":33.603868,"lng":131.70257,"version":"14.0b/19.0a"},{"town":"国東町中田","koaza":"","lat":33.584902,"lng":131.690485,"version":"14.0b/19.0a"},{"town":"国東町浜","koaza":"","lat":33.630691,"lng":131.677576,"version":"14.0b/19.0a"},{"town":"国東町浜崎","koaza":"","lat":33.594941,"lng":131.709065,"version":"14.0b/19.0a"},{"town":"国東町原","koaza":"","lat":33.563827,"lng":131.701165,"version":"14.0b/19.0a"},{"town":"国東町東堅来","koaza":"","lat":33.613371,"lng":131.6784,"version":"14.0b/19.0a"},{"town":"国東町深江","koaza":"","lat":33.623943,"lng":131.681361,"version":"14.0b/19.0a"},{"town":"国東町横手","koaza":"","lat":33.573202,"lng":131.653289,"version":"14.0b/19.0a"},{"town":"国見町赤根","koaza":"","lat":33.600619,"lng":131.587786,"version":"14.0b/19.0a"},{"town":"国見町伊美","koaza":"","lat":33.679133,"lng":131.592322,"version":"14.0b/19.0a"},{"town":"国見町大熊毛","koaza":"","lat":33.651811,"lng":131.65407,"version":"14.0b/19.0a"},{"town":"国見町鬼籠","koaza":"","lat":33.657938,"lng":131.569105,"version":"14.0b/19.0a"},{"town":"国見町岐部","koaza":"","lat":33.650489,"lng":131.62335,"version":"14.0b/19.0a"},{"town":"国見町櫛来","koaza":"","lat":33.657925,"lng":131.606978,"version":"14.0b/19.0a"},{"town":"国見町櫛海","koaza":"","lat":33.659637,"lng":131.578127,"version":"14.0b/19.0a"},{"town":"国見町小熊毛","koaza":"","lat":33.649948,"lng":131.636649,"version":"14.0b/19.0a"},{"town":"国見町西方寺","koaza":"","lat":33.632383,"lng":131.567984,"version":"14.0b/19.0a"},{"town":"国見町千燈","koaza":"","lat":33.629627,"lng":131.5896,"version":"14.0b/19.0a"},{"town":"国見町竹田津","koaza":"","lat":33.666795,"lng":131.557033,"version":"14.0b/19.0a"},{"town":"国見町中","koaza":"","lat":33.673919,"lng":131.588912,"version":"14.0b/19.0a"},{"town":"国見町野田","koaza":"","lat":33.654447,"lng":131.589911,"version":"14.0b/19.0a"},{"town":"国見町向田","koaza":"","lat":33.646091,"lng":131.664362,"version":"14.0b/19.0a"},{"town":"武蔵町麻田","koaza":"","lat":33.528865,"lng":131.680826,"version":"14.0b/19.0a"},{"town":"武蔵町池ノ内","koaza":"","lat":33.519733,"lng":131.713381,"version":"14.0b/19.0a"},{"town":"武蔵町糸原","koaza":"","lat":33.488655,"lng":131.724414,"version":"14.0b/19.0a"},{"town":"武蔵町内田","koaza":"","lat":33.513962,"lng":131.71001,"version":"14.0b/19.0a"},{"town":"武蔵町小城","koaza":"","lat":33.486713,"lng":131.710132,"version":"14.0b/19.0a"},{"town":"武蔵町向陽台","koaza":"","lat":33.481338,"lng":131.712364,"version":"14.0b/19.0a"},{"town":"武蔵町志和利","koaza":"","lat":33.50479,"lng":131.682367,"version":"14.0b/19.0a"},{"town":"武蔵町手野","koaza":"","lat":33.514237,"lng":131.688643,"version":"14.0b/19.0a"},{"town":"武蔵町成吉","koaza":"","lat":33.509334,"lng":131.703162,"version":"14.0b/19.0a"},{"town":"武蔵町狭間","koaza":"","lat":33.543769,"lng":131.663275,"version":"14.0b/19.0a"},{"town":"武蔵町古市","koaza":"","lat":33.504347,"lng":131.719946,"version":"14.0b/19.0a"},{"town":"武蔵町丸小野","koaza":"","lat":33.547489,"lng":131.638438,"version":"14.0b/19.0a"},{"town":"武蔵町三井寺","koaza":"","lat":33.497214,"lng":131.704267,"version":"14.0b/19.0a"},{"town":"武蔵町吉広","koaza":"","lat":33.526573,"lng":131.653689,"version":"14.0b/19.0a"}]