[{"town":"井無田町","koaza":"","lat":33.07498,"lng":131.852412,"version":"13.0b/18.0a"},{"town":"入船西町","koaza":"","lat":33.080672,"lng":131.853344,"version":"13.0b/18.0a"},{"town":"入船東町","koaza":"","lat":33.080631,"lng":131.857954,"version":"13.0b/18.0a"},{"town":"大字網代","koaza":"","lat":33.068152,"lng":131.931181,"version":"13.0b/18.0a"},{"town":"大字堅浦","koaza":"","lat":33.098507,"lng":131.864117,"version":"13.0b/18.0a"},{"town":"大字上青江","koaza":"","lat":33.079387,"lng":131.81493,"version":"13.0b/18.0a"},{"town":"大字下青江","koaza":"","lat":33.071265,"lng":131.849621,"version":"13.0b/18.0a"},{"town":"大字千怒","koaza":"","lat":33.06359,"lng":131.890315,"version":"13.0b/18.0a"},{"town":"大字津久見","koaza":"","lat":33.054517,"lng":131.854306,"version":"13.0b/18.0a"},{"town":"大字徳浦","koaza":"","lat":33.091943,"lng":131.846886,"version":"13.0b/18.0a"},{"town":"大字長目","koaza":"","lat":33.111838,"lng":131.889629,"version":"13.0b/18.0a"},{"town":"大字日見","koaza":"","lat":33.068322,"lng":131.904674,"version":"13.0b/18.0a"},{"town":"大字保戸島","koaza":"","lat":33.104335,"lng":132.010983,"version":"13.0b/18.0a"},{"town":"大字八戸","koaza":"","lat":33.044878,"lng":131.813628,"version":"13.0b/18.0a"},{"town":"大字四浦","koaza":"","lat":33.075226,"lng":131.994074,"version":"13.0b/18.0a"},{"town":"大友町","koaza":"","lat":33.070632,"lng":131.864695,"version":"13.0b/18.0a"},{"town":"岡町","koaza":"","lat":33.079882,"lng":131.843632,"version":"13.0b/18.0a"},{"town":"上宮本町","koaza":"","lat":33.07023,"lng":131.859981,"version":"13.0b/18.0a"},{"town":"合ノ元町","koaza":"","lat":33.086488,"lng":131.854523,"version":"13.0b/18.0a"},{"town":"小園町","koaza":"","lat":33.075515,"lng":131.843141,"version":"13.0b/18.0a"},{"town":"地蔵町","koaza":"","lat":33.078133,"lng":131.848922,"version":"13.0b/18.0a"},{"town":"志手町","koaza":"","lat":33.080151,"lng":131.848417,"version":"13.0b/18.0a"},{"town":"新町","koaza":"","lat":33.077396,"lng":131.852328,"version":"13.0b/18.0a"},{"town":"セメント町","koaza":"","lat":33.078006,"lng":131.855391,"version":"13.0b/18.0a"},{"town":"高洲町","koaza":"","lat":33.075369,"lng":131.866656,"version":"13.0b/18.0a"},{"town":"立花町","koaza":"","lat":33.064313,"lng":131.857765,"version":"13.0b/18.0a"},{"town":"中央町","koaza":"","lat":33.074507,"lng":131.862823,"version":"13.0b/18.0a"},{"town":"徳浦本町","koaza":"","lat":33.092292,"lng":131.849352,"version":"13.0b/18.0a"},{"town":"徳浦宮町","koaza":"","lat":33.091316,"lng":131.853376,"version":"13.0b/18.0a"},{"town":"中田町","koaza":"","lat":33.068292,"lng":131.86168,"version":"13.0b/18.0a"},{"town":"中町","koaza":"","lat":33.079236,"lng":131.841313,"version":"13.0b/18.0a"},{"town":"文京町","koaza":"","lat":33.067919,"lng":131.864253,"version":"13.0b/18.0a"},{"town":"港町","koaza":"","lat":33.076879,"lng":131.861533,"version":"13.0b/18.0a"},{"town":"宮本町","koaza":"","lat":33.072475,"lng":131.86269,"version":"13.0b/18.0a"},{"town":"元町","koaza":"","lat":33.075278,"lng":131.855181,"version":"13.0b/18.0a"},{"town":"門前町","koaza":"","lat":33.076468,"lng":131.848969,"version":"13.0b/18.0a"},{"town":"大字津久見浦","koaza":"","lat":33.073282,"lng":131.872887,"version":"13.0b/18.0a"},{"town":"岩屋町","koaza":"","lat":33.072047,"lng":131.867786,"version":"13.0b/18.0a"},{"town":"大字千怒","koaza":"新地","lat":33.074486,"lng":131.889189,"version":"13.0b/18.0a"},{"town":"井無田町","koaza":"","lat":33.07498,"lng":131.852412,"version":"14.0b/19.0a"},{"town":"入船西町","koaza":"","lat":33.080672,"lng":131.853344,"version":"14.0b/19.0a"},{"town":"入船東町","koaza":"","lat":33.080631,"lng":131.857954,"version":"14.0b/19.0a"},{"town":"大字網代","koaza":"","lat":33.068152,"lng":131.931181,"version":"14.0b/19.0a"},{"town":"大字堅浦","koaza":"","lat":33.098507,"lng":131.864117,"version":"14.0b/19.0a"},{"town":"大字上青江","koaza":"","lat":33.079387,"lng":131.81493,"version":"14.0b/19.0a"},{"town":"大字下青江","koaza":"","lat":33.071265,"lng":131.849621,"version":"14.0b/19.0a"},{"town":"大字千怒","koaza":"","lat":33.06359,"lng":131.890315,"version":"14.0b/19.0a"},{"town":"大字津久見","koaza":"","lat":33.054517,"lng":131.854306,"version":"14.0b/19.0a"},{"town":"大字徳浦","koaza":"","lat":33.091943,"lng":131.846886,"version":"14.0b/19.0a"},{"town":"大字長目","koaza":"","lat":33.111838,"lng":131.889629,"version":"14.0b/19.0a"},{"town":"大字日見","koaza":"","lat":33.068322,"lng":131.904674,"version":"14.0b/19.0a"},{"town":"大字保戸島","koaza":"","lat":33.104335,"lng":132.010983,"version":"14.0b/19.0a"},{"town":"大字八戸","koaza":"","lat":33.044878,"lng":131.813628,"version":"14.0b/19.0a"},{"town":"大字四浦","koaza":"","lat":33.075226,"lng":131.994074,"version":"14.0b/19.0a"},{"town":"大友町","koaza":"","lat":33.070632,"lng":131.864695,"version":"14.0b/19.0a"},{"town":"岡町","koaza":"","lat":33.079882,"lng":131.843632,"version":"14.0b/19.0a"},{"town":"上宮本町","koaza":"","lat":33.07023,"lng":131.859981,"version":"14.0b/19.0a"},{"town":"合ノ元町","koaza":"","lat":33.086488,"lng":131.854523,"version":"14.0b/19.0a"},{"town":"小園町","koaza":"","lat":33.075515,"lng":131.843141,"version":"14.0b/19.0a"},{"town":"地蔵町","koaza":"","lat":33.078133,"lng":131.848922,"version":"14.0b/19.0a"},{"town":"志手町","koaza":"","lat":33.080151,"lng":131.848417,"version":"14.0b/19.0a"},{"town":"新町","koaza":"","lat":33.077396,"lng":131.852328,"version":"14.0b/19.0a"},{"town":"セメント町","koaza":"","lat":33.078006,"lng":131.855391,"version":"14.0b/19.0a"},{"town":"高洲町","koaza":"","lat":33.075369,"lng":131.866656,"version":"14.0b/19.0a"},{"town":"立花町","koaza":"","lat":33.064313,"lng":131.857765,"version":"14.0b/19.0a"},{"town":"中央町","koaza":"","lat":33.074507,"lng":131.862823,"version":"14.0b/19.0a"},{"town":"徳浦本町","koaza":"","lat":33.092292,"lng":131.849352,"version":"14.0b/19.0a"},{"town":"徳浦宮町","koaza":"","lat":33.091358,"lng":131.853343,"version":"14.0b/19.0a"},{"town":"中田町","koaza":"","lat":33.068292,"lng":131.86168,"version":"14.0b/19.0a"},{"town":"中町","koaza":"","lat":33.079236,"lng":131.841313,"version":"14.0b/19.0a"},{"town":"文京町","koaza":"","lat":33.067919,"lng":131.864253,"version":"14.0b/19.0a"},{"town":"港町","koaza":"","lat":33.076879,"lng":131.861533,"version":"14.0b/19.0a"},{"town":"宮本町","koaza":"","lat":33.072475,"lng":131.86269,"version":"14.0b/19.0a"},{"town":"元町","koaza":"","lat":33.075278,"lng":131.855181,"version":"14.0b/19.0a"},{"town":"門前町","koaza":"","lat":33.076468,"lng":131.848969,"version":"14.0b/19.0a"},{"town":"大字津久見浦","koaza":"","lat":33.073282,"lng":131.872887,"version":"14.0b/19.0a"},{"town":"岩屋町","koaza":"","lat":33.072047,"lng":131.867786,"version":"14.0b/19.0a"},{"town":"大字千怒","koaza":"新地","lat":33.074486,"lng":131.889189,"version":"14.0b/19.0a"}]