[{"town":"庄内町阿蘇野","koaza":"","lat":33.138614,"lng":131.31968,"version":"13.0b/18.0a"},{"town":"庄内町櫟木","koaza":"","lat":33.196887,"lng":131.468294,"version":"13.0b/18.0a"},{"town":"庄内町大龍","koaza":"","lat":33.166268,"lng":131.432978,"version":"13.0b/18.0a"},{"town":"庄内町小挾間","koaza":"","lat":33.22335,"lng":131.446637,"version":"13.0b/18.0a"},{"town":"庄内町柿原","koaza":"","lat":33.170057,"lng":131.41876,"version":"13.0b/18.0a"},{"town":"庄内町北大津留","koaza":"","lat":33.23011,"lng":131.434551,"version":"13.0b/18.0a"},{"town":"庄内町五ケ瀬","koaza":"","lat":33.158604,"lng":131.450964,"version":"13.0b/18.0a"},{"town":"庄内町庄内原","koaza":"","lat":33.184825,"lng":131.398429,"version":"13.0b/18.0a"},{"town":"庄内町高岡","koaza":"","lat":33.193583,"lng":131.410213,"version":"13.0b/18.0a"},{"town":"庄内町龍原","koaza":"","lat":33.164531,"lng":131.467081,"version":"13.0b/18.0a"},{"town":"庄内町直野内山","koaza":"","lat":33.159948,"lng":131.354933,"version":"13.0b/18.0a"},{"town":"庄内町中","koaza":"","lat":33.198469,"lng":131.395514,"version":"13.0b/18.0a"},{"town":"庄内町長野","koaza":"","lat":33.211878,"lng":131.411671,"version":"13.0b/18.0a"},{"town":"庄内町西","koaza":"","lat":33.193329,"lng":131.37358,"version":"13.0b/18.0a"},{"town":"庄内町西大津留","koaza":"","lat":33.223109,"lng":131.423555,"version":"13.0b/18.0a"},{"town":"庄内町西長宝","koaza":"","lat":33.194013,"lng":131.44527,"version":"13.0b/18.0a"},{"town":"庄内町野畑","koaza":"","lat":33.161606,"lng":131.400151,"version":"13.0b/18.0a"},{"town":"庄内町畑田","koaza":"","lat":33.192158,"lng":131.430159,"version":"13.0b/18.0a"},{"town":"庄内町東大津留","koaza":"","lat":33.211656,"lng":131.440552,"version":"13.0b/18.0a"},{"town":"庄内町東長宝","koaza":"","lat":33.19191,"lng":131.45856,"version":"13.0b/18.0a"},{"town":"庄内町平石","koaza":"","lat":33.21304,"lng":131.378183,"version":"13.0b/18.0a"},{"town":"庄内町渕","koaza":"","lat":33.172744,"lng":131.371915,"version":"13.0b/18.0a"},{"town":"庄内町南大津留","koaza":"","lat":33.204278,"lng":131.43302,"version":"13.0b/18.0a"},{"town":"挾間町赤野","koaza":"","lat":33.211472,"lng":131.489262,"version":"13.0b/18.0a"},{"town":"挾間町医大ケ丘一丁目","koaza":"","lat":33.210359,"lng":131.534636,"version":"13.0b/18.0a"},{"town":"挾間町医大ケ丘二丁目","koaza":"","lat":33.20885,"lng":131.533075,"version":"13.0b/18.0a"},{"town":"挾間町医大ケ丘三丁目","koaza":"","lat":33.206598,"lng":131.531747,"version":"13.0b/18.0a"},{"town":"挾間町内成","koaza":"","lat":33.232011,"lng":131.4619,"version":"13.0b/18.0a"},{"town":"挾間町鬼瀬","koaza":"","lat":33.199824,"lng":131.484098,"version":"13.0b/18.0a"},{"town":"挾間町鬼崎","koaza":"","lat":33.190387,"lng":131.512097,"version":"13.0b/18.0a"},{"town":"挾間町小野","koaza":"","lat":33.182934,"lng":131.477012,"version":"13.0b/18.0a"},{"town":"挾間町北方","koaza":"","lat":33.207137,"lng":131.520046,"version":"13.0b/18.0a"},{"town":"挾間町来鉢","koaza":"","lat":33.222549,"lng":131.512542,"version":"13.0b/18.0a"},{"town":"挾間町篠原","koaza":"","lat":33.192178,"lng":131.481213,"version":"13.0b/18.0a"},{"town":"挾間町下市","koaza":"","lat":33.20193,"lng":131.527548,"version":"13.0b/18.0a"},{"town":"挾間町高崎","koaza":"","lat":33.233523,"lng":131.53221,"version":"13.0b/18.0a"},{"town":"挾間町田代","koaza":"","lat":33.222246,"lng":131.490006,"version":"13.0b/18.0a"},{"town":"挾間町谷","koaza":"","lat":33.180826,"lng":131.500383,"version":"13.0b/18.0a"},{"town":"挾間町筒口","koaza":"","lat":33.16847,"lng":131.479547,"version":"13.0b/18.0a"},{"town":"挾間町時松","koaza":"","lat":33.207186,"lng":131.459277,"version":"13.0b/18.0a"},{"town":"挾間町七蔵司","koaza":"","lat":33.237499,"lng":131.516843,"version":"13.0b/18.0a"},{"town":"挾間町挾間","koaza":"","lat":33.200085,"lng":131.517008,"version":"13.0b/18.0a"},{"town":"挾間町古野","koaza":"","lat":33.211458,"lng":131.525145,"version":"13.0b/18.0a"},{"town":"挾間町朴木","koaza":"","lat":33.22122,"lng":131.466784,"version":"13.0b/18.0a"},{"town":"挾間町三船","koaza":"","lat":33.219073,"lng":131.528374,"version":"13.0b/18.0a"},{"town":"挾間町向原","koaza":"","lat":33.201648,"lng":131.498793,"version":"13.0b/18.0a"},{"town":"湯布院町川上","koaza":"","lat":33.280095,"lng":131.360291,"version":"13.0b/18.0a"},{"town":"湯布院町川北","koaza":"","lat":33.266659,"lng":131.332608,"version":"13.0b/18.0a"},{"town":"湯布院町川西","koaza":"","lat":33.235417,"lng":131.302621,"version":"13.0b/18.0a"},{"town":"湯布院町川南","koaza":"","lat":33.24785,"lng":131.357365,"version":"13.0b/18.0a"},{"town":"湯布院町下湯平","koaza":"","lat":33.19616,"lng":131.349661,"version":"13.0b/18.0a"},{"town":"湯布院町塚原","koaza":"","lat":33.30435,"lng":131.38656,"version":"13.0b/18.0a"},{"town":"湯布院町中川","koaza":"","lat":33.228819,"lng":131.357407,"version":"13.0b/18.0a"},{"town":"湯布院町湯平","koaza":"","lat":33.187909,"lng":131.321537,"version":"13.0b/18.0a"},{"town":"庄内町阿蘇野","koaza":"","lat":33.138614,"lng":131.31968,"version":"14.0b/19.0a"},{"town":"庄内町櫟木","koaza":"","lat":33.196887,"lng":131.468294,"version":"14.0b/19.0a"},{"town":"庄内町大龍","koaza":"","lat":33.166268,"lng":131.432978,"version":"14.0b/19.0a"},{"town":"庄内町小挾間","koaza":"","lat":33.22335,"lng":131.446637,"version":"14.0b/19.0a"},{"town":"庄内町柿原","koaza":"","lat":33.170057,"lng":131.41876,"version":"14.0b/19.0a"},{"town":"庄内町北大津留","koaza":"","lat":33.23011,"lng":131.434551,"version":"14.0b/19.0a"},{"town":"庄内町五ケ瀬","koaza":"","lat":33.158604,"lng":131.450964,"version":"14.0b/19.0a"},{"town":"庄内町庄内原","koaza":"","lat":33.184825,"lng":131.398429,"version":"14.0b/19.0a"},{"town":"庄内町高岡","koaza":"","lat":33.193583,"lng":131.410213,"version":"14.0b/19.0a"},{"town":"庄内町龍原","koaza":"","lat":33.164531,"lng":131.467081,"version":"14.0b/19.0a"},{"town":"庄内町直野内山","koaza":"","lat":33.159948,"lng":131.354933,"version":"14.0b/19.0a"},{"town":"庄内町中","koaza":"","lat":33.198469,"lng":131.395514,"version":"14.0b/19.0a"},{"town":"庄内町長野","koaza":"","lat":33.211878,"lng":131.411671,"version":"14.0b/19.0a"},{"town":"庄内町西","koaza":"","lat":33.193329,"lng":131.37358,"version":"14.0b/19.0a"},{"town":"庄内町西大津留","koaza":"","lat":33.223109,"lng":131.423555,"version":"14.0b/19.0a"},{"town":"庄内町西長宝","koaza":"","lat":33.194013,"lng":131.44527,"version":"14.0b/19.0a"},{"town":"庄内町野畑","koaza":"","lat":33.161606,"lng":131.400151,"version":"14.0b/19.0a"},{"town":"庄内町畑田","koaza":"","lat":33.192158,"lng":131.430159,"version":"14.0b/19.0a"},{"town":"庄内町東大津留","koaza":"","lat":33.211656,"lng":131.440552,"version":"14.0b/19.0a"},{"town":"庄内町東長宝","koaza":"","lat":33.19191,"lng":131.45856,"version":"14.0b/19.0a"},{"town":"庄内町平石","koaza":"","lat":33.21304,"lng":131.378183,"version":"14.0b/19.0a"},{"town":"庄内町渕","koaza":"","lat":33.172744,"lng":131.371915,"version":"14.0b/19.0a"},{"town":"庄内町南大津留","koaza":"","lat":33.204278,"lng":131.43302,"version":"14.0b/19.0a"},{"town":"挾間町赤野","koaza":"","lat":33.211472,"lng":131.489262,"version":"14.0b/19.0a"},{"town":"挾間町医大ケ丘一丁目","koaza":"","lat":33.210359,"lng":131.534636,"version":"14.0b/19.0a"},{"town":"挾間町医大ケ丘二丁目","koaza":"","lat":33.20885,"lng":131.533075,"version":"14.0b/19.0a"},{"town":"挾間町医大ケ丘三丁目","koaza":"","lat":33.206598,"lng":131.531747,"version":"14.0b/19.0a"},{"town":"挾間町内成","koaza":"","lat":33.232011,"lng":131.4619,"version":"14.0b/19.0a"},{"town":"挾間町鬼瀬","koaza":"","lat":33.199824,"lng":131.484098,"version":"14.0b/19.0a"},{"town":"挾間町鬼崎","koaza":"","lat":33.190387,"lng":131.512097,"version":"14.0b/19.0a"},{"town":"挾間町小野","koaza":"","lat":33.182934,"lng":131.477012,"version":"14.0b/19.0a"},{"town":"挾間町北方","koaza":"","lat":33.207137,"lng":131.520046,"version":"14.0b/19.0a"},{"town":"挾間町来鉢","koaza":"","lat":33.222549,"lng":131.512542,"version":"14.0b/19.0a"},{"town":"挾間町篠原","koaza":"","lat":33.192178,"lng":131.481213,"version":"14.0b/19.0a"},{"town":"挾間町下市","koaza":"","lat":33.20193,"lng":131.527548,"version":"14.0b/19.0a"},{"town":"挾間町高崎","koaza":"","lat":33.233523,"lng":131.53221,"version":"14.0b/19.0a"},{"town":"挾間町田代","koaza":"","lat":33.222246,"lng":131.490006,"version":"14.0b/19.0a"},{"town":"挾間町谷","koaza":"","lat":33.180826,"lng":131.500383,"version":"14.0b/19.0a"},{"town":"挾間町筒口","koaza":"","lat":33.16847,"lng":131.479547,"version":"14.0b/19.0a"},{"town":"挾間町時松","koaza":"","lat":33.207186,"lng":131.459277,"version":"14.0b/19.0a"},{"town":"挾間町七蔵司","koaza":"","lat":33.237499,"lng":131.516843,"version":"14.0b/19.0a"},{"town":"挾間町挾間","koaza":"","lat":33.200085,"lng":131.517008,"version":"14.0b/19.0a"},{"town":"挾間町古野","koaza":"","lat":33.211458,"lng":131.525145,"version":"14.0b/19.0a"},{"town":"挾間町朴木","koaza":"","lat":33.22122,"lng":131.466784,"version":"14.0b/19.0a"},{"town":"挾間町三船","koaza":"","lat":33.219073,"lng":131.528374,"version":"14.0b/19.0a"},{"town":"挾間町向原","koaza":"","lat":33.201648,"lng":131.498793,"version":"14.0b/19.0a"},{"town":"湯布院町川上","koaza":"","lat":33.280095,"lng":131.360291,"version":"14.0b/19.0a"},{"town":"湯布院町川北","koaza":"","lat":33.266659,"lng":131.332608,"version":"14.0b/19.0a"},{"town":"湯布院町川西","koaza":"","lat":33.235417,"lng":131.302621,"version":"14.0b/19.0a"},{"town":"湯布院町川南","koaza":"","lat":33.24785,"lng":131.357365,"version":"14.0b/19.0a"},{"town":"湯布院町下湯平","koaza":"","lat":33.19616,"lng":131.349661,"version":"14.0b/19.0a"},{"town":"湯布院町塚原","koaza":"","lat":33.30435,"lng":131.38656,"version":"14.0b/19.0a"},{"town":"湯布院町中川","koaza":"","lat":33.228819,"lng":131.357407,"version":"14.0b/19.0a"},{"town":"湯布院町湯平","koaza":"","lat":33.187909,"lng":131.321537,"version":"14.0b/19.0a"}]