[{"town":"大字大神","koaza":"","lat":33.371114,"lng":131.580851,"version":"13.0b/18.0a"},{"town":"大字川崎","koaza":"","lat":33.363982,"lng":131.551599,"version":"13.0b/18.0a"},{"town":"大字豊岡","koaza":"","lat":33.372598,"lng":131.495596,"version":"13.0b/18.0a"},{"town":"大字平道","koaza":"","lat":33.352292,"lng":131.492317,"version":"13.0b/18.0a"},{"town":"大字広瀬","koaza":"","lat":33.406214,"lng":131.531078,"version":"13.0b/18.0a"},{"town":"大字藤原","koaza":"","lat":33.400783,"lng":131.545349,"version":"13.0b/18.0a"},{"town":"大字真那井","koaza":"","lat":33.38037,"lng":131.602474,"version":"13.0b/18.0a"},{"town":"大字南畑","koaza":"","lat":33.368494,"lng":131.459234,"version":"13.0b/18.0a"},{"town":"（大字なし）","koaza":"","lat":33.374804,"lng":131.524079,"version":"13.0b/18.0a"},{"town":"（大字なし）","koaza":"小路","lat":33.371298,"lng":131.528665,"version":"13.0b/18.0a"},{"town":"大字藤原","koaza":"友田","lat":33.38109,"lng":131.54148,"version":"13.0b/18.0a"},{"town":"大字大神","koaza":"","lat":33.371114,"lng":131.580851,"version":"14.0b/19.0a"},{"town":"大字川崎","koaza":"","lat":33.363982,"lng":131.551599,"version":"14.0b/19.0a"},{"town":"大字豊岡","koaza":"","lat":33.372598,"lng":131.495596,"version":"14.0b/19.0a"},{"town":"大字平道","koaza":"","lat":33.352292,"lng":131.492317,"version":"14.0b/19.0a"},{"town":"大字広瀬","koaza":"","lat":33.406214,"lng":131.531078,"version":"14.0b/19.0a"},{"town":"大字藤原","koaza":"","lat":33.400783,"lng":131.545349,"version":"14.0b/19.0a"},{"town":"大字真那井","koaza":"","lat":33.38037,"lng":131.602474,"version":"14.0b/19.0a"},{"town":"大字南畑","koaza":"","lat":33.368494,"lng":131.459234,"version":"14.0b/19.0a"},{"town":"（大字なし）","koaza":"","lat":33.374804,"lng":131.524079,"version":"14.0b/19.0a"},{"town":"（大字なし）","koaza":"小路","lat":33.371298,"lng":131.528665,"version":"14.0b/19.0a"},{"town":"大字藤原","koaza":"友田","lat":33.38109,"lng":131.54148,"version":"14.0b/19.0a"}]