[{"town":"青木","koaza":"","lat":35.10508,"lng":138.920886,"version":"13.0b/18.0a"},{"town":"旭ヶ丘","koaza":"","lat":35.130301,"lng":138.931426,"version":"13.0b/18.0a"},{"town":"新谷","koaza":"","lat":35.10227,"lng":138.919392,"version":"13.0b/18.0a"},{"town":"泉町","koaza":"","lat":35.1213,"lng":138.910678,"version":"13.0b/18.0a"},{"town":"市山新田","koaza":"","lat":35.137126,"lng":138.958849,"version":"13.0b/18.0a"},{"town":"一番町","koaza":"","lat":35.12477,"lng":138.912574,"version":"13.0b/18.0a"},{"town":"壱町田","koaza":"","lat":35.132559,"lng":138.920203,"version":"13.0b/18.0a"},{"town":"大宮町一丁目","koaza":"","lat":35.122178,"lng":138.916955,"version":"13.0b/18.0a"},{"town":"大宮町二丁目","koaza":"","lat":35.122573,"lng":138.920344,"version":"13.0b/18.0a"},{"town":"大宮町三丁目","koaza":"","lat":35.126238,"lng":138.917274,"version":"13.0b/18.0a"},{"town":"加茂","koaza":"","lat":35.134875,"lng":138.93184,"version":"13.0b/18.0a"},{"town":"加茂川町","koaza":"","lat":35.125116,"lng":138.92265,"version":"13.0b/18.0a"},{"town":"加屋町","koaza":"","lat":35.116087,"lng":138.906412,"version":"13.0b/18.0a"},{"town":"川原ケ谷","koaza":"","lat":35.141769,"lng":138.945144,"version":"13.0b/18.0a"},{"town":"北沢","koaza":"","lat":35.103499,"lng":138.93953,"version":"13.0b/18.0a"},{"town":"北田町","koaza":"","lat":35.117183,"lng":138.917826,"version":"13.0b/18.0a"},{"town":"清住町","koaza":"","lat":35.113633,"lng":138.907109,"version":"13.0b/18.0a"},{"town":"幸原町一丁目","koaza":"","lat":35.137234,"lng":138.913807,"version":"13.0b/18.0a"},{"town":"幸原町二丁目","koaza":"","lat":35.139213,"lng":138.910562,"version":"13.0b/18.0a"},{"town":"寿町","koaza":"","lat":35.123981,"lng":138.907957,"version":"13.0b/18.0a"},{"town":"栄町","koaza":"","lat":35.119158,"lng":138.908079,"version":"13.0b/18.0a"},{"town":"笹原新田","koaza":"","lat":35.145849,"lng":138.979233,"version":"13.0b/18.0a"},{"town":"佐野","koaza":"","lat":35.168298,"lng":138.939221,"version":"13.0b/18.0a"},{"town":"佐野見晴台一丁目","koaza":"","lat":35.163753,"lng":138.94364,"version":"13.0b/18.0a"},{"town":"佐野見晴台二丁目","koaza":"","lat":35.164249,"lng":138.948919,"version":"13.0b/18.0a"},{"town":"沢地","koaza":"","lat":35.148822,"lng":138.938357,"version":"13.0b/18.0a"},{"town":"三恵台","koaza":"","lat":35.130656,"lng":138.939982,"version":"13.0b/18.0a"},{"town":"芝本町","koaza":"","lat":35.121751,"lng":138.913843,"version":"13.0b/18.0a"},{"town":"末広町","koaza":"","lat":35.13536,"lng":138.911183,"version":"13.0b/18.0a"},{"town":"千枚原","koaza":"","lat":35.137728,"lng":138.921204,"version":"13.0b/18.0a"},{"town":"大社町","koaza":"","lat":35.119812,"lng":138.920766,"version":"13.0b/18.0a"},{"town":"大場","koaza":"","lat":35.099046,"lng":138.946257,"version":"13.0b/18.0a"},{"town":"竹倉","koaza":"","lat":35.1182,"lng":138.946179,"version":"13.0b/18.0a"},{"town":"玉川","koaza":"","lat":35.106695,"lng":138.913092,"version":"13.0b/18.0a"},{"town":"玉沢","koaza":"","lat":35.12539,"lng":138.965148,"version":"13.0b/18.0a"},{"town":"多呂","koaza":"","lat":35.098339,"lng":138.938394,"version":"13.0b/18.0a"},{"town":"中央町","koaza":"","lat":35.120255,"lng":138.91719,"version":"13.0b/18.0a"},{"town":"塚原新田","koaza":"","lat":35.136195,"lng":138.950737,"version":"13.0b/18.0a"},{"town":"鶴喰","koaza":"","lat":35.103791,"lng":138.926917,"version":"13.0b/18.0a"},{"town":"徳倉","koaza":"","lat":35.151136,"lng":138.923879,"version":"13.0b/18.0a"},{"town":"徳倉一丁目","koaza":"","lat":35.140189,"lng":138.913326,"version":"13.0b/18.0a"},{"town":"徳倉二丁目","koaza":"","lat":35.137892,"lng":138.91773,"version":"13.0b/18.0a"},{"town":"徳倉三丁目","koaza":"","lat":35.143136,"lng":138.917887,"version":"13.0b/18.0a"},{"town":"徳倉四丁目","koaza":"","lat":35.144065,"lng":138.912072,"version":"13.0b/18.0a"},{"town":"徳倉五丁目","koaza":"","lat":35.148124,"lng":138.914958,"version":"13.0b/18.0a"},{"town":"富田町","koaza":"","lat":35.108887,"lng":138.917774,"version":"13.0b/18.0a"},{"town":"中","koaza":"","lat":35.106679,"lng":138.930867,"version":"13.0b/18.0a"},{"town":"中島","koaza":"","lat":35.097139,"lng":138.932625,"version":"13.0b/18.0a"},{"town":"中田町","koaza":"","lat":35.114833,"lng":138.917577,"version":"13.0b/18.0a"},{"town":"長伏","koaza":"","lat":35.086785,"lng":138.913834,"version":"13.0b/18.0a"},{"town":"西旭ケ丘町","koaza":"","lat":35.129149,"lng":138.928094,"version":"13.0b/18.0a"},{"town":"錦が丘","koaza":"","lat":35.111195,"lng":138.94662,"version":"13.0b/18.0a"},{"town":"西本町","koaza":"","lat":35.117625,"lng":138.908765,"version":"13.0b/18.0a"},{"town":"西若町","koaza":"","lat":35.121665,"lng":138.906773,"version":"13.0b/18.0a"},{"town":"萩","koaza":"","lat":35.151845,"lng":138.908931,"version":"13.0b/18.0a"},{"town":"八反畑","koaza":"","lat":35.100715,"lng":138.925803,"version":"13.0b/18.0a"},{"town":"初音台","koaza":"","lat":35.125677,"lng":138.934321,"version":"13.0b/18.0a"},{"town":"東壱町田","koaza":"","lat":35.132574,"lng":138.923206,"version":"13.0b/18.0a"},{"town":"東大場一丁目","koaza":"","lat":35.109122,"lng":138.950514,"version":"13.0b/18.0a"},{"town":"東大場二丁目","koaza":"","lat":35.108699,"lng":138.952946,"version":"13.0b/18.0a"},{"town":"東町","koaza":"","lat":35.117274,"lng":138.92474,"version":"13.0b/18.0a"},{"town":"東本町一丁目","koaza":"","lat":35.116249,"lng":138.921283,"version":"13.0b/18.0a"},{"town":"東本町二丁目","koaza":"","lat":35.113624,"lng":138.922921,"version":"13.0b/18.0a"},{"town":"光ケ丘","koaza":"","lat":35.136142,"lng":138.925925,"version":"13.0b/18.0a"},{"town":"日の出町","koaza":"","lat":35.120659,"lng":138.92441,"version":"13.0b/18.0a"},{"town":"平田","koaza":"","lat":35.100771,"lng":138.915378,"version":"13.0b/18.0a"},{"town":"広小路町","koaza":"","lat":35.118845,"lng":138.910885,"version":"13.0b/18.0a"},{"town":"藤代町","koaza":"","lat":35.10687,"lng":138.923796,"version":"13.0b/18.0a"},{"town":"富士ビレッジ","koaza":"","lat":35.141282,"lng":138.921112,"version":"13.0b/18.0a"},{"town":"富士見台","koaza":"","lat":35.142348,"lng":138.932427,"version":"13.0b/18.0a"},{"town":"芙蓉台一丁目","koaza":"","lat":35.152988,"lng":138.913327,"version":"13.0b/18.0a"},{"town":"芙蓉台二丁目","koaza":"","lat":35.154715,"lng":138.917569,"version":"13.0b/18.0a"},{"town":"芙蓉台三丁目","koaza":"","lat":35.15685,"lng":138.91866,"version":"13.0b/18.0a"},{"town":"文教町一丁目","koaza":"","lat":35.130489,"lng":138.912811,"version":"13.0b/18.0a"},{"town":"文教町二丁目","koaza":"","lat":35.132686,"lng":138.915811,"version":"13.0b/18.0a"},{"town":"平成台","koaza":"","lat":35.153002,"lng":138.942271,"version":"13.0b/18.0a"},{"town":"本町","koaza":"","lat":35.119093,"lng":138.91402,"version":"13.0b/18.0a"},{"town":"松が丘","koaza":"","lat":35.122747,"lng":138.935367,"version":"13.0b/18.0a"},{"town":"松本","koaza":"","lat":35.090853,"lng":138.918694,"version":"13.0b/18.0a"},{"town":"三ツ谷新田","koaza":"","lat":35.14277,"lng":138.971897,"version":"13.0b/18.0a"},{"town":"緑町","koaza":"","lat":35.11517,"lng":138.91097,"version":"13.0b/18.0a"},{"town":"南田町","koaza":"","lat":35.112135,"lng":138.916956,"version":"13.0b/18.0a"},{"town":"南町","koaza":"","lat":35.111561,"lng":138.912506,"version":"13.0b/18.0a"},{"town":"南二日町","koaza":"","lat":35.110383,"lng":138.924416,"version":"13.0b/18.0a"},{"town":"南本町","koaza":"","lat":35.115517,"lng":138.914596,"version":"13.0b/18.0a"},{"town":"三好町","koaza":"","lat":35.110312,"lng":138.908888,"version":"13.0b/18.0a"},{"town":"谷田","koaza":"","lat":35.127453,"lng":138.949664,"version":"13.0b/18.0a"},{"town":"柳郷地","koaza":"","lat":35.117475,"lng":138.940308,"version":"13.0b/18.0a"},{"town":"山中新田","koaza":"","lat":35.151996,"lng":138.991666,"version":"13.0b/18.0a"},{"town":"若松町","koaza":"","lat":35.131221,"lng":138.925928,"version":"13.0b/18.0a"},{"town":"梅名","koaza":"","lat":35.093838,"lng":138.925637,"version":"13.0b/18.0a"},{"town":"御園","koaza":"","lat":35.080175,"lng":138.921695,"version":"13.0b/18.0a"},{"town":"安久","koaza":"","lat":35.084913,"lng":138.92777,"version":"13.0b/18.0a"},{"town":"（大字なし）","koaza":"","lat":35.159267,"lng":138.964839,"version":"13.0b/18.0a"},{"town":"谷田","koaza":"雪沢","lat":35.115781,"lng":138.928775,"version":"13.0b/18.0a"},{"town":"谷田","koaza":"東富士見","lat":35.115541,"lng":138.931684,"version":"13.0b/18.0a"},{"town":"谷田","koaza":"藤久保","lat":35.122176,"lng":138.951781,"version":"13.0b/18.0a"},{"town":"青木","koaza":"","lat":35.10508,"lng":138.920886,"version":"14.0b/19.0a"},{"town":"旭ヶ丘","koaza":"","lat":35.130301,"lng":138.931426,"version":"14.0b/19.0a"},{"town":"新谷","koaza":"","lat":35.10227,"lng":138.919392,"version":"14.0b/19.0a"},{"town":"泉町","koaza":"","lat":35.1213,"lng":138.910678,"version":"14.0b/19.0a"},{"town":"市山新田","koaza":"","lat":35.137126,"lng":138.958849,"version":"14.0b/19.0a"},{"town":"一番町","koaza":"","lat":35.12477,"lng":138.912574,"version":"14.0b/19.0a"},{"town":"壱町田","koaza":"","lat":35.132559,"lng":138.920203,"version":"14.0b/19.0a"},{"town":"大宮町一丁目","koaza":"","lat":35.122178,"lng":138.916955,"version":"14.0b/19.0a"},{"town":"大宮町二丁目","koaza":"","lat":35.122573,"lng":138.920344,"version":"14.0b/19.0a"},{"town":"大宮町三丁目","koaza":"","lat":35.126238,"lng":138.917274,"version":"14.0b/19.0a"},{"town":"加茂","koaza":"","lat":35.134875,"lng":138.93184,"version":"14.0b/19.0a"},{"town":"加茂川町","koaza":"","lat":35.125116,"lng":138.92265,"version":"14.0b/19.0a"},{"town":"加屋町","koaza":"","lat":35.116087,"lng":138.906412,"version":"14.0b/19.0a"},{"town":"川原ケ谷","koaza":"","lat":35.141769,"lng":138.945144,"version":"14.0b/19.0a"},{"town":"北沢","koaza":"","lat":35.103499,"lng":138.93953,"version":"14.0b/19.0a"},{"town":"北田町","koaza":"","lat":35.117183,"lng":138.917826,"version":"14.0b/19.0a"},{"town":"清住町","koaza":"","lat":35.113633,"lng":138.907109,"version":"14.0b/19.0a"},{"town":"幸原町一丁目","koaza":"","lat":35.137234,"lng":138.913807,"version":"14.0b/19.0a"},{"town":"幸原町二丁目","koaza":"","lat":35.139213,"lng":138.910562,"version":"14.0b/19.0a"},{"town":"寿町","koaza":"","lat":35.123981,"lng":138.907957,"version":"14.0b/19.0a"},{"town":"栄町","koaza":"","lat":35.119158,"lng":138.908079,"version":"14.0b/19.0a"},{"town":"笹原新田","koaza":"","lat":35.145849,"lng":138.979233,"version":"14.0b/19.0a"},{"town":"佐野","koaza":"","lat":35.168298,"lng":138.939221,"version":"14.0b/19.0a"},{"town":"佐野見晴台一丁目","koaza":"","lat":35.163753,"lng":138.94364,"version":"14.0b/19.0a"},{"town":"佐野見晴台二丁目","koaza":"","lat":35.164249,"lng":138.948919,"version":"14.0b/19.0a"},{"town":"沢地","koaza":"","lat":35.148822,"lng":138.938357,"version":"14.0b/19.0a"},{"town":"三恵台","koaza":"","lat":35.130656,"lng":138.939982,"version":"14.0b/19.0a"},{"town":"芝本町","koaza":"","lat":35.121751,"lng":138.913843,"version":"14.0b/19.0a"},{"town":"末広町","koaza":"","lat":35.13536,"lng":138.911183,"version":"14.0b/19.0a"},{"town":"千枚原","koaza":"","lat":35.137728,"lng":138.921204,"version":"14.0b/19.0a"},{"town":"大社町","koaza":"","lat":35.119812,"lng":138.920766,"version":"14.0b/19.0a"},{"town":"大場","koaza":"","lat":35.099046,"lng":138.946257,"version":"14.0b/19.0a"},{"town":"竹倉","koaza":"","lat":35.1182,"lng":138.946179,"version":"14.0b/19.0a"},{"town":"玉川","koaza":"","lat":35.106695,"lng":138.913092,"version":"14.0b/19.0a"},{"town":"玉沢","koaza":"","lat":35.12539,"lng":138.965148,"version":"14.0b/19.0a"},{"town":"多呂","koaza":"","lat":35.098339,"lng":138.938394,"version":"14.0b/19.0a"},{"town":"中央町","koaza":"","lat":35.120255,"lng":138.91719,"version":"14.0b/19.0a"},{"town":"塚原新田","koaza":"","lat":35.136195,"lng":138.950737,"version":"14.0b/19.0a"},{"town":"鶴喰","koaza":"","lat":35.103791,"lng":138.926917,"version":"14.0b/19.0a"},{"town":"徳倉","koaza":"","lat":35.151136,"lng":138.923879,"version":"14.0b/19.0a"},{"town":"徳倉一丁目","koaza":"","lat":35.140189,"lng":138.913326,"version":"14.0b/19.0a"},{"town":"徳倉二丁目","koaza":"","lat":35.137892,"lng":138.91773,"version":"14.0b/19.0a"},{"town":"徳倉三丁目","koaza":"","lat":35.143136,"lng":138.917887,"version":"14.0b/19.0a"},{"town":"徳倉四丁目","koaza":"","lat":35.144065,"lng":138.912072,"version":"14.0b/19.0a"},{"town":"徳倉五丁目","koaza":"","lat":35.148124,"lng":138.914958,"version":"14.0b/19.0a"},{"town":"富田町","koaza":"","lat":35.108887,"lng":138.917774,"version":"14.0b/19.0a"},{"town":"中","koaza":"","lat":35.106679,"lng":138.930867,"version":"14.0b/19.0a"},{"town":"中島","koaza":"","lat":35.097139,"lng":138.932625,"version":"14.0b/19.0a"},{"town":"中田町","koaza":"","lat":35.114833,"lng":138.917577,"version":"14.0b/19.0a"},{"town":"長伏","koaza":"","lat":35.086785,"lng":138.913834,"version":"14.0b/19.0a"},{"town":"西旭ケ丘町","koaza":"","lat":35.129149,"lng":138.928094,"version":"14.0b/19.0a"},{"town":"錦が丘","koaza":"","lat":35.111195,"lng":138.94662,"version":"14.0b/19.0a"},{"town":"西本町","koaza":"","lat":35.117625,"lng":138.908765,"version":"14.0b/19.0a"},{"town":"西若町","koaza":"","lat":35.121665,"lng":138.906773,"version":"14.0b/19.0a"},{"town":"萩","koaza":"","lat":35.151845,"lng":138.908931,"version":"14.0b/19.0a"},{"town":"八反畑","koaza":"","lat":35.100715,"lng":138.925803,"version":"14.0b/19.0a"},{"town":"初音台","koaza":"","lat":35.125677,"lng":138.934321,"version":"14.0b/19.0a"},{"town":"東壱町田","koaza":"","lat":35.132574,"lng":138.923206,"version":"14.0b/19.0a"},{"town":"東大場一丁目","koaza":"","lat":35.109122,"lng":138.950514,"version":"14.0b/19.0a"},{"town":"東大場二丁目","koaza":"","lat":35.108699,"lng":138.952946,"version":"14.0b/19.0a"},{"town":"東町","koaza":"","lat":35.117274,"lng":138.92474,"version":"14.0b/19.0a"},{"town":"東本町一丁目","koaza":"","lat":35.116249,"lng":138.921283,"version":"14.0b/19.0a"},{"town":"東本町二丁目","koaza":"","lat":35.113624,"lng":138.922921,"version":"14.0b/19.0a"},{"town":"光ケ丘","koaza":"","lat":35.136142,"lng":138.925925,"version":"14.0b/19.0a"},{"town":"日の出町","koaza":"","lat":35.120659,"lng":138.92441,"version":"14.0b/19.0a"},{"town":"平田","koaza":"","lat":35.100771,"lng":138.915378,"version":"14.0b/19.0a"},{"town":"広小路町","koaza":"","lat":35.118845,"lng":138.910885,"version":"14.0b/19.0a"},{"town":"藤代町","koaza":"","lat":35.10687,"lng":138.923796,"version":"14.0b/19.0a"},{"town":"富士ビレッジ","koaza":"","lat":35.141282,"lng":138.921112,"version":"14.0b/19.0a"},{"town":"富士見台","koaza":"","lat":35.142348,"lng":138.932427,"version":"14.0b/19.0a"},{"town":"芙蓉台一丁目","koaza":"","lat":35.152988,"lng":138.913327,"version":"14.0b/19.0a"},{"town":"芙蓉台二丁目","koaza":"","lat":35.154715,"lng":138.917569,"version":"14.0b/19.0a"},{"town":"芙蓉台三丁目","koaza":"","lat":35.15685,"lng":138.91866,"version":"14.0b/19.0a"},{"town":"文教町一丁目","koaza":"","lat":35.130489,"lng":138.912811,"version":"14.0b/19.0a"},{"town":"文教町二丁目","koaza":"","lat":35.132686,"lng":138.915811,"version":"14.0b/19.0a"},{"town":"平成台","koaza":"","lat":35.153002,"lng":138.942271,"version":"14.0b/19.0a"},{"town":"本町","koaza":"","lat":35.119093,"lng":138.91402,"version":"14.0b/19.0a"},{"town":"松が丘","koaza":"","lat":35.122747,"lng":138.935367,"version":"14.0b/19.0a"},{"town":"松本","koaza":"","lat":35.090853,"lng":138.918694,"version":"14.0b/19.0a"},{"town":"三ツ谷新田","koaza":"","lat":35.14277,"lng":138.971897,"version":"14.0b/19.0a"},{"town":"緑町","koaza":"","lat":35.11517,"lng":138.91097,"version":"14.0b/19.0a"},{"town":"南田町","koaza":"","lat":35.112135,"lng":138.916956,"version":"14.0b/19.0a"},{"town":"南町","koaza":"","lat":35.111561,"lng":138.912506,"version":"14.0b/19.0a"},{"town":"南二日町","koaza":"","lat":35.110383,"lng":138.924416,"version":"14.0b/19.0a"},{"town":"南本町","koaza":"","lat":35.115517,"lng":138.914596,"version":"14.0b/19.0a"},{"town":"三好町","koaza":"","lat":35.110312,"lng":138.908888,"version":"14.0b/19.0a"},{"town":"谷田","koaza":"","lat":35.127453,"lng":138.949664,"version":"14.0b/19.0a"},{"town":"柳郷地","koaza":"","lat":35.117475,"lng":138.940308,"version":"14.0b/19.0a"},{"town":"山中新田","koaza":"","lat":35.151996,"lng":138.991666,"version":"14.0b/19.0a"},{"town":"若松町","koaza":"","lat":35.131221,"lng":138.925928,"version":"14.0b/19.0a"},{"town":"梅名","koaza":"","lat":35.093838,"lng":138.925637,"version":"14.0b/19.0a"},{"town":"御園","koaza":"","lat":35.080175,"lng":138.921695,"version":"14.0b/19.0a"},{"town":"安久","koaza":"","lat":35.084913,"lng":138.92777,"version":"14.0b/19.0a"},{"town":"（大字なし）","koaza":"","lat":35.159267,"lng":138.964839,"version":"14.0b/19.0a"},{"town":"谷田","koaza":"雪沢","lat":35.115781,"lng":138.928775,"version":"14.0b/19.0a"},{"town":"谷田","koaza":"東富士見","lat":35.115541,"lng":138.931684,"version":"14.0b/19.0a"},{"town":"谷田","koaza":"藤久保","lat":35.122176,"lng":138.951781,"version":"14.0b/19.0a"}]