[{"town":"青木","koaza":"","lat":34.935385,"lng":138.362507,"version":"13.0b/18.0a"},{"town":"青沢","koaza":"","lat":34.965411,"lng":138.450049,"version":"13.0b/18.0a"},{"town":"安居","koaza":"","lat":34.961178,"lng":138.460772,"version":"13.0b/18.0a"},{"town":"有明町","koaza":"","lat":34.966746,"lng":138.407776,"version":"13.0b/18.0a"},{"town":"池田","koaza":"","lat":34.981945,"lng":138.437412,"version":"13.0b/18.0a"},{"town":"石田一丁目","koaza":"","lat":34.961192,"lng":138.400132,"version":"13.0b/18.0a"},{"town":"石田二丁目","koaza":"","lat":34.958053,"lng":138.403652,"version":"13.0b/18.0a"},{"town":"石田三丁目","koaza":"","lat":34.956295,"lng":138.400869,"version":"13.0b/18.0a"},{"town":"泉町","koaza":"","lat":34.968402,"lng":138.386895,"version":"13.0b/18.0a"},{"town":"稲川一丁目","koaza":"","lat":34.967701,"lng":138.390761,"version":"13.0b/18.0a"},{"town":"稲川二丁目","koaza":"","lat":34.969114,"lng":138.39306,"version":"13.0b/18.0a"},{"town":"稲川三丁目","koaza":"","lat":34.967725,"lng":138.394392,"version":"13.0b/18.0a"},{"town":"宇津ノ谷","koaza":"","lat":34.943229,"lng":138.299544,"version":"13.0b/18.0a"},{"town":"有東一丁目","koaza":"","lat":34.965966,"lng":138.404368,"version":"13.0b/18.0a"},{"town":"有東二丁目","koaza":"","lat":34.963705,"lng":138.406591,"version":"13.0b/18.0a"},{"town":"有東三丁目","koaza":"","lat":34.962777,"lng":138.409941,"version":"13.0b/18.0a"},{"town":"大坪町","koaza":"","lat":34.965156,"lng":138.396642,"version":"13.0b/18.0a"},{"town":"大谷","koaza":"","lat":34.957328,"lng":138.436695,"version":"13.0b/18.0a"},{"town":"大谷一丁目","koaza":"","lat":34.948675,"lng":138.42809,"version":"13.0b/18.0a"},{"town":"大谷二丁目","koaza":"","lat":34.949074,"lng":138.430737,"version":"13.0b/18.0a"},{"town":"大谷三丁目","koaza":"","lat":34.949964,"lng":138.434949,"version":"13.0b/18.0a"},{"town":"大和田","koaza":"","lat":34.933384,"lng":138.354178,"version":"13.0b/18.0a"},{"town":"小黒一丁目","koaza":"","lat":34.974607,"lng":138.401448,"version":"13.0b/18.0a"},{"town":"小黒二丁目","koaza":"","lat":34.972838,"lng":138.40267,"version":"13.0b/18.0a"},{"town":"小黒三丁目","koaza":"","lat":34.970544,"lng":138.404725,"version":"13.0b/18.0a"},{"town":"小坂","koaza":"","lat":34.921331,"lng":138.341487,"version":"13.0b/18.0a"},{"town":"小坂一丁目","koaza":"","lat":34.926661,"lng":138.356871,"version":"13.0b/18.0a"},{"town":"小坂二丁目","koaza":"","lat":34.930254,"lng":138.356583,"version":"13.0b/18.0a"},{"town":"小坂三丁目","koaza":"","lat":34.927585,"lng":138.354612,"version":"13.0b/18.0a"},{"town":"小鹿","koaza":"","lat":34.972206,"lng":138.43587,"version":"13.0b/18.0a"},{"town":"小鹿一丁目","koaza":"","lat":34.976753,"lng":138.417493,"version":"13.0b/18.0a"},{"town":"小鹿二丁目","koaza":"","lat":34.972869,"lng":138.420271,"version":"13.0b/18.0a"},{"town":"小鹿三丁目","koaza":"","lat":34.971708,"lng":138.415628,"version":"13.0b/18.0a"},{"town":"恩田原","koaza":"","lat":34.966147,"lng":138.418663,"version":"13.0b/18.0a"},{"town":"片山","koaza":"","lat":34.963629,"lng":138.422892,"version":"13.0b/18.0a"},{"town":"北丸子一丁目","koaza":"","lat":34.951147,"lng":138.35101,"version":"13.0b/18.0a"},{"town":"北丸子二丁目","koaza":"","lat":34.951633,"lng":138.344756,"version":"13.0b/18.0a"},{"town":"国吉田","koaza":"","lat":34.98595,"lng":138.441436,"version":"13.0b/18.0a"},{"town":"国吉田一丁目","koaza":"","lat":34.998421,"lng":138.428221,"version":"13.0b/18.0a"},{"town":"国吉田二丁目","koaza":"","lat":34.996585,"lng":138.429899,"version":"13.0b/18.0a"},{"town":"国吉田三丁目","koaza":"","lat":34.995188,"lng":138.432538,"version":"13.0b/18.0a"},{"town":"国吉田四丁目","koaza":"","lat":34.99278,"lng":138.432746,"version":"13.0b/18.0a"},{"town":"国吉田五丁目","koaza":"","lat":34.991263,"lng":138.435359,"version":"13.0b/18.0a"},{"town":"国吉田六丁目","koaza":"","lat":34.98832,"lng":138.438472,"version":"13.0b/18.0a"},{"town":"栗原","koaza":"","lat":34.992158,"lng":138.427401,"version":"13.0b/18.0a"},{"town":"光陽町","koaza":"","lat":34.941104,"lng":138.373134,"version":"13.0b/18.0a"},{"town":"寿町","koaza":"","lat":34.962263,"lng":138.379128,"version":"13.0b/18.0a"},{"town":"さつき町","koaza":"","lat":34.975236,"lng":138.398826,"version":"13.0b/18.0a"},{"town":"敷地一丁目","koaza":"","lat":34.951735,"lng":138.411575,"version":"13.0b/18.0a"},{"town":"敷地二丁目","koaza":"","lat":34.949542,"lng":138.414485,"version":"13.0b/18.0a"},{"town":"下川原一丁目","koaza":"","lat":34.941421,"lng":138.380941,"version":"13.0b/18.0a"},{"town":"下川原二丁目","koaza":"","lat":34.938872,"lng":138.376152,"version":"13.0b/18.0a"},{"town":"下川原三丁目","koaza":"","lat":34.937176,"lng":138.372691,"version":"13.0b/18.0a"},{"town":"下川原四丁目","koaza":"","lat":34.937729,"lng":138.383769,"version":"13.0b/18.0a"},{"town":"下川原五丁目","koaza":"","lat":34.935306,"lng":138.379176,"version":"13.0b/18.0a"},{"town":"下川原六丁目","koaza":"","lat":34.933361,"lng":138.374831,"version":"13.0b/18.0a"},{"town":"下川原南","koaza":"","lat":34.932536,"lng":138.384163,"version":"13.0b/18.0a"},{"town":"下島","koaza":"","lat":34.946262,"lng":138.40846,"version":"13.0b/18.0a"},{"town":"新川一丁目","koaza":"","lat":34.964117,"lng":138.3816,"version":"13.0b/18.0a"},{"town":"新川二丁目","koaza":"","lat":34.961531,"lng":138.385413,"version":"13.0b/18.0a"},{"town":"石部","koaza":"","lat":34.909951,"lng":138.34973,"version":"13.0b/18.0a"},{"town":"高松","koaza":"","lat":34.946937,"lng":138.41979,"version":"13.0b/18.0a"},{"town":"高松一丁目","koaza":"","lat":34.956326,"lng":138.418313,"version":"13.0b/18.0a"},{"town":"高松二丁目","koaza":"","lat":34.952901,"lng":138.421402,"version":"13.0b/18.0a"},{"town":"津島町","koaza":"","lat":34.959889,"lng":138.382737,"version":"13.0b/18.0a"},{"town":"手越","koaza":"","lat":34.955531,"lng":138.364471,"version":"13.0b/18.0a"},{"town":"手越原","koaza":"","lat":34.951071,"lng":138.363257,"version":"13.0b/18.0a"},{"town":"寺田","koaza":"","lat":34.93984,"lng":138.358246,"version":"13.0b/18.0a"},{"town":"東新田","koaza":"","lat":34.950073,"lng":138.369676,"version":"13.0b/18.0a"},{"town":"東新田一丁目","koaza":"","lat":34.95153,"lng":138.373339,"version":"13.0b/18.0a"},{"town":"東新田二丁目","koaza":"","lat":34.9481,"lng":138.37636,"version":"13.0b/18.0a"},{"town":"東新田三丁目","koaza":"","lat":34.945635,"lng":138.371755,"version":"13.0b/18.0a"},{"town":"東新田四丁目","koaza":"","lat":34.944355,"lng":138.378861,"version":"13.0b/18.0a"},{"town":"東新田五丁目","koaza":"","lat":34.941949,"lng":138.371951,"version":"13.0b/18.0a"},{"town":"豊田一丁目","koaza":"","lat":34.970767,"lng":138.409538,"version":"13.0b/18.0a"},{"town":"豊田二丁目","koaza":"","lat":34.968772,"lng":138.41332,"version":"13.0b/18.0a"},{"town":"豊田三丁目","koaza":"","lat":34.967124,"lng":138.410641,"version":"13.0b/18.0a"},{"town":"豊原町","koaza":"","lat":34.976263,"lng":138.400688,"version":"13.0b/18.0a"},{"town":"登呂一丁目","koaza":"","lat":34.960876,"lng":138.411905,"version":"13.0b/18.0a"},{"town":"登呂二丁目","koaza":"","lat":34.958422,"lng":138.414813,"version":"13.0b/18.0a"},{"town":"登呂三丁目","koaza":"","lat":34.959873,"lng":138.406876,"version":"13.0b/18.0a"},{"town":"登呂四丁目","koaza":"","lat":34.957003,"lng":138.410569,"version":"13.0b/18.0a"},{"town":"登呂五丁目","koaza":"","lat":34.954876,"lng":138.408098,"version":"13.0b/18.0a"},{"town":"登呂六丁目","koaza":"","lat":34.952785,"lng":138.403886,"version":"13.0b/18.0a"},{"town":"中島","koaza":"","lat":34.939481,"lng":138.394285,"version":"13.0b/18.0a"},{"town":"中田一丁目","koaza":"","lat":34.965821,"lng":138.392286,"version":"13.0b/18.0a"},{"town":"中田二丁目","koaza":"","lat":34.963378,"lng":138.394893,"version":"13.0b/18.0a"},{"town":"中田三丁目","koaza":"","lat":34.960794,"lng":138.396699,"version":"13.0b/18.0a"},{"town":"中田四丁目","koaza":"","lat":34.958131,"lng":138.398592,"version":"13.0b/18.0a"},{"town":"中田本町","koaza":"","lat":34.95709,"lng":138.394669,"version":"13.0b/18.0a"},{"town":"中野新田","koaza":"","lat":34.95094,"lng":138.384994,"version":"13.0b/18.0a"},{"town":"中原","koaza":"","lat":34.955817,"lng":138.386666,"version":"13.0b/18.0a"},{"town":"中平松","koaza":"","lat":34.954419,"lng":138.445824,"version":"13.0b/18.0a"},{"town":"中村町","koaza":"","lat":34.952514,"lng":138.393173,"version":"13.0b/18.0a"},{"town":"中吉田","koaza":"","lat":34.999064,"lng":138.433253,"version":"13.0b/18.0a"},{"town":"西大谷","koaza":"","lat":34.953264,"lng":138.426004,"version":"13.0b/18.0a"},{"town":"西島","koaza":"","lat":34.943291,"lng":138.404982,"version":"13.0b/18.0a"},{"town":"西中原一丁目","koaza":"","lat":34.958424,"lng":138.380847,"version":"13.0b/18.0a"},{"town":"西中原二丁目","koaza":"","lat":34.956023,"lng":138.377548,"version":"13.0b/18.0a"},{"town":"西平松","koaza":"","lat":34.952261,"lng":138.440274,"version":"13.0b/18.0a"},{"town":"西脇","koaza":"","lat":34.948093,"lng":138.396997,"version":"13.0b/18.0a"},{"town":"根古屋","koaza":"","lat":34.966419,"lng":138.465643,"version":"13.0b/18.0a"},{"town":"聖一色","koaza":"","lat":34.986996,"lng":138.427492,"version":"13.0b/18.0a"},{"town":"平沢","koaza":"","lat":34.980335,"lng":138.449855,"version":"13.0b/18.0a"},{"town":"広野","koaza":"","lat":34.927465,"lng":138.380217,"version":"13.0b/18.0a"},{"town":"広野一丁目","koaza":"","lat":34.934657,"lng":138.368745,"version":"13.0b/18.0a"},{"town":"広野二丁目","koaza":"","lat":34.932565,"lng":138.367878,"version":"13.0b/18.0a"},{"town":"広野三丁目","koaza":"","lat":34.930316,"lng":138.369044,"version":"13.0b/18.0a"},{"town":"広野四丁目","koaza":"","lat":34.927922,"lng":138.370651,"version":"13.0b/18.0a"},{"town":"広野六丁目","koaza":"","lat":34.928808,"lng":138.375191,"version":"13.0b/18.0a"},{"town":"広野海岸通","koaza":"","lat":34.924517,"lng":138.377334,"version":"13.0b/18.0a"},{"town":"富士見台一丁目","koaza":"","lat":34.963308,"lng":138.414443,"version":"13.0b/18.0a"},{"town":"富士見台二丁目","koaza":"","lat":34.964616,"lng":138.417305,"version":"13.0b/18.0a"},{"town":"富士見台三丁目","koaza":"","lat":34.961277,"lng":138.418268,"version":"13.0b/18.0a"},{"town":"古宿","koaza":"","lat":34.959542,"lng":138.453928,"version":"13.0b/18.0a"},{"town":"曲金一丁目","koaza":"","lat":34.978288,"lng":138.40412,"version":"13.0b/18.0a"},{"town":"曲金二丁目","koaza":"","lat":34.977421,"lng":138.406083,"version":"13.0b/18.0a"},{"town":"曲金三丁目","koaza":"","lat":34.973789,"lng":138.407928,"version":"13.0b/18.0a"},{"town":"曲金四丁目","koaza":"","lat":34.976247,"lng":138.410675,"version":"13.0b/18.0a"},{"town":"曲金五丁目","koaza":"","lat":34.978414,"lng":138.412357,"version":"13.0b/18.0a"},{"town":"曲金六丁目","koaza":"","lat":34.981462,"lng":138.412121,"version":"13.0b/18.0a"},{"town":"曲金七丁目","koaza":"","lat":34.980709,"lng":138.415651,"version":"13.0b/18.0a"},{"town":"馬渕一丁目","koaza":"","lat":34.967476,"lng":138.384051,"version":"13.0b/18.0a"},{"town":"馬渕二丁目","koaza":"","lat":34.965609,"lng":138.386456,"version":"13.0b/18.0a"},{"town":"馬渕三丁目","koaza":"","lat":34.963562,"lng":138.388562,"version":"13.0b/18.0a"},{"town":"馬渕四丁目","koaza":"","lat":34.961251,"lng":138.391016,"version":"13.0b/18.0a"},{"town":"丸子","koaza":"","lat":34.940492,"lng":138.32819,"version":"13.0b/18.0a"},{"town":"丸子一丁目","koaza":"","lat":34.946764,"lng":138.35768,"version":"13.0b/18.0a"},{"town":"丸子二丁目","koaza":"","lat":34.943225,"lng":138.356294,"version":"13.0b/18.0a"},{"town":"丸子三丁目","koaza":"","lat":34.946664,"lng":138.352768,"version":"13.0b/18.0a"},{"town":"丸子四丁目","koaza":"","lat":34.944545,"lng":138.352874,"version":"13.0b/18.0a"},{"town":"丸子五丁目","koaza":"","lat":34.942784,"lng":138.352445,"version":"13.0b/18.0a"},{"town":"丸子六丁目","koaza":"","lat":34.946909,"lng":138.348888,"version":"13.0b/18.0a"},{"town":"丸子七丁目","koaza":"","lat":34.949598,"lng":138.341848,"version":"13.0b/18.0a"},{"town":"丸子新田","koaza":"","lat":34.95131,"lng":138.367472,"version":"13.0b/18.0a"},{"town":"丸子芹が谷町","koaza":"","lat":34.942805,"lng":138.348782,"version":"13.0b/18.0a"},{"town":"水上","koaza":"","lat":34.95654,"lng":138.425269,"version":"13.0b/18.0a"},{"town":"みずほ一丁目","koaza":"","lat":34.942736,"lng":138.368339,"version":"13.0b/18.0a"},{"town":"みずほ二丁目","koaza":"","lat":34.939787,"lng":138.368729,"version":"13.0b/18.0a"},{"town":"みずほ三丁目","koaza":"","lat":34.937366,"lng":138.368871,"version":"13.0b/18.0a"},{"town":"みずほ四丁目","koaza":"","lat":34.941881,"lng":138.365466,"version":"13.0b/18.0a"},{"town":"みずほ五丁目","koaza":"","lat":34.937569,"lng":138.365976,"version":"13.0b/18.0a"},{"town":"見瀬","koaza":"","lat":34.958637,"lng":138.389238,"version":"13.0b/18.0a"},{"town":"緑が丘町","koaza":"","lat":34.953476,"lng":138.379581,"version":"13.0b/18.0a"},{"town":"南安倍三丁目","koaza":"","lat":34.958218,"lng":138.375558,"version":"13.0b/18.0a"},{"town":"南町","koaza":"","lat":34.969914,"lng":138.389598,"version":"13.0b/18.0a"},{"town":"南八幡町","koaza":"","lat":34.962576,"lng":138.402572,"version":"13.0b/18.0a"},{"town":"宮川","koaza":"","lat":34.959593,"lng":138.42329,"version":"13.0b/18.0a"},{"town":"宮竹一丁目","koaza":"","lat":34.954302,"lng":138.415228,"version":"13.0b/18.0a"},{"town":"宮竹二丁目","koaza":"","lat":34.951407,"lng":138.418046,"version":"13.0b/18.0a"},{"town":"宮本町","koaza":"","lat":34.965236,"lng":138.383087,"version":"13.0b/18.0a"},{"town":"向敷地","koaza":"","lat":34.961845,"lng":138.355956,"version":"13.0b/18.0a"},{"town":"用宗","koaza":"","lat":34.9321,"lng":138.362474,"version":"13.0b/18.0a"},{"town":"用宗一丁目","koaza":"","lat":34.928936,"lng":138.365212,"version":"13.0b/18.0a"},{"town":"用宗二丁目","koaza":"","lat":34.923329,"lng":138.366237,"version":"13.0b/18.0a"},{"town":"用宗三丁目","koaza":"","lat":34.922475,"lng":138.364471,"version":"13.0b/18.0a"},{"town":"用宗四丁目","koaza":"","lat":34.92134,"lng":138.362652,"version":"13.0b/18.0a"},{"town":"用宗五丁目","koaza":"","lat":34.91967,"lng":138.360555,"version":"13.0b/18.0a"},{"town":"用宗小石町","koaza":"","lat":34.927534,"lng":138.36111,"version":"13.0b/18.0a"},{"town":"用宗城山町","koaza":"","lat":34.923165,"lng":138.358908,"version":"13.0b/18.0a"},{"town":"用宗巴町","koaza":"","lat":34.93072,"lng":138.360853,"version":"13.0b/18.0a"},{"town":"桃園町","koaza":"","lat":34.930913,"lng":138.377575,"version":"13.0b/18.0a"},{"town":"森下町","koaza":"","lat":34.971959,"lng":138.393077,"version":"13.0b/18.0a"},{"town":"谷田","koaza":"","lat":34.988344,"lng":138.448186,"version":"13.0b/18.0a"},{"town":"八幡一丁目","koaza":"","lat":34.97313,"lng":138.395065,"version":"13.0b/18.0a"},{"town":"八幡二丁目","koaza":"","lat":34.970953,"lng":138.395829,"version":"13.0b/18.0a"},{"town":"八幡三丁目","koaza":"","lat":34.969448,"lng":138.397503,"version":"13.0b/18.0a"},{"town":"八幡四丁目","koaza":"","lat":34.967752,"lng":138.398466,"version":"13.0b/18.0a"},{"town":"八幡五丁目","koaza":"","lat":34.966837,"lng":138.400905,"version":"13.0b/18.0a"},{"town":"八幡山","koaza":"","lat":34.969899,"lng":138.40144,"version":"13.0b/18.0a"},{"town":"大和一丁目","koaza":"","lat":34.974286,"lng":138.396951,"version":"13.0b/18.0a"},{"town":"大和二丁目","koaza":"","lat":34.972507,"lng":138.398683,"version":"13.0b/18.0a"},{"town":"弥生町","koaza":"","lat":35.003182,"lng":138.435874,"version":"13.0b/18.0a"},{"town":"鎌田","koaza":"","lat":34.944163,"lng":138.361665,"version":"13.0b/18.0a"},{"town":"下川原","koaza":"","lat":34.946646,"lng":138.36417,"version":"13.0b/18.0a"},{"town":"上川原","koaza":"","lat":34.947288,"lng":138.364716,"version":"13.0b/18.0a"},{"town":"広野五丁目","koaza":"","lat":34.924176,"lng":138.37241,"version":"13.0b/18.0a"},{"town":"港","koaza":"","lat":34.924975,"lng":138.368061,"version":"13.0b/18.0a"},{"town":"東静岡二丁目","koaza":"","lat":34.984965,"lng":138.416731,"version":"13.0b/18.0a"},{"town":"向手越一丁目","koaza":"","lat":34.951815,"lng":138.360714,"version":"13.0b/18.0a"},{"town":"向手越二丁目","koaza":"","lat":34.950862,"lng":138.358764,"version":"13.0b/18.0a"},{"town":"青木","koaza":"","lat":34.935385,"lng":138.362507,"version":"14.0b/19.0a"},{"town":"青沢","koaza":"","lat":34.965411,"lng":138.450049,"version":"14.0b/19.0a"},{"town":"安居","koaza":"","lat":34.961178,"lng":138.460772,"version":"14.0b/19.0a"},{"town":"有明町","koaza":"","lat":34.966746,"lng":138.407776,"version":"14.0b/19.0a"},{"town":"池田","koaza":"","lat":34.981945,"lng":138.437412,"version":"14.0b/19.0a"},{"town":"石田一丁目","koaza":"","lat":34.961192,"lng":138.400132,"version":"14.0b/19.0a"},{"town":"石田二丁目","koaza":"","lat":34.958053,"lng":138.403652,"version":"14.0b/19.0a"},{"town":"石田三丁目","koaza":"","lat":34.956295,"lng":138.400869,"version":"14.0b/19.0a"},{"town":"泉町","koaza":"","lat":34.968402,"lng":138.386895,"version":"14.0b/19.0a"},{"town":"稲川一丁目","koaza":"","lat":34.967701,"lng":138.390761,"version":"14.0b/19.0a"},{"town":"稲川二丁目","koaza":"","lat":34.969114,"lng":138.39306,"version":"14.0b/19.0a"},{"town":"稲川三丁目","koaza":"","lat":34.967725,"lng":138.394392,"version":"14.0b/19.0a"},{"town":"宇津ノ谷","koaza":"","lat":34.943229,"lng":138.299544,"version":"14.0b/19.0a"},{"town":"有東一丁目","koaza":"","lat":34.965966,"lng":138.404368,"version":"14.0b/19.0a"},{"town":"有東二丁目","koaza":"","lat":34.963705,"lng":138.406591,"version":"14.0b/19.0a"},{"town":"有東三丁目","koaza":"","lat":34.962777,"lng":138.409941,"version":"14.0b/19.0a"},{"town":"大坪町","koaza":"","lat":34.965156,"lng":138.396642,"version":"14.0b/19.0a"},{"town":"大谷","koaza":"","lat":34.957328,"lng":138.436695,"version":"14.0b/19.0a"},{"town":"大谷一丁目","koaza":"","lat":34.948675,"lng":138.42809,"version":"14.0b/19.0a"},{"town":"大谷二丁目","koaza":"","lat":34.949074,"lng":138.430737,"version":"14.0b/19.0a"},{"town":"大谷三丁目","koaza":"","lat":34.949964,"lng":138.434949,"version":"14.0b/19.0a"},{"town":"大和田","koaza":"","lat":34.933384,"lng":138.354178,"version":"14.0b/19.0a"},{"town":"小黒一丁目","koaza":"","lat":34.974607,"lng":138.401448,"version":"14.0b/19.0a"},{"town":"小黒二丁目","koaza":"","lat":34.972838,"lng":138.40267,"version":"14.0b/19.0a"},{"town":"小黒三丁目","koaza":"","lat":34.970544,"lng":138.404725,"version":"14.0b/19.0a"},{"town":"小坂","koaza":"","lat":34.921331,"lng":138.341487,"version":"14.0b/19.0a"},{"town":"小坂一丁目","koaza":"","lat":34.926661,"lng":138.356871,"version":"14.0b/19.0a"},{"town":"小坂二丁目","koaza":"","lat":34.930254,"lng":138.356583,"version":"14.0b/19.0a"},{"town":"小坂三丁目","koaza":"","lat":34.927585,"lng":138.354612,"version":"14.0b/19.0a"},{"town":"小鹿","koaza":"","lat":34.972206,"lng":138.43587,"version":"14.0b/19.0a"},{"town":"小鹿一丁目","koaza":"","lat":34.976753,"lng":138.417493,"version":"14.0b/19.0a"},{"town":"小鹿二丁目","koaza":"","lat":34.972869,"lng":138.420271,"version":"14.0b/19.0a"},{"town":"小鹿三丁目","koaza":"","lat":34.971708,"lng":138.415628,"version":"14.0b/19.0a"},{"town":"恩田原","koaza":"","lat":34.966147,"lng":138.418663,"version":"14.0b/19.0a"},{"town":"片山","koaza":"","lat":34.963629,"lng":138.422892,"version":"14.0b/19.0a"},{"town":"北丸子一丁目","koaza":"","lat":34.951147,"lng":138.35101,"version":"14.0b/19.0a"},{"town":"北丸子二丁目","koaza":"","lat":34.951633,"lng":138.344756,"version":"14.0b/19.0a"},{"town":"国吉田","koaza":"","lat":34.98595,"lng":138.441436,"version":"14.0b/19.0a"},{"town":"国吉田一丁目","koaza":"","lat":34.998421,"lng":138.428221,"version":"14.0b/19.0a"},{"town":"国吉田二丁目","koaza":"","lat":34.996585,"lng":138.429899,"version":"14.0b/19.0a"},{"town":"国吉田三丁目","koaza":"","lat":34.995188,"lng":138.432538,"version":"14.0b/19.0a"},{"town":"国吉田四丁目","koaza":"","lat":34.99278,"lng":138.432746,"version":"14.0b/19.0a"},{"town":"国吉田五丁目","koaza":"","lat":34.991263,"lng":138.435359,"version":"14.0b/19.0a"},{"town":"国吉田六丁目","koaza":"","lat":34.98832,"lng":138.438472,"version":"14.0b/19.0a"},{"town":"栗原","koaza":"","lat":34.992158,"lng":138.427401,"version":"14.0b/19.0a"},{"town":"光陽町","koaza":"","lat":34.941104,"lng":138.373134,"version":"14.0b/19.0a"},{"town":"寿町","koaza":"","lat":34.962263,"lng":138.379128,"version":"14.0b/19.0a"},{"town":"さつき町","koaza":"","lat":34.975236,"lng":138.398826,"version":"14.0b/19.0a"},{"town":"敷地一丁目","koaza":"","lat":34.951735,"lng":138.411575,"version":"14.0b/19.0a"},{"town":"敷地二丁目","koaza":"","lat":34.949542,"lng":138.414485,"version":"14.0b/19.0a"},{"town":"下川原一丁目","koaza":"","lat":34.941421,"lng":138.380941,"version":"14.0b/19.0a"},{"town":"下川原二丁目","koaza":"","lat":34.938872,"lng":138.376152,"version":"14.0b/19.0a"},{"town":"下川原三丁目","koaza":"","lat":34.937176,"lng":138.372691,"version":"14.0b/19.0a"},{"town":"下川原四丁目","koaza":"","lat":34.937729,"lng":138.383769,"version":"14.0b/19.0a"},{"town":"下川原五丁目","koaza":"","lat":34.935306,"lng":138.379176,"version":"14.0b/19.0a"},{"town":"下川原六丁目","koaza":"","lat":34.933361,"lng":138.374831,"version":"14.0b/19.0a"},{"town":"下川原南","koaza":"","lat":34.932536,"lng":138.384163,"version":"14.0b/19.0a"},{"town":"下島","koaza":"","lat":34.946262,"lng":138.40846,"version":"14.0b/19.0a"},{"town":"新川一丁目","koaza":"","lat":34.964117,"lng":138.3816,"version":"14.0b/19.0a"},{"town":"新川二丁目","koaza":"","lat":34.961531,"lng":138.385413,"version":"14.0b/19.0a"},{"town":"石部","koaza":"","lat":34.909951,"lng":138.34973,"version":"14.0b/19.0a"},{"town":"高松","koaza":"","lat":34.946937,"lng":138.41979,"version":"14.0b/19.0a"},{"town":"高松一丁目","koaza":"","lat":34.956326,"lng":138.418313,"version":"14.0b/19.0a"},{"town":"高松二丁目","koaza":"","lat":34.952901,"lng":138.421402,"version":"14.0b/19.0a"},{"town":"津島町","koaza":"","lat":34.959889,"lng":138.382737,"version":"14.0b/19.0a"},{"town":"手越","koaza":"","lat":34.955531,"lng":138.364471,"version":"14.0b/19.0a"},{"town":"手越原","koaza":"","lat":34.951071,"lng":138.363257,"version":"14.0b/19.0a"},{"town":"寺田","koaza":"","lat":34.93984,"lng":138.358246,"version":"14.0b/19.0a"},{"town":"東新田","koaza":"","lat":34.950073,"lng":138.369676,"version":"14.0b/19.0a"},{"town":"東新田一丁目","koaza":"","lat":34.95153,"lng":138.373339,"version":"14.0b/19.0a"},{"town":"東新田二丁目","koaza":"","lat":34.9481,"lng":138.37636,"version":"14.0b/19.0a"},{"town":"東新田三丁目","koaza":"","lat":34.945635,"lng":138.371755,"version":"14.0b/19.0a"},{"town":"東新田四丁目","koaza":"","lat":34.944355,"lng":138.378861,"version":"14.0b/19.0a"},{"town":"東新田五丁目","koaza":"","lat":34.941949,"lng":138.371951,"version":"14.0b/19.0a"},{"town":"豊田一丁目","koaza":"","lat":34.970767,"lng":138.409538,"version":"14.0b/19.0a"},{"town":"豊田二丁目","koaza":"","lat":34.968772,"lng":138.41332,"version":"14.0b/19.0a"},{"town":"豊田三丁目","koaza":"","lat":34.967124,"lng":138.410641,"version":"14.0b/19.0a"},{"town":"豊原町","koaza":"","lat":34.976263,"lng":138.400688,"version":"14.0b/19.0a"},{"town":"登呂一丁目","koaza":"","lat":34.960876,"lng":138.411905,"version":"14.0b/19.0a"},{"town":"登呂二丁目","koaza":"","lat":34.958422,"lng":138.414813,"version":"14.0b/19.0a"},{"town":"登呂三丁目","koaza":"","lat":34.959873,"lng":138.406876,"version":"14.0b/19.0a"},{"town":"登呂四丁目","koaza":"","lat":34.957003,"lng":138.410569,"version":"14.0b/19.0a"},{"town":"登呂五丁目","koaza":"","lat":34.954876,"lng":138.408098,"version":"14.0b/19.0a"},{"town":"登呂六丁目","koaza":"","lat":34.952785,"lng":138.403886,"version":"14.0b/19.0a"},{"town":"中島","koaza":"","lat":34.939481,"lng":138.394285,"version":"14.0b/19.0a"},{"town":"中田一丁目","koaza":"","lat":34.965821,"lng":138.392286,"version":"14.0b/19.0a"},{"town":"中田二丁目","koaza":"","lat":34.963378,"lng":138.394893,"version":"14.0b/19.0a"},{"town":"中田三丁目","koaza":"","lat":34.960794,"lng":138.396699,"version":"14.0b/19.0a"},{"town":"中田四丁目","koaza":"","lat":34.958131,"lng":138.398592,"version":"14.0b/19.0a"},{"town":"中田本町","koaza":"","lat":34.95709,"lng":138.394669,"version":"14.0b/19.0a"},{"town":"中野新田","koaza":"","lat":34.95094,"lng":138.384994,"version":"14.0b/19.0a"},{"town":"中原","koaza":"","lat":34.955817,"lng":138.386666,"version":"14.0b/19.0a"},{"town":"中平松","koaza":"","lat":34.954419,"lng":138.445824,"version":"14.0b/19.0a"},{"town":"中村町","koaza":"","lat":34.952514,"lng":138.393173,"version":"14.0b/19.0a"},{"town":"中吉田","koaza":"","lat":34.999064,"lng":138.433253,"version":"14.0b/19.0a"},{"town":"西大谷","koaza":"","lat":34.953264,"lng":138.426004,"version":"14.0b/19.0a"},{"town":"西島","koaza":"","lat":34.943291,"lng":138.404982,"version":"14.0b/19.0a"},{"town":"西中原一丁目","koaza":"","lat":34.958424,"lng":138.380847,"version":"14.0b/19.0a"},{"town":"西中原二丁目","koaza":"","lat":34.956023,"lng":138.377548,"version":"14.0b/19.0a"},{"town":"西平松","koaza":"","lat":34.952261,"lng":138.440274,"version":"14.0b/19.0a"},{"town":"西脇","koaza":"","lat":34.948093,"lng":138.396997,"version":"14.0b/19.0a"},{"town":"根古屋","koaza":"","lat":34.966419,"lng":138.465643,"version":"14.0b/19.0a"},{"town":"聖一色","koaza":"","lat":34.986996,"lng":138.427492,"version":"14.0b/19.0a"},{"town":"平沢","koaza":"","lat":34.980335,"lng":138.449855,"version":"14.0b/19.0a"},{"town":"広野","koaza":"","lat":34.927465,"lng":138.380217,"version":"14.0b/19.0a"},{"town":"広野一丁目","koaza":"","lat":34.934657,"lng":138.368745,"version":"14.0b/19.0a"},{"town":"広野二丁目","koaza":"","lat":34.932565,"lng":138.367878,"version":"14.0b/19.0a"},{"town":"広野三丁目","koaza":"","lat":34.930316,"lng":138.369044,"version":"14.0b/19.0a"},{"town":"広野四丁目","koaza":"","lat":34.927922,"lng":138.370651,"version":"14.0b/19.0a"},{"town":"広野六丁目","koaza":"","lat":34.928808,"lng":138.375191,"version":"14.0b/19.0a"},{"town":"広野海岸通","koaza":"","lat":34.924517,"lng":138.377334,"version":"14.0b/19.0a"},{"town":"富士見台一丁目","koaza":"","lat":34.963308,"lng":138.414443,"version":"14.0b/19.0a"},{"town":"富士見台二丁目","koaza":"","lat":34.964616,"lng":138.417305,"version":"14.0b/19.0a"},{"town":"富士見台三丁目","koaza":"","lat":34.961277,"lng":138.418268,"version":"14.0b/19.0a"},{"town":"古宿","koaza":"","lat":34.959542,"lng":138.453928,"version":"14.0b/19.0a"},{"town":"曲金一丁目","koaza":"","lat":34.978288,"lng":138.40412,"version":"14.0b/19.0a"},{"town":"曲金二丁目","koaza":"","lat":34.977421,"lng":138.406083,"version":"14.0b/19.0a"},{"town":"曲金三丁目","koaza":"","lat":34.973789,"lng":138.407928,"version":"14.0b/19.0a"},{"town":"曲金四丁目","koaza":"","lat":34.976247,"lng":138.410675,"version":"14.0b/19.0a"},{"town":"曲金五丁目","koaza":"","lat":34.978414,"lng":138.412357,"version":"14.0b/19.0a"},{"town":"曲金六丁目","koaza":"","lat":34.981462,"lng":138.412121,"version":"14.0b/19.0a"},{"town":"曲金七丁目","koaza":"","lat":34.980709,"lng":138.415651,"version":"14.0b/19.0a"},{"town":"馬渕一丁目","koaza":"","lat":34.967476,"lng":138.384051,"version":"14.0b/19.0a"},{"town":"馬渕二丁目","koaza":"","lat":34.965609,"lng":138.386456,"version":"14.0b/19.0a"},{"town":"馬渕三丁目","koaza":"","lat":34.963562,"lng":138.388562,"version":"14.0b/19.0a"},{"town":"馬渕四丁目","koaza":"","lat":34.961251,"lng":138.391016,"version":"14.0b/19.0a"},{"town":"丸子","koaza":"","lat":34.940492,"lng":138.32819,"version":"14.0b/19.0a"},{"town":"丸子一丁目","koaza":"","lat":34.946764,"lng":138.35768,"version":"14.0b/19.0a"},{"town":"丸子二丁目","koaza":"","lat":34.943225,"lng":138.356294,"version":"14.0b/19.0a"},{"town":"丸子三丁目","koaza":"","lat":34.946664,"lng":138.352768,"version":"14.0b/19.0a"},{"town":"丸子四丁目","koaza":"","lat":34.944545,"lng":138.352874,"version":"14.0b/19.0a"},{"town":"丸子五丁目","koaza":"","lat":34.942784,"lng":138.352445,"version":"14.0b/19.0a"},{"town":"丸子六丁目","koaza":"","lat":34.946909,"lng":138.348888,"version":"14.0b/19.0a"},{"town":"丸子七丁目","koaza":"","lat":34.949598,"lng":138.341848,"version":"14.0b/19.0a"},{"town":"丸子新田","koaza":"","lat":34.95131,"lng":138.367472,"version":"14.0b/19.0a"},{"town":"丸子芹が谷町","koaza":"","lat":34.942805,"lng":138.348782,"version":"14.0b/19.0a"},{"town":"水上","koaza":"","lat":34.95654,"lng":138.425269,"version":"14.0b/19.0a"},{"town":"みずほ一丁目","koaza":"","lat":34.942736,"lng":138.368339,"version":"14.0b/19.0a"},{"town":"みずほ二丁目","koaza":"","lat":34.939787,"lng":138.368729,"version":"14.0b/19.0a"},{"town":"みずほ三丁目","koaza":"","lat":34.937366,"lng":138.368871,"version":"14.0b/19.0a"},{"town":"みずほ四丁目","koaza":"","lat":34.941881,"lng":138.365466,"version":"14.0b/19.0a"},{"town":"みずほ五丁目","koaza":"","lat":34.937569,"lng":138.365976,"version":"14.0b/19.0a"},{"town":"見瀬","koaza":"","lat":34.958637,"lng":138.389238,"version":"14.0b/19.0a"},{"town":"緑が丘町","koaza":"","lat":34.953476,"lng":138.379581,"version":"14.0b/19.0a"},{"town":"南安倍三丁目","koaza":"","lat":34.958218,"lng":138.375558,"version":"14.0b/19.0a"},{"town":"南町","koaza":"","lat":34.969914,"lng":138.389598,"version":"14.0b/19.0a"},{"town":"南八幡町","koaza":"","lat":34.962576,"lng":138.402572,"version":"14.0b/19.0a"},{"town":"宮川","koaza":"","lat":34.959593,"lng":138.42329,"version":"14.0b/19.0a"},{"town":"宮竹一丁目","koaza":"","lat":34.954302,"lng":138.415228,"version":"14.0b/19.0a"},{"town":"宮竹二丁目","koaza":"","lat":34.951407,"lng":138.418046,"version":"14.0b/19.0a"},{"town":"宮本町","koaza":"","lat":34.965236,"lng":138.383087,"version":"14.0b/19.0a"},{"town":"向敷地","koaza":"","lat":34.961845,"lng":138.355956,"version":"14.0b/19.0a"},{"town":"用宗","koaza":"","lat":34.9321,"lng":138.362474,"version":"14.0b/19.0a"},{"town":"用宗一丁目","koaza":"","lat":34.928936,"lng":138.365212,"version":"14.0b/19.0a"},{"town":"用宗二丁目","koaza":"","lat":34.923329,"lng":138.366237,"version":"14.0b/19.0a"},{"town":"用宗三丁目","koaza":"","lat":34.922475,"lng":138.364471,"version":"14.0b/19.0a"},{"town":"用宗四丁目","koaza":"","lat":34.92134,"lng":138.362652,"version":"14.0b/19.0a"},{"town":"用宗五丁目","koaza":"","lat":34.91967,"lng":138.360555,"version":"14.0b/19.0a"},{"town":"用宗小石町","koaza":"","lat":34.927534,"lng":138.36111,"version":"14.0b/19.0a"},{"town":"用宗城山町","koaza":"","lat":34.923165,"lng":138.358908,"version":"14.0b/19.0a"},{"town":"用宗巴町","koaza":"","lat":34.93072,"lng":138.360853,"version":"14.0b/19.0a"},{"town":"桃園町","koaza":"","lat":34.930913,"lng":138.377575,"version":"14.0b/19.0a"},{"town":"森下町","koaza":"","lat":34.971959,"lng":138.393077,"version":"14.0b/19.0a"},{"town":"谷田","koaza":"","lat":34.988344,"lng":138.448186,"version":"14.0b/19.0a"},{"town":"八幡一丁目","koaza":"","lat":34.97313,"lng":138.395065,"version":"14.0b/19.0a"},{"town":"八幡二丁目","koaza":"","lat":34.970953,"lng":138.395829,"version":"14.0b/19.0a"},{"town":"八幡三丁目","koaza":"","lat":34.969448,"lng":138.397503,"version":"14.0b/19.0a"},{"town":"八幡四丁目","koaza":"","lat":34.967752,"lng":138.398466,"version":"14.0b/19.0a"},{"town":"八幡五丁目","koaza":"","lat":34.966837,"lng":138.400905,"version":"14.0b/19.0a"},{"town":"八幡山","koaza":"","lat":34.969899,"lng":138.40144,"version":"14.0b/19.0a"},{"town":"大和一丁目","koaza":"","lat":34.974286,"lng":138.396951,"version":"14.0b/19.0a"},{"town":"大和二丁目","koaza":"","lat":34.972507,"lng":138.398683,"version":"14.0b/19.0a"},{"town":"弥生町","koaza":"","lat":35.003182,"lng":138.435874,"version":"14.0b/19.0a"},{"town":"鎌田","koaza":"","lat":34.944163,"lng":138.361665,"version":"14.0b/19.0a"},{"town":"下川原","koaza":"","lat":34.946646,"lng":138.36417,"version":"14.0b/19.0a"},{"town":"上川原","koaza":"","lat":34.947288,"lng":138.364716,"version":"14.0b/19.0a"},{"town":"広野五丁目","koaza":"","lat":34.924176,"lng":138.37241,"version":"14.0b/19.0a"},{"town":"港","koaza":"","lat":34.924975,"lng":138.368061,"version":"14.0b/19.0a"},{"town":"東静岡二丁目","koaza":"","lat":34.984965,"lng":138.416731,"version":"14.0b/19.0a"},{"town":"向手越一丁目","koaza":"","lat":34.951815,"lng":138.360714,"version":"14.0b/19.0a"},{"town":"向手越二丁目","koaza":"","lat":34.950862,"lng":138.358764,"version":"14.0b/19.0a"}]