[{"town":"相生町","koaza":"","lat":35.016462,"lng":138.48823,"version":"13.0b/18.0a"},{"town":"愛染町","koaza":"","lat":35.028588,"lng":138.489998,"version":"13.0b/18.0a"},{"town":"青葉町","koaza":"","lat":35.008414,"lng":138.476207,"version":"13.0b/18.0a"},{"town":"秋吉町","koaza":"","lat":35.030202,"lng":138.480661,"version":"13.0b/18.0a"},{"town":"旭町","koaza":"","lat":35.016292,"lng":138.489362,"version":"13.0b/18.0a"},{"town":"淡島町","koaza":"","lat":35.014183,"lng":138.478883,"version":"13.0b/18.0a"},{"town":"飯田町","koaza":"","lat":35.032119,"lng":138.470988,"version":"13.0b/18.0a"},{"town":"石川","koaza":"","lat":35.038247,"lng":138.456741,"version":"13.0b/18.0a"},{"town":"石川新町","koaza":"","lat":35.032389,"lng":138.457514,"version":"13.0b/18.0a"},{"town":"石川本町","koaza":"","lat":35.033108,"lng":138.460655,"version":"13.0b/18.0a"},{"town":"庵原町","koaza":"","lat":35.051474,"lng":138.471547,"version":"13.0b/18.0a"},{"town":"今泉","koaza":"","lat":35.003442,"lng":138.464551,"version":"13.0b/18.0a"},{"town":"入江一丁目","koaza":"","lat":35.018339,"lng":138.481788,"version":"13.0b/18.0a"},{"town":"入江二丁目","koaza":"","lat":35.017651,"lng":138.479308,"version":"13.0b/18.0a"},{"town":"入江三丁目","koaza":"","lat":35.017345,"lng":138.476816,"version":"13.0b/18.0a"},{"town":"入江岡町","koaza":"","lat":35.013015,"lng":138.479871,"version":"13.0b/18.0a"},{"town":"入江南町","koaza":"","lat":35.016264,"lng":138.478821,"version":"13.0b/18.0a"},{"town":"入船町","koaza":"","lat":35.010133,"lng":138.492172,"version":"13.0b/18.0a"},{"town":"有東坂","koaza":"","lat":35.007069,"lng":138.463167,"version":"13.0b/18.0a"},{"town":"有東坂一丁目","koaza":"","lat":35.009001,"lng":138.466879,"version":"13.0b/18.0a"},{"town":"有東坂二丁目","koaza":"","lat":35.007261,"lng":138.465979,"version":"13.0b/18.0a"},{"town":"有度本町","koaza":"","lat":35.007273,"lng":138.453855,"version":"13.0b/18.0a"},{"town":"梅が岡","koaza":"","lat":35.004764,"lng":138.483089,"version":"13.0b/18.0a"},{"town":"梅ヶ谷","koaza":"","lat":35.048147,"lng":138.443899,"version":"13.0b/18.0a"},{"town":"梅田町","koaza":"","lat":35.006911,"lng":138.4874,"version":"13.0b/18.0a"},{"town":"上原","koaza":"","lat":35.011615,"lng":138.458074,"version":"13.0b/18.0a"},{"town":"上原一丁目","koaza":"","lat":35.00976,"lng":138.458848,"version":"13.0b/18.0a"},{"town":"上原二丁目","koaza":"","lat":35.008968,"lng":138.45592,"version":"13.0b/18.0a"},{"town":"永楽町","koaza":"","lat":35.025551,"lng":138.475185,"version":"13.0b/18.0a"},{"town":"江尻台町","koaza":"","lat":35.022957,"lng":138.476428,"version":"13.0b/18.0a"},{"town":"江尻町","koaza":"","lat":35.020294,"lng":138.481454,"version":"13.0b/18.0a"},{"town":"江尻東一丁目","koaza":"","lat":35.022951,"lng":138.485719,"version":"13.0b/18.0a"},{"town":"江尻東二丁目","koaza":"","lat":35.021628,"lng":138.485666,"version":"13.0b/18.0a"},{"town":"江尻東三丁目","koaza":"","lat":35.020204,"lng":138.48579,"version":"13.0b/18.0a"},{"town":"恵比寿町","koaza":"","lat":35.015468,"lng":138.468481,"version":"13.0b/18.0a"},{"town":"追分一丁目","koaza":"","lat":35.015909,"lng":138.474051,"version":"13.0b/18.0a"},{"town":"追分二丁目","koaza":"","lat":35.013828,"lng":138.472805,"version":"13.0b/18.0a"},{"town":"追分三丁目","koaza":"","lat":35.014812,"lng":138.470509,"version":"13.0b/18.0a"},{"town":"追分四丁目","koaza":"","lat":35.013682,"lng":138.467049,"version":"13.0b/18.0a"},{"town":"大内","koaza":"","lat":35.025719,"lng":138.442206,"version":"13.0b/18.0a"},{"town":"大内新田","koaza":"","lat":35.025112,"lng":138.452913,"version":"13.0b/18.0a"},{"town":"大沢町","koaza":"","lat":35.003528,"lng":138.475378,"version":"13.0b/18.0a"},{"town":"大坪一丁目","koaza":"","lat":35.01149,"lng":138.468341,"version":"13.0b/18.0a"},{"town":"大坪二丁目","koaza":"","lat":35.009692,"lng":138.469184,"version":"13.0b/18.0a"},{"town":"大手一丁目","koaza":"","lat":35.024828,"lng":138.481906,"version":"13.0b/18.0a"},{"town":"大手二丁目","koaza":"","lat":35.02698,"lng":138.481939,"version":"13.0b/18.0a"},{"town":"大手三丁目","koaza":"","lat":35.028806,"lng":138.482178,"version":"13.0b/18.0a"},{"town":"大平","koaza":"","lat":35.173764,"lng":138.421782,"version":"13.0b/18.0a"},{"town":"岡町","koaza":"","lat":35.008222,"lng":138.484541,"version":"13.0b/18.0a"},{"town":"興津東町","koaza":"","lat":35.062259,"lng":138.533696,"version":"13.0b/18.0a"},{"town":"興津井上町","koaza":"","lat":35.073281,"lng":138.531956,"version":"13.0b/18.0a"},{"town":"興津清見寺町","koaza":"","lat":35.05125,"lng":138.507866,"version":"13.0b/18.0a"},{"town":"興津中町","koaza":"","lat":35.056433,"lng":138.524759,"version":"13.0b/18.0a"},{"town":"興津本町","koaza":"","lat":35.055033,"lng":138.514312,"version":"13.0b/18.0a"},{"town":"押切","koaza":"","lat":35.031202,"lng":138.45221,"version":"13.0b/18.0a"},{"town":"小芝町","koaza":"","lat":35.023052,"lng":138.482539,"version":"13.0b/18.0a"},{"town":"小島町","koaza":"","lat":35.085031,"lng":138.50507,"version":"13.0b/18.0a"},{"town":"小島本町","koaza":"","lat":35.088718,"lng":138.517125,"version":"13.0b/18.0a"},{"town":"尾羽","koaza":"","lat":35.049184,"lng":138.491888,"version":"13.0b/18.0a"},{"town":"折戸","koaza":"","lat":34.996624,"lng":138.513129,"version":"13.0b/18.0a"},{"town":"折戸一丁目","koaza":"","lat":34.983386,"lng":138.507758,"version":"13.0b/18.0a"},{"town":"折戸二丁目","koaza":"","lat":34.988001,"lng":138.510842,"version":"13.0b/18.0a"},{"town":"折戸三丁目","koaza":"","lat":34.986483,"lng":138.514224,"version":"13.0b/18.0a"},{"town":"折戸四丁目","koaza":"","lat":34.992313,"lng":138.513328,"version":"13.0b/18.0a"},{"town":"折戸五丁目","koaza":"","lat":34.991247,"lng":138.517616,"version":"13.0b/18.0a"},{"town":"柏尾","koaza":"","lat":35.037368,"lng":138.440747,"version":"13.0b/18.0a"},{"town":"春日一丁目","koaza":"","lat":35.012213,"lng":138.473656,"version":"13.0b/18.0a"},{"town":"春日二丁目","koaza":"","lat":35.010325,"lng":138.472743,"version":"13.0b/18.0a"},{"town":"上一丁目","koaza":"","lat":35.011433,"lng":138.485522,"version":"13.0b/18.0a"},{"town":"上二丁目","koaza":"","lat":35.009759,"lng":138.486529,"version":"13.0b/18.0a"},{"town":"上清水町","koaza":"","lat":35.01089,"lng":138.482029,"version":"13.0b/18.0a"},{"town":"川原町","koaza":"","lat":35.000782,"lng":138.476715,"version":"13.0b/18.0a"},{"town":"神田町","koaza":"","lat":35.006069,"lng":138.480404,"version":"13.0b/18.0a"},{"town":"蒲原","koaza":"","lat":35.13126,"lng":138.600444,"version":"13.0b/18.0a"},{"town":"蒲原一丁目","koaza":"","lat":35.125774,"lng":138.614295,"version":"13.0b/18.0a"},{"town":"蒲原二丁目","koaza":"","lat":35.120309,"lng":138.60816,"version":"13.0b/18.0a"},{"town":"蒲原三丁目","koaza":"","lat":35.118975,"lng":138.603845,"version":"13.0b/18.0a"},{"town":"蒲原四丁目","koaza":"","lat":35.117141,"lng":138.606763,"version":"13.0b/18.0a"},{"town":"蒲原神沢","koaza":"","lat":35.123044,"lng":138.575097,"version":"13.0b/18.0a"},{"town":"蒲原小金","koaza":"","lat":35.127004,"lng":138.58973,"version":"13.0b/18.0a"},{"town":"蒲原新栄","koaza":"","lat":35.125858,"lng":138.622533,"version":"13.0b/18.0a"},{"town":"蒲原新田一丁目","koaza":"","lat":35.115675,"lng":138.598579,"version":"13.0b/18.0a"},{"town":"蒲原新田二丁目","koaza":"","lat":35.118432,"lng":138.59739,"version":"13.0b/18.0a"},{"town":"蒲原堰沢","koaza":"","lat":35.12769,"lng":138.582151,"version":"13.0b/18.0a"},{"town":"蒲原中","koaza":"","lat":35.127968,"lng":138.585835,"version":"13.0b/18.0a"},{"town":"蒲原東","koaza":"","lat":35.127624,"lng":138.62456,"version":"13.0b/18.0a"},{"town":"北矢部","koaza":"","lat":34.990979,"lng":138.468735,"version":"13.0b/18.0a"},{"town":"北矢部町一丁目","koaza":"","lat":35.002425,"lng":138.484049,"version":"13.0b/18.0a"},{"town":"北矢部町二丁目","koaza":"","lat":35.000786,"lng":138.484606,"version":"13.0b/18.0a"},{"town":"北脇","koaza":"","lat":35.017503,"lng":138.462183,"version":"13.0b/18.0a"},{"town":"北脇新田","koaza":"","lat":35.024406,"lng":138.463965,"version":"13.0b/18.0a"},{"town":"吉川","koaza":"","lat":35.016656,"lng":138.457696,"version":"13.0b/18.0a"},{"town":"木の下町","koaza":"","lat":35.004371,"lng":138.469086,"version":"13.0b/18.0a"},{"town":"清地","koaza":"","lat":35.110109,"lng":138.493154,"version":"13.0b/18.0a"},{"town":"銀座","koaza":"","lat":35.018429,"lng":138.485314,"version":"13.0b/18.0a"},{"town":"草ヶ谷","koaza":"","lat":35.052316,"lng":138.48718,"version":"13.0b/18.0a"},{"town":"草薙","koaza":"","lat":34.987157,"lng":138.456522,"version":"13.0b/18.0a"},{"town":"草薙一丁目","koaza":"","lat":35.001364,"lng":138.444057,"version":"13.0b/18.0a"},{"town":"草薙二丁目","koaza":"","lat":35.005601,"lng":138.447467,"version":"13.0b/18.0a"},{"town":"草薙三丁目","koaza":"","lat":35.002075,"lng":138.447403,"version":"13.0b/18.0a"},{"town":"草薙一里山","koaza":"","lat":35.005498,"lng":138.450779,"version":"13.0b/18.0a"},{"town":"草薙北","koaza":"","lat":35.00426,"lng":138.44141,"version":"13.0b/18.0a"},{"town":"草薙杉道一丁目","koaza":"","lat":35.004112,"lng":138.45392,"version":"13.0b/18.0a"},{"town":"草薙杉道二丁目","koaza":"","lat":35.002573,"lng":138.453368,"version":"13.0b/18.0a"},{"town":"草薙杉道三丁目","koaza":"","lat":35.002154,"lng":138.450872,"version":"13.0b/18.0a"},{"town":"楠","koaza":"","lat":35.009093,"lng":138.438758,"version":"13.0b/18.0a"},{"town":"楠新田","koaza":"","lat":35.008572,"lng":138.443246,"version":"13.0b/18.0a"},{"town":"河内","koaza":"","lat":35.143224,"lng":138.422697,"version":"13.0b/18.0a"},{"town":"港南町","koaza":"","lat":34.975893,"lng":138.492012,"version":"13.0b/18.0a"},{"town":"小河内","koaza":"","lat":35.124029,"lng":138.512235,"version":"13.0b/18.0a"},{"town":"駒越","koaza":"","lat":34.974975,"lng":138.48103,"version":"13.0b/18.0a"},{"town":"駒越北町","koaza":"","lat":34.983645,"lng":138.497787,"version":"13.0b/18.0a"},{"town":"駒越中一丁目","koaza":"","lat":34.978375,"lng":138.501147,"version":"13.0b/18.0a"},{"town":"駒越中二丁目","koaza":"","lat":34.97909,"lng":138.496275,"version":"13.0b/18.0a"},{"town":"駒越西一丁目","koaza":"","lat":34.975603,"lng":138.498501,"version":"13.0b/18.0a"},{"town":"駒越西二丁目","koaza":"","lat":34.973461,"lng":138.494013,"version":"13.0b/18.0a"},{"town":"駒越東町","koaza":"","lat":34.981921,"lng":138.502592,"version":"13.0b/18.0a"},{"town":"駒越南町","koaza":"","lat":34.98029,"lng":138.505788,"version":"13.0b/18.0a"},{"town":"幸町","koaza":"","lat":35.000922,"lng":138.492284,"version":"13.0b/18.0a"},{"town":"桜が丘町","koaza":"","lat":35.010656,"lng":138.477224,"version":"13.0b/18.0a"},{"town":"桜橋町","koaza":"","lat":35.014162,"lng":138.476773,"version":"13.0b/18.0a"},{"town":"三光町","koaza":"","lat":35.002602,"lng":138.48707,"version":"13.0b/18.0a"},{"town":"茂野島","koaza":"","lat":35.111547,"lng":138.464527,"version":"13.0b/18.0a"},{"town":"宍原","koaza":"","lat":35.170553,"lng":138.509808,"version":"13.0b/18.0a"},{"town":"渋川","koaza":"","lat":35.016616,"lng":138.467981,"version":"13.0b/18.0a"},{"town":"渋川一丁目","koaza":"","lat":35.022522,"lng":138.470113,"version":"13.0b/18.0a"},{"town":"渋川二丁目","koaza":"","lat":35.019832,"lng":138.46969,"version":"13.0b/18.0a"},{"town":"渋川三丁目","koaza":"","lat":35.019233,"lng":138.467249,"version":"13.0b/18.0a"},{"town":"島崎町","koaza":"","lat":35.019232,"lng":138.490441,"version":"13.0b/18.0a"},{"town":"清水町","koaza":"","lat":35.006413,"lng":138.489972,"version":"13.0b/18.0a"},{"town":"清水村松地先新田","koaza":"","lat":34.993073,"lng":138.494662,"version":"13.0b/18.0a"},{"town":"下清水町","koaza":"","lat":35.007771,"lng":138.482245,"version":"13.0b/18.0a"},{"town":"下野","koaza":"","lat":35.039828,"lng":138.468808,"version":"13.0b/18.0a"},{"town":"下野北","koaza":"","lat":35.038091,"lng":138.470799,"version":"13.0b/18.0a"},{"town":"下野町","koaza":"","lat":35.034083,"lng":138.464132,"version":"13.0b/18.0a"},{"town":"下野中","koaza":"","lat":35.036634,"lng":138.468574,"version":"13.0b/18.0a"},{"town":"下野西","koaza":"","lat":35.035869,"lng":138.466077,"version":"13.0b/18.0a"},{"town":"下野東","koaza":"","lat":35.034453,"lng":138.471197,"version":"13.0b/18.0a"},{"town":"下野緑町","koaza":"","lat":35.032211,"lng":138.467598,"version":"13.0b/18.0a"},{"town":"承元寺町","koaza":"","lat":35.084084,"lng":138.526269,"version":"13.0b/18.0a"},{"town":"庄福町","koaza":"","lat":34.999086,"lng":138.480061,"version":"13.0b/18.0a"},{"town":"上力町","koaza":"","lat":34.997441,"lng":138.48039,"version":"13.0b/18.0a"},{"town":"新富町","koaza":"","lat":35.016004,"lng":138.481816,"version":"13.0b/18.0a"},{"town":"新緑町","koaza":"","lat":34.994265,"lng":138.489031,"version":"13.0b/18.0a"},{"town":"新港町","koaza":"","lat":35.013228,"lng":138.493886,"version":"13.0b/18.0a"},{"town":"清開一丁目","koaza":"","lat":34.9991,"lng":138.496238,"version":"13.0b/18.0a"},{"town":"清開二丁目","koaza":"","lat":34.996824,"lng":138.493419,"version":"13.0b/18.0a"},{"town":"清開三丁目","koaza":"","lat":34.992803,"lng":138.499397,"version":"13.0b/18.0a"},{"town":"増","koaza":"","lat":34.968743,"lng":138.484344,"version":"13.0b/18.0a"},{"town":"袖師町","koaza":"","lat":35.031417,"lng":138.492583,"version":"13.0b/18.0a"},{"town":"高橋一丁目","koaza":"","lat":35.032151,"lng":138.474038,"version":"13.0b/18.0a"},{"town":"高橋二丁目","koaza":"","lat":35.030378,"lng":138.472363,"version":"13.0b/18.0a"},{"town":"高橋三丁目","koaza":"","lat":35.030173,"lng":138.468502,"version":"13.0b/18.0a"},{"town":"高橋四丁目","koaza":"","lat":35.02771,"lng":138.472467,"version":"13.0b/18.0a"},{"town":"高橋五丁目","koaza":"","lat":35.026744,"lng":138.468377,"version":"13.0b/18.0a"},{"town":"高橋六丁目","koaza":"","lat":35.025529,"lng":138.46787,"version":"13.0b/18.0a"},{"town":"高橋町","koaza":"","lat":35.042303,"lng":138.469915,"version":"13.0b/18.0a"},{"town":"高橋南町","koaza":"","lat":35.027326,"lng":138.476189,"version":"13.0b/18.0a"},{"town":"高山","koaza":"","lat":35.103591,"lng":138.467543,"version":"13.0b/18.0a"},{"town":"宝町","koaza":"","lat":35.021651,"lng":138.482545,"version":"13.0b/18.0a"},{"town":"但沼町","koaza":"","lat":35.102696,"lng":138.504959,"version":"13.0b/18.0a"},{"town":"立花","koaza":"","lat":35.096576,"lng":138.527592,"version":"13.0b/18.0a"},{"town":"田町","koaza":"","lat":35.03335,"lng":138.48746,"version":"13.0b/18.0a"},{"town":"千歳町","koaza":"","lat":35.014812,"lng":138.485024,"version":"13.0b/18.0a"},{"town":"築地町","koaza":"","lat":35.00428,"lng":138.493819,"version":"13.0b/18.0a"},{"town":"月見町","koaza":"","lat":35.003086,"lng":138.479791,"version":"13.0b/18.0a"},{"town":"辻一丁目","koaza":"","lat":35.027583,"lng":138.488847,"version":"13.0b/18.0a"},{"town":"辻二丁目","koaza":"","lat":35.027288,"lng":138.487136,"version":"13.0b/18.0a"},{"town":"辻三丁目","koaza":"","lat":35.030489,"lng":138.488017,"version":"13.0b/18.0a"},{"town":"辻四丁目","koaza":"","lat":35.027914,"lng":138.485322,"version":"13.0b/18.0a"},{"town":"辻五丁目","koaza":"","lat":35.029891,"lng":138.483563,"version":"13.0b/18.0a"},{"town":"鶴舞町","koaza":"","lat":35.016944,"lng":138.473121,"version":"13.0b/18.0a"},{"town":"天神一丁目","koaza":"","lat":35.025958,"lng":138.48053,"version":"13.0b/18.0a"},{"town":"天神二丁目","koaza":"","lat":35.026095,"lng":138.478985,"version":"13.0b/18.0a"},{"town":"天王町","koaza":"","lat":35.027519,"lng":138.460515,"version":"13.0b/18.0a"},{"town":"天王西","koaza":"","lat":35.029277,"lng":138.460442,"version":"13.0b/18.0a"},{"town":"天王東","koaza":"","lat":35.030131,"lng":138.462648,"version":"13.0b/18.0a"},{"town":"天王南","koaza":"","lat":35.027557,"lng":138.463613,"version":"13.0b/18.0a"},{"town":"土","koaza":"","lat":35.115043,"lng":138.450184,"version":"13.0b/18.0a"},{"town":"堂林一丁目","koaza":"","lat":35.0075,"lng":138.477211,"version":"13.0b/18.0a"},{"town":"堂林二丁目","koaza":"","lat":35.005974,"lng":138.477132,"version":"13.0b/18.0a"},{"town":"葛沢","koaza":"","lat":35.129103,"lng":138.45672,"version":"13.0b/18.0a"},{"town":"殿沢一丁目","koaza":"","lat":34.980266,"lng":138.490465,"version":"13.0b/18.0a"},{"town":"殿沢二丁目","koaza":"","lat":34.979238,"lng":138.490208,"version":"13.0b/18.0a"},{"town":"巴町","koaza":"","lat":35.016111,"lng":138.487065,"version":"13.0b/18.0a"},{"town":"鳥坂","koaza":"","lat":35.016746,"lng":138.434637,"version":"13.0b/18.0a"},{"town":"中河内","koaza":"","lat":35.146156,"lng":138.473928,"version":"13.0b/18.0a"},{"town":"長崎","koaza":"","lat":35.015145,"lng":138.444452,"version":"13.0b/18.0a"},{"town":"長崎新田","koaza":"","lat":35.018003,"lng":138.448657,"version":"13.0b/18.0a"},{"town":"長崎南町","koaza":"","lat":35.008282,"lng":138.447849,"version":"13.0b/18.0a"},{"town":"中之郷","koaza":"","lat":35.004861,"lng":138.438841,"version":"13.0b/18.0a"},{"town":"中之郷一丁目","koaza":"","lat":34.998062,"lng":138.440046,"version":"13.0b/18.0a"},{"town":"中之郷二丁目","koaza":"","lat":34.999904,"lng":138.439217,"version":"13.0b/18.0a"},{"town":"中之郷三丁目","koaza":"","lat":35.001447,"lng":138.438734,"version":"13.0b/18.0a"},{"town":"中矢部町","koaza":"","lat":34.999969,"lng":138.479012,"version":"13.0b/18.0a"},{"town":"七ツ新屋","koaza":"","lat":35.013017,"lng":138.451202,"version":"13.0b/18.0a"},{"town":"七ツ新屋一丁目","koaza":"","lat":35.008889,"lng":138.452546,"version":"13.0b/18.0a"},{"town":"七ツ新屋二丁目","koaza":"","lat":35.010223,"lng":138.451379,"version":"13.0b/18.0a"},{"town":"西大曲町","koaza":"","lat":35.020237,"lng":138.472207,"version":"13.0b/18.0a"},{"town":"西久保","koaza":"","lat":35.035927,"lng":138.48494,"version":"13.0b/18.0a"},{"town":"西久保一丁目","koaza":"","lat":35.032875,"lng":138.482729,"version":"13.0b/18.0a"},{"town":"西里","koaza":"","lat":35.112681,"lng":138.421235,"version":"13.0b/18.0a"},{"town":"西高町","koaza":"","lat":35.007623,"lng":138.473,"version":"13.0b/18.0a"},{"town":"二の丸町","koaza":"","lat":35.022171,"lng":138.479151,"version":"13.0b/18.0a"},{"town":"布沢","koaza":"","lat":35.104892,"lng":138.444332,"version":"13.0b/18.0a"},{"town":"沼田町","koaza":"","lat":34.996966,"lng":138.483758,"version":"13.0b/18.0a"},{"town":"能島","koaza":"","lat":35.024861,"lng":138.458093,"version":"13.0b/18.0a"},{"town":"蜂ヶ谷","koaza":"","lat":35.04184,"lng":138.457007,"version":"13.0b/18.0a"},{"town":"蜂ヶ谷南町","koaza":"","lat":35.035763,"lng":138.461375,"version":"13.0b/18.0a"},{"town":"浜田町","koaza":"","lat":35.014234,"lng":138.48227,"version":"13.0b/18.0a"},{"town":"原","koaza":"","lat":35.055151,"lng":138.477526,"version":"13.0b/18.0a"},{"town":"半左衛門新田","koaza":"","lat":35.015582,"lng":138.452946,"version":"13.0b/18.0a"},{"town":"東大曲町","koaza":"","lat":35.02059,"lng":138.475095,"version":"13.0b/18.0a"},{"town":"日立町","koaza":"","lat":34.994932,"lng":138.484797,"version":"13.0b/18.0a"},{"town":"日の出町","koaza":"","lat":35.006316,"lng":138.496154,"version":"13.0b/18.0a"},{"town":"平川地","koaza":"","lat":35.010212,"lng":138.462334,"version":"13.0b/18.0a"},{"town":"広瀬","koaza":"","lat":35.061865,"lng":138.497417,"version":"13.0b/18.0a"},{"town":"富士見町","koaza":"","lat":35.009714,"lng":138.489373,"version":"13.0b/18.0a"},{"town":"船越","koaza":"","lat":34.998956,"lng":138.467219,"version":"13.0b/18.0a"},{"town":"船越一丁目","koaza":"","lat":35.002159,"lng":138.46695,"version":"13.0b/18.0a"},{"town":"船越二丁目","koaza":"","lat":35.000607,"lng":138.468469,"version":"13.0b/18.0a"},{"town":"船越三丁目","koaza":"","lat":34.999071,"lng":138.470483,"version":"13.0b/18.0a"},{"town":"船越町","koaza":"","lat":35.00012,"lng":138.466774,"version":"13.0b/18.0a"},{"town":"船越東町","koaza":"","lat":35.003078,"lng":138.472818,"version":"13.0b/18.0a"},{"town":"船越南町","koaza":"","lat":35.001262,"lng":138.471615,"version":"13.0b/18.0a"},{"town":"船原一丁目","koaza":"","lat":35.007533,"lng":138.469233,"version":"13.0b/18.0a"},{"town":"船原二丁目","koaza":"","lat":35.005947,"lng":138.471585,"version":"13.0b/18.0a"},{"town":"蛇塚","koaza":"","lat":34.967029,"lng":138.47663,"version":"13.0b/18.0a"},{"town":"堀込","koaza":"","lat":35.019869,"lng":138.451969,"version":"13.0b/18.0a"},{"town":"本郷町","koaza":"","lat":35.024544,"lng":138.485623,"version":"13.0b/18.0a"},{"town":"本町","koaza":"","lat":35.008527,"lng":138.48832,"version":"13.0b/18.0a"},{"town":"真砂町","koaza":"","lat":35.021458,"lng":138.48801,"version":"13.0b/18.0a"},{"town":"松井町","koaza":"","lat":35.003089,"lng":138.491445,"version":"13.0b/18.0a"},{"town":"松原町","koaza":"","lat":35.012653,"lng":138.491176,"version":"13.0b/18.0a"},{"town":"馬走","koaza":"","lat":34.99127,"lng":138.461675,"version":"13.0b/18.0a"},{"town":"馬走北","koaza":"","lat":35.006855,"lng":138.459877,"version":"13.0b/18.0a"},{"town":"馬走坂の上","koaza":"","lat":35.002688,"lng":138.457086,"version":"13.0b/18.0a"},{"town":"万世町一丁目","koaza":"","lat":35.012416,"lng":138.487022,"version":"13.0b/18.0a"},{"town":"万世町二丁目","koaza":"","lat":35.01254,"lng":138.489195,"version":"13.0b/18.0a"},{"town":"御門台","koaza":"","lat":35.004338,"lng":138.45677,"version":"13.0b/18.0a"},{"town":"緑が丘町","koaza":"","lat":34.992578,"lng":138.486333,"version":"13.0b/18.0a"},{"town":"港町一丁目","koaza":"","lat":35.009159,"lng":138.493615,"version":"13.0b/18.0a"},{"town":"港町二丁目","koaza":"","lat":35.0077,"lng":138.492373,"version":"13.0b/18.0a"},{"town":"南岡町","koaza":"","lat":35.005396,"lng":138.485382,"version":"13.0b/18.0a"},{"town":"南矢部","koaza":"","lat":34.993395,"lng":138.475695,"version":"13.0b/18.0a"},{"town":"美濃輪町","koaza":"","lat":35.00517,"lng":138.49086,"version":"13.0b/18.0a"},{"town":"三保","koaza":"","lat":35.006563,"lng":138.517796,"version":"13.0b/18.0a"},{"town":"宮加三","koaza":"","lat":34.983592,"lng":138.485277,"version":"13.0b/18.0a"},{"town":"宮下町","koaza":"","lat":35.03244,"lng":138.486681,"version":"13.0b/18.0a"},{"town":"宮代町","koaza":"","lat":35.0263,"lng":138.483471,"version":"13.0b/18.0a"},{"town":"向田町","koaza":"","lat":34.998611,"lng":138.483632,"version":"13.0b/18.0a"},{"town":"迎山町","koaza":"","lat":34.976898,"lng":138.490991,"version":"13.0b/18.0a"},{"town":"村松","koaza":"","lat":34.98424,"lng":138.476284,"version":"13.0b/18.0a"},{"town":"村松一丁目","koaza":"","lat":34.996316,"lng":138.491007,"version":"13.0b/18.0a"},{"town":"村松原一丁目","koaza":"","lat":34.99964,"lng":138.488972,"version":"13.0b/18.0a"},{"town":"村松原二丁目","koaza":"","lat":34.99889,"lng":138.486592,"version":"13.0b/18.0a"},{"town":"村松原三丁目","koaza":"","lat":34.996854,"lng":138.488088,"version":"13.0b/18.0a"},{"town":"元城町","koaza":"","lat":35.019715,"lng":138.477151,"version":"13.0b/18.0a"},{"town":"茂畑","koaza":"","lat":35.081057,"lng":138.494425,"version":"13.0b/18.0a"},{"town":"八木間町","koaza":"","lat":35.065386,"lng":138.517703,"version":"13.0b/18.0a"},{"town":"矢倉町","koaza":"","lat":35.030999,"lng":138.485148,"version":"13.0b/18.0a"},{"town":"八坂北一丁目","koaza":"","lat":35.036155,"lng":138.474641,"version":"13.0b/18.0a"},{"town":"八坂北二丁目","koaza":"","lat":35.038617,"lng":138.474381,"version":"13.0b/18.0a"},{"town":"八坂町","koaza":"","lat":35.038357,"lng":138.478708,"version":"13.0b/18.0a"},{"town":"八坂西町","koaza":"","lat":35.032762,"lng":138.476593,"version":"13.0b/18.0a"},{"town":"八坂東一丁目","koaza":"","lat":35.035304,"lng":138.480672,"version":"13.0b/18.0a"},{"town":"八坂東二丁目","koaza":"","lat":35.033879,"lng":138.47791,"version":"13.0b/18.0a"},{"town":"八坂南町","koaza":"","lat":35.0293,"lng":138.477762,"version":"13.0b/18.0a"},{"town":"谷田","koaza":"","lat":34.99716,"lng":138.441416,"version":"13.0b/18.0a"},{"town":"八千代町","koaza":"","lat":35.003111,"lng":138.488803,"version":"13.0b/18.0a"},{"town":"谷津町一丁目","koaza":"","lat":35.073325,"lng":138.516943,"version":"13.0b/18.0a"},{"town":"谷津町二丁目","koaza":"","lat":35.077346,"lng":138.515919,"version":"13.0b/18.0a"},{"town":"弥生町","koaza":"","lat":35.031108,"lng":138.464813,"version":"13.0b/18.0a"},{"town":"山原","koaza":"","lat":35.05103,"lng":138.458457,"version":"13.0b/18.0a"},{"town":"由比","koaza":"","lat":35.114494,"lng":138.568479,"version":"13.0b/18.0a"},{"town":"由比阿僧","koaza":"","lat":35.117635,"lng":138.547297,"version":"13.0b/18.0a"},{"town":"由比今宿","koaza":"","lat":35.099146,"lng":138.546271,"version":"13.0b/18.0a"},{"town":"由比入山","koaza":"","lat":35.143537,"lng":138.560998,"version":"13.0b/18.0a"},{"town":"由比北田","koaza":"","lat":35.107421,"lng":138.561475,"version":"13.0b/18.0a"},{"town":"由比寺尾","koaza":"","lat":35.093553,"lng":138.5444,"version":"13.0b/18.0a"},{"town":"由比西倉澤","koaza":"","lat":35.077472,"lng":138.543358,"version":"13.0b/18.0a"},{"town":"由比西山寺","koaza":"","lat":35.111482,"lng":138.539764,"version":"13.0b/18.0a"},{"town":"由比東倉澤","koaza":"","lat":35.087863,"lng":138.543224,"version":"13.0b/18.0a"},{"town":"由比東山寺","koaza":"","lat":35.122722,"lng":138.561117,"version":"13.0b/18.0a"},{"town":"由比町屋原","koaza":"","lat":35.105405,"lng":138.554482,"version":"13.0b/18.0a"},{"town":"由比八千代","koaza":"","lat":35.111877,"lng":138.552591,"version":"13.0b/18.0a"},{"town":"横砂","koaza":"","lat":35.037626,"lng":138.50378,"version":"13.0b/18.0a"},{"town":"横砂中町","koaza":"","lat":35.041679,"lng":138.497604,"version":"13.0b/18.0a"},{"town":"横砂西町","koaza":"","lat":35.039644,"lng":138.495748,"version":"13.0b/18.0a"},{"town":"横砂東町","koaza":"","lat":35.046965,"lng":138.503017,"version":"13.0b/18.0a"},{"town":"横砂本町","koaza":"","lat":35.044139,"lng":138.500096,"version":"13.0b/18.0a"},{"town":"横砂南町","koaza":"","lat":35.039442,"lng":138.49972,"version":"13.0b/18.0a"},{"town":"和田島","koaza":"","lat":35.104812,"lng":138.476621,"version":"13.0b/18.0a"},{"town":"伊佐布","koaza":"","lat":35.070964,"lng":138.451879,"version":"13.0b/18.0a"},{"town":"山切","koaza":"","lat":35.062255,"lng":138.483412,"version":"13.0b/18.0a"},{"town":"吉原","koaza":"","lat":35.08539,"lng":138.447318,"version":"13.0b/18.0a"},{"town":"杉山","koaza":"","lat":35.080995,"lng":138.486722,"version":"13.0b/18.0a"},{"town":"新丹谷","koaza":"","lat":35.072403,"lng":138.474199,"version":"13.0b/18.0a"},{"town":"相生町","koaza":"","lat":35.016462,"lng":138.48823,"version":"14.0b/19.0a"},{"town":"愛染町","koaza":"","lat":35.028588,"lng":138.489998,"version":"14.0b/19.0a"},{"town":"青葉町","koaza":"","lat":35.008414,"lng":138.476207,"version":"14.0b/19.0a"},{"town":"秋吉町","koaza":"","lat":35.030202,"lng":138.480661,"version":"14.0b/19.0a"},{"town":"旭町","koaza":"","lat":35.016292,"lng":138.489362,"version":"14.0b/19.0a"},{"town":"淡島町","koaza":"","lat":35.014183,"lng":138.478883,"version":"14.0b/19.0a"},{"town":"飯田町","koaza":"","lat":35.032119,"lng":138.470988,"version":"14.0b/19.0a"},{"town":"石川","koaza":"","lat":35.038247,"lng":138.456741,"version":"14.0b/19.0a"},{"town":"石川新町","koaza":"","lat":35.032389,"lng":138.457514,"version":"14.0b/19.0a"},{"town":"石川本町","koaza":"","lat":35.033108,"lng":138.460655,"version":"14.0b/19.0a"},{"town":"庵原町","koaza":"","lat":35.051474,"lng":138.471547,"version":"14.0b/19.0a"},{"town":"今泉","koaza":"","lat":35.003442,"lng":138.464551,"version":"14.0b/19.0a"},{"town":"入江一丁目","koaza":"","lat":35.018339,"lng":138.481788,"version":"14.0b/19.0a"},{"town":"入江二丁目","koaza":"","lat":35.017651,"lng":138.479308,"version":"14.0b/19.0a"},{"town":"入江三丁目","koaza":"","lat":35.017345,"lng":138.476816,"version":"14.0b/19.0a"},{"town":"入江岡町","koaza":"","lat":35.013015,"lng":138.479871,"version":"14.0b/19.0a"},{"town":"入江南町","koaza":"","lat":35.016264,"lng":138.478821,"version":"14.0b/19.0a"},{"town":"入船町","koaza":"","lat":35.010133,"lng":138.492172,"version":"14.0b/19.0a"},{"town":"有東坂","koaza":"","lat":35.007069,"lng":138.463167,"version":"14.0b/19.0a"},{"town":"有東坂一丁目","koaza":"","lat":35.009001,"lng":138.466879,"version":"14.0b/19.0a"},{"town":"有東坂二丁目","koaza":"","lat":35.007261,"lng":138.465979,"version":"14.0b/19.0a"},{"town":"有度本町","koaza":"","lat":35.007273,"lng":138.453855,"version":"14.0b/19.0a"},{"town":"梅が岡","koaza":"","lat":35.004764,"lng":138.483089,"version":"14.0b/19.0a"},{"town":"梅ヶ谷","koaza":"","lat":35.048147,"lng":138.443899,"version":"14.0b/19.0a"},{"town":"梅田町","koaza":"","lat":35.006911,"lng":138.4874,"version":"14.0b/19.0a"},{"town":"上原","koaza":"","lat":35.011615,"lng":138.458074,"version":"14.0b/19.0a"},{"town":"上原一丁目","koaza":"","lat":35.00976,"lng":138.458848,"version":"14.0b/19.0a"},{"town":"上原二丁目","koaza":"","lat":35.008968,"lng":138.45592,"version":"14.0b/19.0a"},{"town":"永楽町","koaza":"","lat":35.025551,"lng":138.475185,"version":"14.0b/19.0a"},{"town":"江尻台町","koaza":"","lat":35.022957,"lng":138.476428,"version":"14.0b/19.0a"},{"town":"江尻町","koaza":"","lat":35.020294,"lng":138.481454,"version":"14.0b/19.0a"},{"town":"江尻東一丁目","koaza":"","lat":35.022951,"lng":138.485719,"version":"14.0b/19.0a"},{"town":"江尻東二丁目","koaza":"","lat":35.021628,"lng":138.485666,"version":"14.0b/19.0a"},{"town":"江尻東三丁目","koaza":"","lat":35.020204,"lng":138.48579,"version":"14.0b/19.0a"},{"town":"恵比寿町","koaza":"","lat":35.015468,"lng":138.468481,"version":"14.0b/19.0a"},{"town":"追分一丁目","koaza":"","lat":35.015909,"lng":138.474051,"version":"14.0b/19.0a"},{"town":"追分二丁目","koaza":"","lat":35.013828,"lng":138.472805,"version":"14.0b/19.0a"},{"town":"追分三丁目","koaza":"","lat":35.014812,"lng":138.470509,"version":"14.0b/19.0a"},{"town":"追分四丁目","koaza":"","lat":35.013682,"lng":138.467049,"version":"14.0b/19.0a"},{"town":"大内","koaza":"","lat":35.025719,"lng":138.442206,"version":"14.0b/19.0a"},{"town":"大内新田","koaza":"","lat":35.025112,"lng":138.452913,"version":"14.0b/19.0a"},{"town":"大沢町","koaza":"","lat":35.003528,"lng":138.475378,"version":"14.0b/19.0a"},{"town":"大坪一丁目","koaza":"","lat":35.01149,"lng":138.468341,"version":"14.0b/19.0a"},{"town":"大坪二丁目","koaza":"","lat":35.009692,"lng":138.469184,"version":"14.0b/19.0a"},{"town":"大手一丁目","koaza":"","lat":35.024828,"lng":138.481906,"version":"14.0b/19.0a"},{"town":"大手二丁目","koaza":"","lat":35.02698,"lng":138.481939,"version":"14.0b/19.0a"},{"town":"大手三丁目","koaza":"","lat":35.028806,"lng":138.482178,"version":"14.0b/19.0a"},{"town":"大平","koaza":"","lat":35.173764,"lng":138.421782,"version":"14.0b/19.0a"},{"town":"岡町","koaza":"","lat":35.008222,"lng":138.484541,"version":"14.0b/19.0a"},{"town":"興津東町","koaza":"","lat":35.062259,"lng":138.533696,"version":"14.0b/19.0a"},{"town":"興津井上町","koaza":"","lat":35.073281,"lng":138.531956,"version":"14.0b/19.0a"},{"town":"興津清見寺町","koaza":"","lat":35.05125,"lng":138.507866,"version":"14.0b/19.0a"},{"town":"興津中町","koaza":"","lat":35.056433,"lng":138.524759,"version":"14.0b/19.0a"},{"town":"興津本町","koaza":"","lat":35.055033,"lng":138.514312,"version":"14.0b/19.0a"},{"town":"押切","koaza":"","lat":35.031202,"lng":138.45221,"version":"14.0b/19.0a"},{"town":"小芝町","koaza":"","lat":35.023052,"lng":138.482539,"version":"14.0b/19.0a"},{"town":"小島町","koaza":"","lat":35.085031,"lng":138.50507,"version":"14.0b/19.0a"},{"town":"小島本町","koaza":"","lat":35.088718,"lng":138.517125,"version":"14.0b/19.0a"},{"town":"尾羽","koaza":"","lat":35.049184,"lng":138.491888,"version":"14.0b/19.0a"},{"town":"折戸","koaza":"","lat":34.996624,"lng":138.513129,"version":"14.0b/19.0a"},{"town":"折戸一丁目","koaza":"","lat":34.983386,"lng":138.507758,"version":"14.0b/19.0a"},{"town":"折戸二丁目","koaza":"","lat":34.988001,"lng":138.510842,"version":"14.0b/19.0a"},{"town":"折戸三丁目","koaza":"","lat":34.986483,"lng":138.514224,"version":"14.0b/19.0a"},{"town":"折戸四丁目","koaza":"","lat":34.992313,"lng":138.513328,"version":"14.0b/19.0a"},{"town":"折戸五丁目","koaza":"","lat":34.991247,"lng":138.517616,"version":"14.0b/19.0a"},{"town":"柏尾","koaza":"","lat":35.037368,"lng":138.440747,"version":"14.0b/19.0a"},{"town":"春日一丁目","koaza":"","lat":35.012213,"lng":138.473656,"version":"14.0b/19.0a"},{"town":"春日二丁目","koaza":"","lat":35.010325,"lng":138.472743,"version":"14.0b/19.0a"},{"town":"上一丁目","koaza":"","lat":35.011433,"lng":138.485522,"version":"14.0b/19.0a"},{"town":"上二丁目","koaza":"","lat":35.009759,"lng":138.486529,"version":"14.0b/19.0a"},{"town":"上清水町","koaza":"","lat":35.01089,"lng":138.482029,"version":"14.0b/19.0a"},{"town":"川原町","koaza":"","lat":35.000782,"lng":138.476715,"version":"14.0b/19.0a"},{"town":"神田町","koaza":"","lat":35.006069,"lng":138.480404,"version":"14.0b/19.0a"},{"town":"蒲原","koaza":"","lat":35.13126,"lng":138.600444,"version":"14.0b/19.0a"},{"town":"蒲原一丁目","koaza":"","lat":35.125774,"lng":138.614295,"version":"14.0b/19.0a"},{"town":"蒲原二丁目","koaza":"","lat":35.120309,"lng":138.60816,"version":"14.0b/19.0a"},{"town":"蒲原三丁目","koaza":"","lat":35.118975,"lng":138.603845,"version":"14.0b/19.0a"},{"town":"蒲原四丁目","koaza":"","lat":35.117141,"lng":138.606763,"version":"14.0b/19.0a"},{"town":"蒲原神沢","koaza":"","lat":35.123044,"lng":138.575097,"version":"14.0b/19.0a"},{"town":"蒲原小金","koaza":"","lat":35.127004,"lng":138.58973,"version":"14.0b/19.0a"},{"town":"蒲原新栄","koaza":"","lat":35.125858,"lng":138.622533,"version":"14.0b/19.0a"},{"town":"蒲原新田一丁目","koaza":"","lat":35.115675,"lng":138.598579,"version":"14.0b/19.0a"},{"town":"蒲原新田二丁目","koaza":"","lat":35.118432,"lng":138.59739,"version":"14.0b/19.0a"},{"town":"蒲原堰沢","koaza":"","lat":35.12769,"lng":138.582151,"version":"14.0b/19.0a"},{"town":"蒲原中","koaza":"","lat":35.127968,"lng":138.585835,"version":"14.0b/19.0a"},{"town":"蒲原東","koaza":"","lat":35.127624,"lng":138.62456,"version":"14.0b/19.0a"},{"town":"北矢部","koaza":"","lat":34.990979,"lng":138.468735,"version":"14.0b/19.0a"},{"town":"北矢部町一丁目","koaza":"","lat":35.002425,"lng":138.484049,"version":"14.0b/19.0a"},{"town":"北矢部町二丁目","koaza":"","lat":35.000786,"lng":138.484606,"version":"14.0b/19.0a"},{"town":"北脇","koaza":"","lat":35.017503,"lng":138.462183,"version":"14.0b/19.0a"},{"town":"北脇新田","koaza":"","lat":35.024406,"lng":138.463965,"version":"14.0b/19.0a"},{"town":"吉川","koaza":"","lat":35.016656,"lng":138.457696,"version":"14.0b/19.0a"},{"town":"木の下町","koaza":"","lat":35.004371,"lng":138.469086,"version":"14.0b/19.0a"},{"town":"清地","koaza":"","lat":35.110109,"lng":138.493154,"version":"14.0b/19.0a"},{"town":"銀座","koaza":"","lat":35.018429,"lng":138.485314,"version":"14.0b/19.0a"},{"town":"草ヶ谷","koaza":"","lat":35.052316,"lng":138.48718,"version":"14.0b/19.0a"},{"town":"草薙","koaza":"","lat":34.987157,"lng":138.456522,"version":"14.0b/19.0a"},{"town":"草薙一丁目","koaza":"","lat":35.001364,"lng":138.444057,"version":"14.0b/19.0a"},{"town":"草薙二丁目","koaza":"","lat":35.005601,"lng":138.447467,"version":"14.0b/19.0a"},{"town":"草薙三丁目","koaza":"","lat":35.002075,"lng":138.447403,"version":"14.0b/19.0a"},{"town":"草薙一里山","koaza":"","lat":35.005498,"lng":138.450779,"version":"14.0b/19.0a"},{"town":"草薙北","koaza":"","lat":35.00426,"lng":138.44141,"version":"14.0b/19.0a"},{"town":"草薙杉道一丁目","koaza":"","lat":35.004112,"lng":138.45392,"version":"14.0b/19.0a"},{"town":"草薙杉道二丁目","koaza":"","lat":35.002573,"lng":138.453368,"version":"14.0b/19.0a"},{"town":"草薙杉道三丁目","koaza":"","lat":35.002154,"lng":138.450872,"version":"14.0b/19.0a"},{"town":"楠","koaza":"","lat":35.009093,"lng":138.438758,"version":"14.0b/19.0a"},{"town":"楠新田","koaza":"","lat":35.008572,"lng":138.443246,"version":"14.0b/19.0a"},{"town":"河内","koaza":"","lat":35.143224,"lng":138.422697,"version":"14.0b/19.0a"},{"town":"港南町","koaza":"","lat":34.975893,"lng":138.492012,"version":"14.0b/19.0a"},{"town":"小河内","koaza":"","lat":35.124029,"lng":138.512235,"version":"14.0b/19.0a"},{"town":"駒越","koaza":"","lat":34.974975,"lng":138.48103,"version":"14.0b/19.0a"},{"town":"駒越北町","koaza":"","lat":34.983645,"lng":138.497787,"version":"14.0b/19.0a"},{"town":"駒越中一丁目","koaza":"","lat":34.978375,"lng":138.501147,"version":"14.0b/19.0a"},{"town":"駒越中二丁目","koaza":"","lat":34.97909,"lng":138.496275,"version":"14.0b/19.0a"},{"town":"駒越西一丁目","koaza":"","lat":34.975603,"lng":138.498501,"version":"14.0b/19.0a"},{"town":"駒越西二丁目","koaza":"","lat":34.973461,"lng":138.494013,"version":"14.0b/19.0a"},{"town":"駒越東町","koaza":"","lat":34.981921,"lng":138.502592,"version":"14.0b/19.0a"},{"town":"駒越南町","koaza":"","lat":34.98029,"lng":138.505788,"version":"14.0b/19.0a"},{"town":"幸町","koaza":"","lat":35.000922,"lng":138.492284,"version":"14.0b/19.0a"},{"town":"桜が丘町","koaza":"","lat":35.010656,"lng":138.477224,"version":"14.0b/19.0a"},{"town":"桜橋町","koaza":"","lat":35.014162,"lng":138.476773,"version":"14.0b/19.0a"},{"town":"三光町","koaza":"","lat":35.002602,"lng":138.48707,"version":"14.0b/19.0a"},{"town":"茂野島","koaza":"","lat":35.111547,"lng":138.464527,"version":"14.0b/19.0a"},{"town":"宍原","koaza":"","lat":35.170553,"lng":138.509808,"version":"14.0b/19.0a"},{"town":"渋川","koaza":"","lat":35.016616,"lng":138.467981,"version":"14.0b/19.0a"},{"town":"渋川一丁目","koaza":"","lat":35.022522,"lng":138.470113,"version":"14.0b/19.0a"},{"town":"渋川二丁目","koaza":"","lat":35.019832,"lng":138.46969,"version":"14.0b/19.0a"},{"town":"渋川三丁目","koaza":"","lat":35.019233,"lng":138.467249,"version":"14.0b/19.0a"},{"town":"島崎町","koaza":"","lat":35.019232,"lng":138.490441,"version":"14.0b/19.0a"},{"town":"清水町","koaza":"","lat":35.006413,"lng":138.489972,"version":"14.0b/19.0a"},{"town":"清水村松地先新田","koaza":"","lat":34.993073,"lng":138.494662,"version":"14.0b/19.0a"},{"town":"下清水町","koaza":"","lat":35.007771,"lng":138.482245,"version":"14.0b/19.0a"},{"town":"下野","koaza":"","lat":35.039828,"lng":138.468808,"version":"14.0b/19.0a"},{"town":"下野北","koaza":"","lat":35.038091,"lng":138.470799,"version":"14.0b/19.0a"},{"town":"下野町","koaza":"","lat":35.034083,"lng":138.464132,"version":"14.0b/19.0a"},{"town":"下野中","koaza":"","lat":35.036634,"lng":138.468574,"version":"14.0b/19.0a"},{"town":"下野西","koaza":"","lat":35.035869,"lng":138.466077,"version":"14.0b/19.0a"},{"town":"下野東","koaza":"","lat":35.034453,"lng":138.471197,"version":"14.0b/19.0a"},{"town":"下野緑町","koaza":"","lat":35.032211,"lng":138.467598,"version":"14.0b/19.0a"},{"town":"承元寺町","koaza":"","lat":35.084084,"lng":138.526269,"version":"14.0b/19.0a"},{"town":"庄福町","koaza":"","lat":34.999086,"lng":138.480061,"version":"14.0b/19.0a"},{"town":"上力町","koaza":"","lat":34.997441,"lng":138.48039,"version":"14.0b/19.0a"},{"town":"新富町","koaza":"","lat":35.016004,"lng":138.481816,"version":"14.0b/19.0a"},{"town":"新緑町","koaza":"","lat":34.994265,"lng":138.489031,"version":"14.0b/19.0a"},{"town":"新港町","koaza":"","lat":35.013228,"lng":138.493886,"version":"14.0b/19.0a"},{"town":"清開一丁目","koaza":"","lat":34.9991,"lng":138.496238,"version":"14.0b/19.0a"},{"town":"清開二丁目","koaza":"","lat":34.996824,"lng":138.493419,"version":"14.0b/19.0a"},{"town":"清開三丁目","koaza":"","lat":34.992803,"lng":138.499397,"version":"14.0b/19.0a"},{"town":"増","koaza":"","lat":34.968743,"lng":138.484344,"version":"14.0b/19.0a"},{"town":"袖師町","koaza":"","lat":35.031417,"lng":138.492583,"version":"14.0b/19.0a"},{"town":"高橋一丁目","koaza":"","lat":35.032151,"lng":138.474038,"version":"14.0b/19.0a"},{"town":"高橋二丁目","koaza":"","lat":35.030378,"lng":138.472363,"version":"14.0b/19.0a"},{"town":"高橋三丁目","koaza":"","lat":35.030173,"lng":138.468502,"version":"14.0b/19.0a"},{"town":"高橋四丁目","koaza":"","lat":35.02771,"lng":138.472467,"version":"14.0b/19.0a"},{"town":"高橋五丁目","koaza":"","lat":35.026744,"lng":138.468377,"version":"14.0b/19.0a"},{"town":"高橋六丁目","koaza":"","lat":35.025529,"lng":138.46787,"version":"14.0b/19.0a"},{"town":"高橋町","koaza":"","lat":35.042303,"lng":138.469915,"version":"14.0b/19.0a"},{"town":"高橋南町","koaza":"","lat":35.027326,"lng":138.476189,"version":"14.0b/19.0a"},{"town":"高山","koaza":"","lat":35.103591,"lng":138.467543,"version":"14.0b/19.0a"},{"town":"宝町","koaza":"","lat":35.021651,"lng":138.482545,"version":"14.0b/19.0a"},{"town":"但沼町","koaza":"","lat":35.102696,"lng":138.504959,"version":"14.0b/19.0a"},{"town":"立花","koaza":"","lat":35.096576,"lng":138.527592,"version":"14.0b/19.0a"},{"town":"田町","koaza":"","lat":35.03335,"lng":138.48746,"version":"14.0b/19.0a"},{"town":"千歳町","koaza":"","lat":35.014812,"lng":138.485024,"version":"14.0b/19.0a"},{"town":"築地町","koaza":"","lat":35.00428,"lng":138.493819,"version":"14.0b/19.0a"},{"town":"月見町","koaza":"","lat":35.003086,"lng":138.479791,"version":"14.0b/19.0a"},{"town":"辻一丁目","koaza":"","lat":35.027583,"lng":138.488847,"version":"14.0b/19.0a"},{"town":"辻二丁目","koaza":"","lat":35.027288,"lng":138.487136,"version":"14.0b/19.0a"},{"town":"辻三丁目","koaza":"","lat":35.030489,"lng":138.488017,"version":"14.0b/19.0a"},{"town":"辻四丁目","koaza":"","lat":35.027914,"lng":138.485322,"version":"14.0b/19.0a"},{"town":"辻五丁目","koaza":"","lat":35.029891,"lng":138.483563,"version":"14.0b/19.0a"},{"town":"鶴舞町","koaza":"","lat":35.016944,"lng":138.473121,"version":"14.0b/19.0a"},{"town":"天神一丁目","koaza":"","lat":35.025958,"lng":138.48053,"version":"14.0b/19.0a"},{"town":"天神二丁目","koaza":"","lat":35.026095,"lng":138.478985,"version":"14.0b/19.0a"},{"town":"天王町","koaza":"","lat":35.027519,"lng":138.460515,"version":"14.0b/19.0a"},{"town":"天王西","koaza":"","lat":35.029277,"lng":138.460442,"version":"14.0b/19.0a"},{"town":"天王東","koaza":"","lat":35.030131,"lng":138.462648,"version":"14.0b/19.0a"},{"town":"天王南","koaza":"","lat":35.027557,"lng":138.463613,"version":"14.0b/19.0a"},{"town":"土","koaza":"","lat":35.115043,"lng":138.450184,"version":"14.0b/19.0a"},{"town":"堂林一丁目","koaza":"","lat":35.0075,"lng":138.477211,"version":"14.0b/19.0a"},{"town":"堂林二丁目","koaza":"","lat":35.005974,"lng":138.477132,"version":"14.0b/19.0a"},{"town":"葛沢","koaza":"","lat":35.129103,"lng":138.45672,"version":"14.0b/19.0a"},{"town":"殿沢一丁目","koaza":"","lat":34.980266,"lng":138.490465,"version":"14.0b/19.0a"},{"town":"殿沢二丁目","koaza":"","lat":34.979238,"lng":138.490208,"version":"14.0b/19.0a"},{"town":"巴町","koaza":"","lat":35.016111,"lng":138.487065,"version":"14.0b/19.0a"},{"town":"鳥坂","koaza":"","lat":35.016746,"lng":138.434637,"version":"14.0b/19.0a"},{"town":"中河内","koaza":"","lat":35.146156,"lng":138.473928,"version":"14.0b/19.0a"},{"town":"長崎","koaza":"","lat":35.015145,"lng":138.444452,"version":"14.0b/19.0a"},{"town":"長崎新田","koaza":"","lat":35.018003,"lng":138.448657,"version":"14.0b/19.0a"},{"town":"長崎南町","koaza":"","lat":35.008282,"lng":138.447849,"version":"14.0b/19.0a"},{"town":"中之郷","koaza":"","lat":35.004861,"lng":138.438841,"version":"14.0b/19.0a"},{"town":"中之郷一丁目","koaza":"","lat":34.998062,"lng":138.440046,"version":"14.0b/19.0a"},{"town":"中之郷二丁目","koaza":"","lat":34.999904,"lng":138.439217,"version":"14.0b/19.0a"},{"town":"中之郷三丁目","koaza":"","lat":35.001447,"lng":138.438734,"version":"14.0b/19.0a"},{"town":"中矢部町","koaza":"","lat":34.999969,"lng":138.479012,"version":"14.0b/19.0a"},{"town":"七ツ新屋","koaza":"","lat":35.013017,"lng":138.451202,"version":"14.0b/19.0a"},{"town":"七ツ新屋一丁目","koaza":"","lat":35.008889,"lng":138.452546,"version":"14.0b/19.0a"},{"town":"七ツ新屋二丁目","koaza":"","lat":35.010223,"lng":138.451379,"version":"14.0b/19.0a"},{"town":"西大曲町","koaza":"","lat":35.020237,"lng":138.472207,"version":"14.0b/19.0a"},{"town":"西久保","koaza":"","lat":35.035927,"lng":138.48494,"version":"14.0b/19.0a"},{"town":"西久保一丁目","koaza":"","lat":35.032875,"lng":138.482729,"version":"14.0b/19.0a"},{"town":"西里","koaza":"","lat":35.112681,"lng":138.421235,"version":"14.0b/19.0a"},{"town":"西高町","koaza":"","lat":35.007623,"lng":138.473,"version":"14.0b/19.0a"},{"town":"二の丸町","koaza":"","lat":35.022171,"lng":138.479151,"version":"14.0b/19.0a"},{"town":"布沢","koaza":"","lat":35.104892,"lng":138.444332,"version":"14.0b/19.0a"},{"town":"沼田町","koaza":"","lat":34.996966,"lng":138.483758,"version":"14.0b/19.0a"},{"town":"能島","koaza":"","lat":35.024861,"lng":138.458093,"version":"14.0b/19.0a"},{"town":"蜂ヶ谷","koaza":"","lat":35.04184,"lng":138.457007,"version":"14.0b/19.0a"},{"town":"蜂ヶ谷南町","koaza":"","lat":35.035763,"lng":138.461375,"version":"14.0b/19.0a"},{"town":"浜田町","koaza":"","lat":35.014234,"lng":138.48227,"version":"14.0b/19.0a"},{"town":"原","koaza":"","lat":35.055151,"lng":138.477526,"version":"14.0b/19.0a"},{"town":"半左衛門新田","koaza":"","lat":35.015582,"lng":138.452946,"version":"14.0b/19.0a"},{"town":"東大曲町","koaza":"","lat":35.02059,"lng":138.475095,"version":"14.0b/19.0a"},{"town":"日立町","koaza":"","lat":34.994932,"lng":138.484797,"version":"14.0b/19.0a"},{"town":"日の出町","koaza":"","lat":35.006316,"lng":138.496154,"version":"14.0b/19.0a"},{"town":"平川地","koaza":"","lat":35.010212,"lng":138.462334,"version":"14.0b/19.0a"},{"town":"広瀬","koaza":"","lat":35.061865,"lng":138.497417,"version":"14.0b/19.0a"},{"town":"富士見町","koaza":"","lat":35.009714,"lng":138.489373,"version":"14.0b/19.0a"},{"town":"船越","koaza":"","lat":34.998956,"lng":138.467219,"version":"14.0b/19.0a"},{"town":"船越一丁目","koaza":"","lat":35.002159,"lng":138.46695,"version":"14.0b/19.0a"},{"town":"船越二丁目","koaza":"","lat":35.000607,"lng":138.468469,"version":"14.0b/19.0a"},{"town":"船越三丁目","koaza":"","lat":34.999071,"lng":138.470483,"version":"14.0b/19.0a"},{"town":"船越町","koaza":"","lat":35.00012,"lng":138.466774,"version":"14.0b/19.0a"},{"town":"船越東町","koaza":"","lat":35.003078,"lng":138.472818,"version":"14.0b/19.0a"},{"town":"船越南町","koaza":"","lat":35.001262,"lng":138.471615,"version":"14.0b/19.0a"},{"town":"船原一丁目","koaza":"","lat":35.007533,"lng":138.469233,"version":"14.0b/19.0a"},{"town":"船原二丁目","koaza":"","lat":35.005947,"lng":138.471585,"version":"14.0b/19.0a"},{"town":"蛇塚","koaza":"","lat":34.967029,"lng":138.47663,"version":"14.0b/19.0a"},{"town":"堀込","koaza":"","lat":35.019869,"lng":138.451969,"version":"14.0b/19.0a"},{"town":"本郷町","koaza":"","lat":35.024544,"lng":138.485623,"version":"14.0b/19.0a"},{"town":"本町","koaza":"","lat":35.008527,"lng":138.48832,"version":"14.0b/19.0a"},{"town":"真砂町","koaza":"","lat":35.021458,"lng":138.48801,"version":"14.0b/19.0a"},{"town":"松井町","koaza":"","lat":35.003089,"lng":138.491445,"version":"14.0b/19.0a"},{"town":"松原町","koaza":"","lat":35.012653,"lng":138.491176,"version":"14.0b/19.0a"},{"town":"馬走","koaza":"","lat":34.99127,"lng":138.461675,"version":"14.0b/19.0a"},{"town":"馬走北","koaza":"","lat":35.006855,"lng":138.459877,"version":"14.0b/19.0a"},{"town":"馬走坂の上","koaza":"","lat":35.002688,"lng":138.457086,"version":"14.0b/19.0a"},{"town":"万世町一丁目","koaza":"","lat":35.012416,"lng":138.487022,"version":"14.0b/19.0a"},{"town":"万世町二丁目","koaza":"","lat":35.01254,"lng":138.489195,"version":"14.0b/19.0a"},{"town":"御門台","koaza":"","lat":35.004338,"lng":138.45677,"version":"14.0b/19.0a"},{"town":"緑が丘町","koaza":"","lat":34.992578,"lng":138.486333,"version":"14.0b/19.0a"},{"town":"港町一丁目","koaza":"","lat":35.009159,"lng":138.493615,"version":"14.0b/19.0a"},{"town":"港町二丁目","koaza":"","lat":35.0077,"lng":138.492373,"version":"14.0b/19.0a"},{"town":"南岡町","koaza":"","lat":35.005396,"lng":138.485382,"version":"14.0b/19.0a"},{"town":"南矢部","koaza":"","lat":34.993395,"lng":138.475695,"version":"14.0b/19.0a"},{"town":"美濃輪町","koaza":"","lat":35.00517,"lng":138.49086,"version":"14.0b/19.0a"},{"town":"三保","koaza":"","lat":35.006563,"lng":138.517796,"version":"14.0b/19.0a"},{"town":"宮加三","koaza":"","lat":34.983592,"lng":138.485277,"version":"14.0b/19.0a"},{"town":"宮下町","koaza":"","lat":35.03244,"lng":138.486681,"version":"14.0b/19.0a"},{"town":"宮代町","koaza":"","lat":35.0263,"lng":138.483471,"version":"14.0b/19.0a"},{"town":"向田町","koaza":"","lat":34.998611,"lng":138.483632,"version":"14.0b/19.0a"},{"town":"迎山町","koaza":"","lat":34.976898,"lng":138.490991,"version":"14.0b/19.0a"},{"town":"村松","koaza":"","lat":34.98424,"lng":138.476284,"version":"14.0b/19.0a"},{"town":"村松一丁目","koaza":"","lat":34.996316,"lng":138.491007,"version":"14.0b/19.0a"},{"town":"村松原一丁目","koaza":"","lat":34.99964,"lng":138.488972,"version":"14.0b/19.0a"},{"town":"村松原二丁目","koaza":"","lat":34.99889,"lng":138.486592,"version":"14.0b/19.0a"},{"town":"村松原三丁目","koaza":"","lat":34.996854,"lng":138.488088,"version":"14.0b/19.0a"},{"town":"元城町","koaza":"","lat":35.019715,"lng":138.477151,"version":"14.0b/19.0a"},{"town":"茂畑","koaza":"","lat":35.081057,"lng":138.494425,"version":"14.0b/19.0a"},{"town":"八木間町","koaza":"","lat":35.065386,"lng":138.517703,"version":"14.0b/19.0a"},{"town":"矢倉町","koaza":"","lat":35.030999,"lng":138.485148,"version":"14.0b/19.0a"},{"town":"八坂北一丁目","koaza":"","lat":35.036155,"lng":138.474641,"version":"14.0b/19.0a"},{"town":"八坂北二丁目","koaza":"","lat":35.038617,"lng":138.474381,"version":"14.0b/19.0a"},{"town":"八坂町","koaza":"","lat":35.038357,"lng":138.478708,"version":"14.0b/19.0a"},{"town":"八坂西町","koaza":"","lat":35.032762,"lng":138.476593,"version":"14.0b/19.0a"},{"town":"八坂東一丁目","koaza":"","lat":35.035304,"lng":138.480672,"version":"14.0b/19.0a"},{"town":"八坂東二丁目","koaza":"","lat":35.033879,"lng":138.47791,"version":"14.0b/19.0a"},{"town":"八坂南町","koaza":"","lat":35.0293,"lng":138.477762,"version":"14.0b/19.0a"},{"town":"谷田","koaza":"","lat":34.99716,"lng":138.441416,"version":"14.0b/19.0a"},{"town":"八千代町","koaza":"","lat":35.003111,"lng":138.488803,"version":"14.0b/19.0a"},{"town":"谷津町一丁目","koaza":"","lat":35.073325,"lng":138.516943,"version":"14.0b/19.0a"},{"town":"谷津町二丁目","koaza":"","lat":35.077346,"lng":138.515919,"version":"14.0b/19.0a"},{"town":"弥生町","koaza":"","lat":35.031108,"lng":138.464813,"version":"14.0b/19.0a"},{"town":"山原","koaza":"","lat":35.05103,"lng":138.458457,"version":"14.0b/19.0a"},{"town":"由比","koaza":"","lat":35.114494,"lng":138.568479,"version":"14.0b/19.0a"},{"town":"由比阿僧","koaza":"","lat":35.117635,"lng":138.547297,"version":"14.0b/19.0a"},{"town":"由比今宿","koaza":"","lat":35.099146,"lng":138.546271,"version":"14.0b/19.0a"},{"town":"由比入山","koaza":"","lat":35.143537,"lng":138.560998,"version":"14.0b/19.0a"},{"town":"由比北田","koaza":"","lat":35.107421,"lng":138.561475,"version":"14.0b/19.0a"},{"town":"由比寺尾","koaza":"","lat":35.093553,"lng":138.5444,"version":"14.0b/19.0a"},{"town":"由比西倉澤","koaza":"","lat":35.077472,"lng":138.543358,"version":"14.0b/19.0a"},{"town":"由比西山寺","koaza":"","lat":35.111482,"lng":138.539764,"version":"14.0b/19.0a"},{"town":"由比東倉澤","koaza":"","lat":35.087863,"lng":138.543224,"version":"14.0b/19.0a"},{"town":"由比東山寺","koaza":"","lat":35.122722,"lng":138.561117,"version":"14.0b/19.0a"},{"town":"由比町屋原","koaza":"","lat":35.105405,"lng":138.554482,"version":"14.0b/19.0a"},{"town":"由比八千代","koaza":"","lat":35.111877,"lng":138.552591,"version":"14.0b/19.0a"},{"town":"横砂","koaza":"","lat":35.037626,"lng":138.50378,"version":"14.0b/19.0a"},{"town":"横砂中町","koaza":"","lat":35.041679,"lng":138.497604,"version":"14.0b/19.0a"},{"town":"横砂西町","koaza":"","lat":35.039644,"lng":138.495748,"version":"14.0b/19.0a"},{"town":"横砂東町","koaza":"","lat":35.046965,"lng":138.503017,"version":"14.0b/19.0a"},{"town":"横砂本町","koaza":"","lat":35.044139,"lng":138.500096,"version":"14.0b/19.0a"},{"town":"横砂南町","koaza":"","lat":35.039442,"lng":138.49972,"version":"14.0b/19.0a"},{"town":"和田島","koaza":"","lat":35.104812,"lng":138.476621,"version":"14.0b/19.0a"},{"town":"伊佐布","koaza":"","lat":35.070964,"lng":138.451879,"version":"14.0b/19.0a"},{"town":"山切","koaza":"","lat":35.062255,"lng":138.483412,"version":"14.0b/19.0a"},{"town":"吉原","koaza":"","lat":35.08539,"lng":138.447318,"version":"14.0b/19.0a"},{"town":"杉山","koaza":"","lat":35.080995,"lng":138.486722,"version":"14.0b/19.0a"},{"town":"新丹谷","koaza":"","lat":35.072403,"lng":138.474199,"version":"14.0b/19.0a"},{"town":"三保松原町","koaza":"","lat":34.995629,"lng":138.518961,"version":"14.0b/19.0a"}]