[{"town":"字赤川橋ノ上","koaza":"","lat":40.767315,"lng":141.215255,"version":"13.0b/18.0a"},{"town":"字赤川橋ノ下","koaza":"","lat":40.760487,"lng":141.223467,"version":"13.0b/18.0a"},{"town":"字赤川道","koaza":"","lat":40.770706,"lng":141.221904,"version":"13.0b/18.0a"},{"town":"字空久保","koaza":"","lat":40.8582,"lng":141.202708,"version":"13.0b/18.0a"},{"town":"字秋取山","koaza":"","lat":40.808875,"lng":141.101517,"version":"13.0b/18.0a"},{"town":"字家ノ上平","koaza":"","lat":40.768129,"lng":141.286834,"version":"13.0b/18.0a"},{"town":"字家ノ下タ","koaza":"","lat":40.81532,"lng":141.128481,"version":"13.0b/18.0a"},{"town":"字家ノ下モ","koaza":"","lat":40.820424,"lng":141.16356,"version":"13.0b/18.0a"},{"town":"字家ノ前","koaza":"","lat":40.83334,"lng":141.126092,"version":"13.0b/18.0a"},{"town":"字五十嵐","koaza":"","lat":40.867116,"lng":141.261659,"version":"13.0b/18.0a"},{"town":"字石坂","koaza":"","lat":40.830856,"lng":141.127555,"version":"13.0b/18.0a"},{"town":"字石文","koaza":"","lat":40.794078,"lng":141.172951,"version":"13.0b/18.0a"},{"town":"字板橋平","koaza":"","lat":40.81421,"lng":141.100461,"version":"13.0b/18.0a"},{"town":"字板橋山","koaza":"","lat":40.820069,"lng":141.127073,"version":"13.0b/18.0a"},{"town":"字岩間手橋ノ上","koaza":"","lat":40.811369,"lng":141.256486,"version":"13.0b/18.0a"},{"town":"字後久保","koaza":"","lat":40.770524,"lng":141.302773,"version":"13.0b/18.0a"},{"town":"字内蛯沢坂ノ下","koaza":"","lat":40.765645,"lng":141.222948,"version":"13.0b/18.0a"},{"town":"字内蛯沢道ノ上","koaza":"","lat":40.772419,"lng":141.218745,"version":"13.0b/18.0a"},{"town":"字内蛯沢向","koaza":"","lat":40.769718,"lng":141.229474,"version":"13.0b/18.0a"},{"town":"字宇道坂","koaza":"","lat":40.817259,"lng":141.096203,"version":"13.0b/18.0a"},{"town":"字姥沢","koaza":"","lat":40.89353,"lng":141.218671,"version":"13.0b/18.0a"},{"town":"字馬尻","koaza":"","lat":40.79446,"lng":141.200324,"version":"13.0b/18.0a"},{"town":"字狼ノ沢","koaza":"","lat":40.802113,"lng":141.291882,"version":"13.0b/18.0a"},{"town":"字大久保","koaza":"","lat":40.751715,"lng":141.315754,"version":"13.0b/18.0a"},{"town":"字大久保平","koaza":"","lat":40.832852,"lng":141.19664,"version":"13.0b/18.0a"},{"town":"字大沢","koaza":"","lat":40.80548,"lng":141.214226,"version":"13.0b/18.0a"},{"town":"字大平","koaza":"","lat":40.826149,"lng":141.147865,"version":"13.0b/18.0a"},{"town":"字太田平","koaza":"","lat":40.877399,"lng":141.208299,"version":"13.0b/18.0a"},{"town":"字大撫沢","koaza":"","lat":40.843639,"lng":141.137103,"version":"13.0b/18.0a"},{"town":"字大籏屋","koaza":"","lat":40.796557,"lng":141.198895,"version":"13.0b/18.0a"},{"town":"字大向","koaza":"","lat":40.843462,"lng":141.164055,"version":"13.0b/18.0a"},{"town":"字往来ノ上","koaza":"","lat":40.77422,"lng":141.270755,"version":"13.0b/18.0a"},{"town":"字往来ノ下","koaza":"","lat":40.776713,"lng":141.285604,"version":"13.0b/18.0a"},{"town":"字岡端","koaza":"","lat":40.829434,"lng":141.122054,"version":"13.0b/18.0a"},{"town":"字小沢","koaza":"","lat":40.814555,"lng":141.193758,"version":"13.0b/18.0a"},{"town":"字落合","koaza":"","lat":40.7939,"lng":141.256584,"version":"13.0b/18.0a"},{"town":"字乙越","koaza":"","lat":40.770607,"lng":141.2754,"version":"13.0b/18.0a"},{"town":"字乙供","koaza":"","lat":40.76799,"lng":141.207513,"version":"13.0b/18.0a"},{"town":"字乙供山","koaza":"","lat":40.780629,"lng":141.197624,"version":"13.0b/18.0a"},{"town":"字乙部橋ノ上","koaza":"","lat":40.810942,"lng":141.254214,"version":"13.0b/18.0a"},{"town":"字乙部道ノ上","koaza":"","lat":40.804924,"lng":141.254938,"version":"13.0b/18.0a"},{"town":"字乙部道ノ下","koaza":"","lat":40.799366,"lng":141.256795,"version":"13.0b/18.0a"},{"town":"字ガス平","koaza":"","lat":40.900596,"lng":141.242896,"version":"13.0b/18.0a"},{"town":"字数牛","koaza":"","lat":40.876475,"lng":141.232848,"version":"13.0b/18.0a"},{"town":"字数牛尻","koaza":"","lat":40.870783,"lng":141.241247,"version":"13.0b/18.0a"},{"town":"字上板橋家ノ後","koaza":"","lat":40.810919,"lng":141.118504,"version":"13.0b/18.0a"},{"town":"字上久保","koaza":"","lat":40.76329,"lng":141.290583,"version":"13.0b/18.0a"},{"town":"字上笹橋","koaza":"","lat":40.779592,"lng":141.214296,"version":"13.0b/18.0a"},{"town":"字上清水目","koaza":"","lat":40.827722,"lng":141.11649,"version":"13.0b/18.0a"},{"town":"字川向","koaza":"","lat":40.815948,"lng":141.098562,"version":"13.0b/18.0a"},{"town":"字川迎","koaza":"","lat":40.805641,"lng":141.12034,"version":"13.0b/18.0a"},{"town":"字岩渡沢","koaza":"","lat":40.798668,"lng":141.22095,"version":"13.0b/18.0a"},{"town":"字北膳前","koaza":"","lat":40.785917,"lng":141.208461,"version":"13.0b/18.0a"},{"town":"字狐沢","koaza":"","lat":40.852105,"lng":141.162233,"version":"13.0b/18.0a"},{"town":"字狐沢山","koaza":"","lat":40.849923,"lng":141.158641,"version":"13.0b/18.0a"},{"town":"字切左坂道ノ上","koaza":"","lat":40.827212,"lng":141.265538,"version":"13.0b/18.0a"},{"town":"字切左坂道ノ下","koaza":"","lat":40.820555,"lng":141.259373,"version":"13.0b/18.0a"},{"town":"字熊堂","koaza":"","lat":40.821721,"lng":141.289216,"version":"13.0b/18.0a"},{"town":"字栗山添","koaza":"","lat":40.79074,"lng":141.216917,"version":"13.0b/18.0a"},{"town":"字黒志多","koaza":"","lat":40.750045,"lng":141.296203,"version":"13.0b/18.0a"},{"town":"字枋木","koaza":"","lat":40.819015,"lng":141.239258,"version":"13.0b/18.0a"},{"town":"字塞ノ神","koaza":"","lat":40.815631,"lng":141.087307,"version":"13.0b/18.0a"},{"town":"字坂下","koaza":"","lat":40.84181,"lng":141.160285,"version":"13.0b/18.0a"},{"town":"字坂ノ下","koaza":"","lat":40.790377,"lng":141.257402,"version":"13.0b/18.0a"},{"town":"字笹久保","koaza":"","lat":40.771438,"lng":141.287622,"version":"13.0b/18.0a"},{"town":"字淋代","koaza":"","lat":40.867368,"lng":141.217834,"version":"13.0b/18.0a"},{"town":"字淋代下山","koaza":"","lat":40.863227,"lng":141.252664,"version":"13.0b/18.0a"},{"town":"字漆玉","koaza":"","lat":40.789051,"lng":141.289309,"version":"13.0b/18.0a"},{"town":"字篠内平","koaza":"","lat":40.788817,"lng":141.187297,"version":"13.0b/18.0a"},{"town":"字清水目深山","koaza":"","lat":40.804698,"lng":141.09457,"version":"13.0b/18.0a"},{"town":"字清水目向","koaza":"","lat":40.817394,"lng":141.109846,"version":"13.0b/18.0a"},{"town":"字清水目山","koaza":"","lat":40.819083,"lng":141.118981,"version":"13.0b/18.0a"},{"town":"字下板橋","koaza":"","lat":40.808688,"lng":141.142998,"version":"13.0b/18.0a"},{"town":"字下笹橋","koaza":"","lat":40.775851,"lng":141.214431,"version":"13.0b/18.0a"},{"town":"字下山","koaza":"","lat":40.787628,"lng":141.218333,"version":"13.0b/18.0a"},{"town":"字素柄邸","koaza":"","lat":40.7797,"lng":141.27484,"version":"13.0b/18.0a"},{"town":"字堰合","koaza":"","lat":40.821194,"lng":141.113626,"version":"13.0b/18.0a"},{"town":"字堰向","koaza":"","lat":40.82441,"lng":141.116561,"version":"13.0b/18.0a"},{"town":"字膳前","koaza":"","lat":40.781986,"lng":141.20767,"version":"13.0b/18.0a"},{"town":"字添ノ沢","koaza":"","lat":40.82221,"lng":141.104627,"version":"13.0b/18.0a"},{"town":"字袖ノ沢","koaza":"","lat":40.808267,"lng":141.189273,"version":"13.0b/18.0a"},{"town":"字外蛯沢後久保","koaza":"","lat":40.79015,"lng":141.22912,"version":"13.0b/18.0a"},{"town":"字外蛯沢北久保","koaza":"","lat":40.786839,"lng":141.236416,"version":"13.0b/18.0a"},{"town":"字外蛯沢西平","koaza":"","lat":40.782272,"lng":141.229589,"version":"13.0b/18.0a"},{"town":"字外蛯沢前平","koaza":"","lat":40.781044,"lng":141.241311,"version":"13.0b/18.0a"},{"town":"字高森","koaza":"","lat":40.864043,"lng":141.220077,"version":"13.0b/18.0a"},{"town":"字滝沢","koaza":"","lat":40.84858,"lng":141.244905,"version":"13.0b/18.0a"},{"town":"字滝沢尻","koaza":"","lat":40.799554,"lng":141.260997,"version":"13.0b/18.0a"},{"town":"字滝沢平","koaza":"","lat":40.800185,"lng":141.274773,"version":"13.0b/18.0a"},{"town":"字滝沢山","koaza":"","lat":40.843161,"lng":141.241949,"version":"13.0b/18.0a"},{"town":"字舘","koaza":"","lat":40.765153,"lng":141.258347,"version":"13.0b/18.0a"},{"town":"字蓼内久保","koaza":"","lat":40.757223,"lng":141.285464,"version":"13.0b/18.0a"},{"town":"字舘花","koaza":"","lat":40.77288,"lng":141.212755,"version":"13.0b/18.0a"},{"town":"字田ノ沢","koaza":"","lat":40.78903,"lng":141.302638,"version":"13.0b/18.0a"},{"town":"字田ノ沢川添","koaza":"","lat":40.777399,"lng":141.301327,"version":"13.0b/18.0a"},{"town":"字田面木","koaza":"","lat":40.845087,"lng":141.147528,"version":"13.0b/18.0a"},{"town":"字千曳","koaza":"","lat":40.79991,"lng":141.167791,"version":"13.0b/18.0a"},{"town":"字千曳下山","koaza":"","lat":40.798348,"lng":141.181537,"version":"13.0b/18.0a"},{"town":"字千曳向","koaza":"","lat":40.798469,"lng":141.163969,"version":"13.0b/18.0a"},{"town":"字長者久保","koaza":"","lat":40.847791,"lng":141.157247,"version":"13.0b/18.0a"},{"town":"字堤尻","koaza":"","lat":40.762508,"lng":141.302184,"version":"13.0b/18.0a"},{"town":"字堤端","koaza":"","lat":40.792312,"lng":141.18556,"version":"13.0b/18.0a"},{"town":"字鶴ケ崎","koaza":"","lat":40.755174,"lng":141.317382,"version":"13.0b/18.0a"},{"town":"字寺沢","koaza":"","lat":40.761593,"lng":141.273427,"version":"13.0b/18.0a"},{"town":"字寺沢川端","koaza":"","lat":40.760037,"lng":141.265905,"version":"13.0b/18.0a"},{"town":"字塔ノ沢","koaza":"","lat":40.812265,"lng":141.198244,"version":"13.0b/18.0a"},{"town":"字塔ノ沢山","koaza":"","lat":40.779099,"lng":141.222246,"version":"13.0b/18.0a"},{"town":"字戸田ノ沢","koaza":"","lat":40.849187,"lng":141.139928,"version":"13.0b/18.0a"},{"town":"字土場","koaza":"","lat":40.790796,"lng":141.259832,"version":"13.0b/18.0a"},{"town":"字土場川","koaza":"","lat":40.778025,"lng":141.253616,"version":"13.0b/18.0a"},{"town":"字土場川目","koaza":"","lat":40.85456,"lng":141.234012,"version":"13.0b/18.0a"},{"town":"字鳥口平","koaza":"","lat":40.767886,"lng":141.262927,"version":"13.0b/18.0a"},{"town":"字長久保","koaza":"","lat":40.763663,"lng":141.281121,"version":"13.0b/18.0a"},{"town":"字中津平","koaza":"","lat":40.755595,"lng":141.304666,"version":"13.0b/18.0a"},{"town":"字中村道ノ上","koaza":"","lat":40.838053,"lng":141.280854,"version":"13.0b/18.0a"},{"town":"字中村道ノ下","koaza":"","lat":40.829244,"lng":141.299636,"version":"13.0b/18.0a"},{"town":"字夏焼","koaza":"","lat":40.819586,"lng":141.199717,"version":"13.0b/18.0a"},{"town":"字楢木山","koaza":"","lat":40.85684,"lng":141.250512,"version":"13.0b/18.0a"},{"town":"字西ノ沢","koaza":"","lat":40.853924,"lng":141.181991,"version":"13.0b/18.0a"},{"town":"字沼添左ノ平","koaza":"","lat":40.817411,"lng":141.29185,"version":"13.0b/18.0a"},{"town":"字子ノ鳥平","koaza":"","lat":40.818737,"lng":141.270161,"version":"13.0b/18.0a"},{"town":"字野田頭","koaza":"","lat":40.821799,"lng":141.274176,"version":"13.0b/18.0a"},{"town":"字野田頭山","koaza":"","lat":40.819818,"lng":141.280919,"version":"13.0b/18.0a"},{"town":"字野田尻","koaza":"","lat":40.816767,"lng":141.278832,"version":"13.0b/18.0a"},{"town":"字浜家苫","koaza":"","lat":40.771479,"lng":141.316766,"version":"13.0b/18.0a"},{"town":"字浜台","koaza":"","lat":40.809745,"lng":141.291672,"version":"13.0b/18.0a"},{"town":"字林ノ下","koaza":"","lat":40.824865,"lng":141.111807,"version":"13.0b/18.0a"},{"town":"字日影林ノ上山","koaza":"","lat":40.782347,"lng":141.274519,"version":"13.0b/18.0a"},{"town":"旭北一丁目","koaza":"","lat":40.734414,"lng":141.265428,"version":"13.0b/18.0a"},{"town":"旭北二丁目","koaza":"","lat":40.73662,"lng":141.267647,"version":"13.0b/18.0a"},{"town":"旭北三丁目","koaza":"","lat":40.737217,"lng":141.272008,"version":"13.0b/18.0a"},{"town":"旭北四丁目","koaza":"","lat":40.739024,"lng":141.276295,"version":"13.0b/18.0a"},{"town":"旭南一丁目","koaza":"","lat":40.729376,"lng":141.271603,"version":"13.0b/18.0a"},{"town":"旭南二丁目","koaza":"","lat":40.731979,"lng":141.27302,"version":"13.0b/18.0a"},{"town":"旭南三丁目","koaza":"","lat":40.732636,"lng":141.27562,"version":"13.0b/18.0a"},{"town":"旭南四丁目","koaza":"","lat":40.734003,"lng":141.278155,"version":"13.0b/18.0a"},{"town":"字寒水","koaza":"","lat":40.806632,"lng":141.226816,"version":"13.0b/18.0a"},{"town":"字寒水下","koaza":"","lat":40.81119,"lng":141.241815,"version":"13.0b/18.0a"},{"town":"字寒水山","koaza":"","lat":40.801709,"lng":141.244339,"version":"13.0b/18.0a"},{"town":"字敏蕩沢頭","koaza":"","lat":40.796529,"lng":141.212095,"version":"13.0b/18.0a"},{"town":"字藤木沢","koaza":"","lat":40.873034,"lng":141.250301,"version":"13.0b/18.0a"},{"town":"字夫雑原","koaza":"","lat":40.809418,"lng":141.154999,"version":"13.0b/18.0a"},{"town":"字夫雑原下山","koaza":"","lat":40.825997,"lng":141.173617,"version":"13.0b/18.0a"},{"town":"字夫雑原山中","koaza":"","lat":40.811519,"lng":141.188305,"version":"13.0b/18.0a"},{"town":"字船ケ沢","koaza":"","lat":40.761449,"lng":141.313969,"version":"13.0b/18.0a"},{"town":"字古屋敷","koaza":"","lat":40.753517,"lng":141.299229,"version":"13.0b/18.0a"},{"town":"字細津","koaza":"","lat":40.839079,"lng":141.253976,"version":"13.0b/18.0a"},{"town":"字細津橋ノ上","koaza":"","lat":40.842594,"lng":141.262307,"version":"13.0b/18.0a"},{"town":"字仏沢","koaza":"","lat":40.784179,"lng":141.217873,"version":"13.0b/18.0a"},{"town":"字保戸沢家ノ後","koaza":"","lat":40.793959,"lng":141.248486,"version":"13.0b/18.0a"},{"town":"字保戸沢家ノ上","koaza":"","lat":40.791735,"lng":141.246001,"version":"13.0b/18.0a"},{"town":"字保戸沢家ノ前","koaza":"","lat":40.788561,"lng":141.247864,"version":"13.0b/18.0a"},{"town":"字保戸沢道橋ノ上","koaza":"","lat":40.798076,"lng":141.242619,"version":"13.0b/18.0a"},{"town":"字洞内沢頭","koaza":"","lat":40.861329,"lng":141.179165,"version":"13.0b/18.0a"},{"town":"字間手場","koaza":"","lat":40.756135,"lng":141.271761,"version":"13.0b/18.0a"},{"town":"字饅頭長根","koaza":"","lat":40.835697,"lng":141.211001,"version":"13.0b/18.0a"},{"town":"字水尻","koaza":"","lat":40.779589,"lng":141.260809,"version":"13.0b/18.0a"},{"town":"字水流","koaza":"","lat":40.86005,"lng":141.19885,"version":"13.0b/18.0a"},{"town":"字水喰","koaza":"","lat":40.834025,"lng":141.274017,"version":"13.0b/18.0a"},{"town":"字水喰向","koaza":"","lat":40.828623,"lng":141.275791,"version":"13.0b/18.0a"},{"town":"字道合","koaza":"","lat":40.868941,"lng":141.216122,"version":"13.0b/18.0a"},{"town":"字道ノ北","koaza":"","lat":40.758564,"lng":141.295466,"version":"13.0b/18.0a"},{"town":"字向平","koaza":"","lat":40.798539,"lng":141.154107,"version":"13.0b/18.0a"},{"town":"字向籏屋","koaza":"","lat":40.788395,"lng":141.210321,"version":"13.0b/18.0a"},{"town":"字向屋敷","koaza":"","lat":40.794955,"lng":141.207917,"version":"13.0b/18.0a"},{"town":"字萠出道ノ上","koaza":"","lat":40.82798,"lng":141.246995,"version":"13.0b/18.0a"},{"town":"字萠出道ノ下","koaza":"","lat":40.835643,"lng":141.249169,"version":"13.0b/18.0a"},{"town":"字谷地頭","koaza":"","lat":40.87738,"lng":141.219509,"version":"13.0b/18.0a"},{"town":"字弥太郎","koaza":"","lat":40.759532,"lng":141.257663,"version":"13.0b/18.0a"},{"town":"字柳沢","koaza":"","lat":40.77561,"lng":141.193031,"version":"13.0b/18.0a"},{"town":"字山添","koaza":"","lat":40.833132,"lng":141.122791,"version":"13.0b/18.0a"},{"town":"字山下","koaza":"","lat":40.798058,"lng":141.202723,"version":"13.0b/18.0a"},{"town":"字湯沢","koaza":"","lat":40.833405,"lng":141.13662,"version":"13.0b/18.0a"},{"town":"字湯沢平","koaza":"","lat":40.833079,"lng":141.114436,"version":"13.0b/18.0a"},{"town":"字湯田平","koaza":"","lat":40.839953,"lng":141.114682,"version":"13.0b/18.0a"},{"town":"字横沢","koaza":"","lat":40.847696,"lng":141.201756,"version":"13.0b/18.0a"},{"town":"字横沢頭","koaza":"","lat":40.854109,"lng":141.194403,"version":"13.0b/18.0a"},{"town":"字横沢山","koaza":"","lat":40.830357,"lng":141.231467,"version":"13.0b/18.0a"},{"town":"字横志多","koaza":"","lat":40.757656,"lng":141.323898,"version":"13.0b/18.0a"},{"town":"字和山平","koaza":"","lat":40.782297,"lng":141.293927,"version":"13.0b/18.0a"},{"town":"大字上野","koaza":"","lat":40.735432,"lng":141.249514,"version":"13.0b/18.0a"},{"town":"大字大浦","koaza":"","lat":40.719577,"lng":141.288172,"version":"13.0b/18.0a"},{"town":"大字新舘","koaza":"","lat":40.698906,"lng":141.193802,"version":"13.0b/18.0a"},{"town":"上北北一丁目","koaza":"","lat":40.733212,"lng":141.261481,"version":"13.0b/18.0a"},{"town":"上北北二丁目","koaza":"","lat":40.731923,"lng":141.254097,"version":"13.0b/18.0a"},{"town":"上北北三丁目","koaza":"","lat":40.729486,"lng":141.253065,"version":"13.0b/18.0a"},{"town":"上北南一丁目","koaza":"","lat":40.728939,"lng":141.269352,"version":"13.0b/18.0a"},{"town":"上北南二丁目","koaza":"","lat":40.72859,"lng":141.266787,"version":"13.0b/18.0a"},{"town":"上北南三丁目","koaza":"","lat":40.728288,"lng":141.260202,"version":"13.0b/18.0a"},{"town":"上北南四丁目","koaza":"","lat":40.72742,"lng":141.25699,"version":"13.0b/18.0a"},{"town":"大字新舘","koaza":"屋敷添","lat":40.700085,"lng":141.178574,"version":"13.0b/18.0a"},{"town":"大字新舘","koaza":"松原","lat":40.697065,"lng":141.185409,"version":"13.0b/18.0a"},{"town":"大字新舘","koaza":"籠","lat":40.702506,"lng":141.186988,"version":"13.0b/18.0a"},{"town":"大字新舘","koaza":"八幡","lat":40.701122,"lng":141.191685,"version":"13.0b/18.0a"},{"town":"大字新舘","koaza":"赤平","lat":40.705434,"lng":141.192813,"version":"13.0b/18.0a"},{"town":"大字新舘","koaza":"有野部","lat":40.695009,"lng":141.198925,"version":"13.0b/18.0a"},{"town":"大字大浦","koaza":"白籏","lat":40.712249,"lng":141.203857,"version":"13.0b/18.0a"},{"town":"大字大浦","koaza":"二津屋","lat":40.710962,"lng":141.19971,"version":"13.0b/18.0a"},{"town":"大字大浦","koaza":"大坊頭","lat":40.707218,"lng":141.202592,"version":"13.0b/18.0a"},{"town":"大字大浦","koaza":"大浦","lat":40.710212,"lng":141.205309,"version":"13.0b/18.0a"},{"town":"大字大浦","koaza":"据崎","lat":40.712198,"lng":141.207906,"version":"13.0b/18.0a"},{"town":"大字大浦","koaza":"熊沢","lat":40.712576,"lng":141.217018,"version":"13.0b/18.0a"},{"town":"大字大浦","koaza":"徳万才","lat":40.715224,"lng":141.218904,"version":"13.0b/18.0a"},{"town":"大字大浦","koaza":"中岫平","lat":40.710033,"lng":141.220069,"version":"13.0b/18.0a"},{"town":"大字大浦","koaza":"大長根","lat":40.712157,"lng":141.220091,"version":"13.0b/18.0a"},{"town":"大字大浦","koaza":"道ノ上","lat":40.713892,"lng":141.226153,"version":"13.0b/18.0a"},{"town":"大字大浦","koaza":"境ノ沢","lat":40.71544,"lng":141.230648,"version":"13.0b/18.0a"},{"town":"大字大浦","koaza":"西淋代","lat":40.696518,"lng":141.235375,"version":"13.0b/18.0a"},{"town":"大字上野","koaza":"大長根","lat":40.718524,"lng":141.237867,"version":"13.0b/18.0a"},{"town":"大字上野","koaza":"手長","lat":40.727532,"lng":141.242291,"version":"13.0b/18.0a"},{"town":"大字上野","koaza":"小長根","lat":40.7232,"lng":141.240412,"version":"13.0b/18.0a"},{"town":"大字大浦","koaza":"中久根","lat":40.707581,"lng":141.248729,"version":"13.0b/18.0a"},{"town":"大字上野","koaza":"軍事屋敷","lat":40.723527,"lng":141.244457,"version":"13.0b/18.0a"},{"town":"大字上野","koaza":"上野","lat":40.727841,"lng":141.250085,"version":"13.0b/18.0a"},{"town":"大字上野","koaza":"上ミ田","lat":40.732809,"lng":141.245191,"version":"13.0b/18.0a"},{"town":"大字上野","koaza":"久保","lat":40.730739,"lng":141.246829,"version":"13.0b/18.0a"},{"town":"大字上野","koaza":"下田","lat":40.742197,"lng":141.254173,"version":"13.0b/18.0a"},{"town":"大字上野","koaza":"揚地ノ下","lat":40.732089,"lng":141.247583,"version":"13.0b/18.0a"},{"town":"大字上野","koaza":"北谷地","lat":40.73906,"lng":141.264474,"version":"13.0b/18.0a"},{"town":"大字大浦","koaza":"明堂向","lat":40.713659,"lng":141.251374,"version":"13.0b/18.0a"},{"town":"大字大浦","koaza":"井尻","lat":40.7115,"lng":141.253915,"version":"13.0b/18.0a"},{"town":"大字上野","koaza":"新堤向","lat":40.725009,"lng":141.259867,"version":"13.0b/18.0a"},{"town":"大字上野","koaza":"堤向","lat":40.719198,"lng":141.256959,"version":"13.0b/18.0a"},{"town":"大字大浦","koaza":"榎谷地","lat":40.714102,"lng":141.26278,"version":"13.0b/18.0a"},{"town":"大字上野","koaza":"山添","lat":40.72485,"lng":141.267593,"version":"13.0b/18.0a"},{"town":"大字大浦","koaza":"一本松","lat":40.719417,"lng":141.259529,"version":"13.0b/18.0a"},{"town":"大字大浦","koaza":"南家裏","lat":40.687279,"lng":141.275349,"version":"13.0b/18.0a"},{"town":"大字大浦","koaza":"久保頭","lat":40.679378,"lng":141.27405,"version":"13.0b/18.0a"},{"town":"大字大浦","koaza":"東道ノ上","lat":40.703461,"lng":141.276217,"version":"13.0b/18.0a"},{"town":"大字上野","koaza":"南谷地","lat":40.729843,"lng":141.277431,"version":"13.0b/18.0a"},{"town":"大字大浦","koaza":"立野","lat":40.72456,"lng":141.281156,"version":"13.0b/18.0a"},{"town":"大字大浦","koaza":"字大沢","lat":40.684427,"lng":141.279951,"version":"13.0b/18.0a"},{"town":"大字大浦","koaza":"道ノ下","lat":40.70081,"lng":141.278161,"version":"13.0b/18.0a"},{"town":"大字大浦","koaza":"家ノ前","lat":40.719609,"lng":141.286539,"version":"13.0b/18.0a"},{"town":"大字大浦","koaza":"沼端","lat":40.722694,"lng":141.285018,"version":"13.0b/18.0a"},{"town":"大字大浦","koaza":"字舘野","lat":40.708402,"lng":141.293883,"version":"13.0b/18.0a"},{"town":"大字大浦","koaza":"家ノ裏","lat":40.713262,"lng":141.296205,"version":"13.0b/18.0a"},{"town":"大字大浦","koaza":"助十郎崎","lat":40.700235,"lng":141.311956,"version":"13.0b/18.0a"},{"town":"大字大浦","koaza":"寒水頭","lat":40.702998,"lng":141.29943,"version":"13.0b/18.0a"},{"town":"大字大浦","koaza":"中久根下","lat":40.71302,"lng":141.299384,"version":"13.0b/18.0a"},{"town":"大字大浦","koaza":"向山","lat":40.709506,"lng":141.30597,"version":"13.0b/18.0a"},{"town":"大字大浦","koaza":"母衣平出生","lat":40.715314,"lng":141.308436,"version":"13.0b/18.0a"},{"town":"大字大浦","koaza":"中津","lat":40.692144,"lng":141.310839,"version":"13.0b/18.0a"},{"town":"大字大浦","koaza":"淋代","lat":40.714179,"lng":141.307701,"version":"13.0b/18.0a"},{"town":"大字大浦","koaza":"寒水","lat":40.710472,"lng":141.300996,"version":"13.0b/18.0a"},{"town":"大字大浦","koaza":"山ノ外","lat":40.708593,"lng":141.251405,"version":"13.0b/18.0a"},{"town":"大字大浦","koaza":"塚浦","lat":40.718424,"lng":141.231952,"version":"13.0b/18.0a"},{"town":"大字大浦","koaza":"才市田","lat":40.717728,"lng":141.223647,"version":"13.0b/18.0a"},{"town":"大字大浦","koaza":"観音沢","lat":40.711063,"lng":141.229471,"version":"13.0b/18.0a"},{"town":"大字大浦","koaza":"古舘","lat":40.714619,"lng":141.224258,"version":"13.0b/18.0a"},{"town":"大字大浦","koaza":"狐崎","lat":40.713126,"lng":141.222383,"version":"13.0b/18.0a"},{"town":"大字大浦","koaza":"鳥谷ケ崎","lat":40.708872,"lng":141.217076,"version":"13.0b/18.0a"},{"town":"大字大浦","koaza":"二タ渡","lat":40.703466,"lng":141.225616,"version":"13.0b/18.0a"},{"town":"大字大浦","koaza":"堀ノ内","lat":40.708731,"lng":141.207526,"version":"13.0b/18.0a"},{"town":"大字大浦","koaza":"字上久保","lat":40.714465,"lng":141.21387,"version":"13.0b/18.0a"},{"town":"大字大浦","koaza":"唐虫沢","lat":40.709531,"lng":141.292276,"version":"13.0b/18.0a"},{"town":"大字大浦","koaza":"菅林","lat":40.705649,"lng":141.199213,"version":"13.0b/18.0a"},{"town":"大字大浦","koaza":"山添","lat":40.697009,"lng":141.233275,"version":"13.0b/18.0a"},{"town":"大字大浦","koaza":"西向山","lat":40.704642,"lng":141.205823,"version":"13.0b/18.0a"},{"town":"大字大浦","koaza":"大浦山","lat":40.703261,"lng":141.218472,"version":"13.0b/18.0a"},{"town":"大字大浦","koaza":"外久根","lat":40.709891,"lng":141.246886,"version":"13.0b/18.0a"},{"town":"大字大浦","koaza":"上屋敷","lat":40.722327,"lng":141.274013,"version":"13.0b/18.0a"},{"town":"字赤川橋ノ上","koaza":"","lat":40.767315,"lng":141.215255,"version":"14.0b/19.0a"},{"town":"字赤川橋ノ下","koaza":"","lat":40.760487,"lng":141.223467,"version":"14.0b/19.0a"},{"town":"字赤川道","koaza":"","lat":40.770706,"lng":141.221904,"version":"14.0b/19.0a"},{"town":"字空久保","koaza":"","lat":40.8582,"lng":141.202708,"version":"14.0b/19.0a"},{"town":"字秋取山","koaza":"","lat":40.808875,"lng":141.101517,"version":"14.0b/19.0a"},{"town":"字家ノ上平","koaza":"","lat":40.768129,"lng":141.286834,"version":"14.0b/19.0a"},{"town":"字家ノ下タ","koaza":"","lat":40.81532,"lng":141.128481,"version":"14.0b/19.0a"},{"town":"字家ノ下モ","koaza":"","lat":40.820424,"lng":141.16356,"version":"14.0b/19.0a"},{"town":"字家ノ前","koaza":"","lat":40.83334,"lng":141.126092,"version":"14.0b/19.0a"},{"town":"字五十嵐","koaza":"","lat":40.867116,"lng":141.261659,"version":"14.0b/19.0a"},{"town":"字石坂","koaza":"","lat":40.830856,"lng":141.127555,"version":"14.0b/19.0a"},{"town":"字石文","koaza":"","lat":40.794078,"lng":141.172951,"version":"14.0b/19.0a"},{"town":"字板橋平","koaza":"","lat":40.81421,"lng":141.100461,"version":"14.0b/19.0a"},{"town":"字板橋山","koaza":"","lat":40.820069,"lng":141.127073,"version":"14.0b/19.0a"},{"town":"字岩間手橋ノ上","koaza":"","lat":40.811369,"lng":141.256486,"version":"14.0b/19.0a"},{"town":"字後久保","koaza":"","lat":40.770524,"lng":141.302773,"version":"14.0b/19.0a"},{"town":"字内蛯沢坂ノ下","koaza":"","lat":40.765645,"lng":141.222948,"version":"14.0b/19.0a"},{"town":"字内蛯沢道ノ上","koaza":"","lat":40.772419,"lng":141.218745,"version":"14.0b/19.0a"},{"town":"字内蛯沢向","koaza":"","lat":40.769718,"lng":141.229474,"version":"14.0b/19.0a"},{"town":"字宇道坂","koaza":"","lat":40.817259,"lng":141.096203,"version":"14.0b/19.0a"},{"town":"字姥沢","koaza":"","lat":40.89353,"lng":141.218671,"version":"14.0b/19.0a"},{"town":"字馬尻","koaza":"","lat":40.79446,"lng":141.200324,"version":"14.0b/19.0a"},{"town":"字狼ノ沢","koaza":"","lat":40.802113,"lng":141.291882,"version":"14.0b/19.0a"},{"town":"字大久保","koaza":"","lat":40.751715,"lng":141.315754,"version":"14.0b/19.0a"},{"town":"字大久保平","koaza":"","lat":40.832852,"lng":141.19664,"version":"14.0b/19.0a"},{"town":"字大沢","koaza":"","lat":40.80548,"lng":141.214226,"version":"14.0b/19.0a"},{"town":"字大平","koaza":"","lat":40.826149,"lng":141.147865,"version":"14.0b/19.0a"},{"town":"字太田平","koaza":"","lat":40.877399,"lng":141.208299,"version":"14.0b/19.0a"},{"town":"字大撫沢","koaza":"","lat":40.843639,"lng":141.137103,"version":"14.0b/19.0a"},{"town":"字大籏屋","koaza":"","lat":40.796557,"lng":141.198895,"version":"14.0b/19.0a"},{"town":"字大向","koaza":"","lat":40.843462,"lng":141.164055,"version":"14.0b/19.0a"},{"town":"字往来ノ上","koaza":"","lat":40.77422,"lng":141.270755,"version":"14.0b/19.0a"},{"town":"字往来ノ下","koaza":"","lat":40.776713,"lng":141.285604,"version":"14.0b/19.0a"},{"town":"字岡端","koaza":"","lat":40.829434,"lng":141.122054,"version":"14.0b/19.0a"},{"town":"字小沢","koaza":"","lat":40.814555,"lng":141.193758,"version":"14.0b/19.0a"},{"town":"字落合","koaza":"","lat":40.7939,"lng":141.256584,"version":"14.0b/19.0a"},{"town":"字乙越","koaza":"","lat":40.770607,"lng":141.2754,"version":"14.0b/19.0a"},{"town":"字乙供","koaza":"","lat":40.76799,"lng":141.207513,"version":"14.0b/19.0a"},{"town":"字乙供山","koaza":"","lat":40.780629,"lng":141.197624,"version":"14.0b/19.0a"},{"town":"字乙部橋ノ上","koaza":"","lat":40.810942,"lng":141.254214,"version":"14.0b/19.0a"},{"town":"字乙部道ノ上","koaza":"","lat":40.804924,"lng":141.254938,"version":"14.0b/19.0a"},{"town":"字乙部道ノ下","koaza":"","lat":40.799366,"lng":141.256795,"version":"14.0b/19.0a"},{"town":"字ガス平","koaza":"","lat":40.900596,"lng":141.242896,"version":"14.0b/19.0a"},{"town":"字数牛","koaza":"","lat":40.876475,"lng":141.232848,"version":"14.0b/19.0a"},{"town":"字数牛尻","koaza":"","lat":40.870783,"lng":141.241247,"version":"14.0b/19.0a"},{"town":"字上板橋家ノ後","koaza":"","lat":40.810919,"lng":141.118504,"version":"14.0b/19.0a"},{"town":"字上久保","koaza":"","lat":40.76329,"lng":141.290583,"version":"14.0b/19.0a"},{"town":"字上笹橋","koaza":"","lat":40.779592,"lng":141.214296,"version":"14.0b/19.0a"},{"town":"字上清水目","koaza":"","lat":40.827722,"lng":141.11649,"version":"14.0b/19.0a"},{"town":"字川向","koaza":"","lat":40.815948,"lng":141.098562,"version":"14.0b/19.0a"},{"town":"字川迎","koaza":"","lat":40.805641,"lng":141.12034,"version":"14.0b/19.0a"},{"town":"字岩渡沢","koaza":"","lat":40.798668,"lng":141.22095,"version":"14.0b/19.0a"},{"town":"字北膳前","koaza":"","lat":40.785917,"lng":141.208461,"version":"14.0b/19.0a"},{"town":"字狐沢","koaza":"","lat":40.852105,"lng":141.162233,"version":"14.0b/19.0a"},{"town":"字狐沢山","koaza":"","lat":40.849923,"lng":141.158641,"version":"14.0b/19.0a"},{"town":"字切左坂道ノ上","koaza":"","lat":40.827212,"lng":141.265538,"version":"14.0b/19.0a"},{"town":"字切左坂道ノ下","koaza":"","lat":40.820555,"lng":141.259373,"version":"14.0b/19.0a"},{"town":"字熊堂","koaza":"","lat":40.821721,"lng":141.289216,"version":"14.0b/19.0a"},{"town":"字栗山添","koaza":"","lat":40.79074,"lng":141.216917,"version":"14.0b/19.0a"},{"town":"字黒志多","koaza":"","lat":40.750045,"lng":141.296203,"version":"14.0b/19.0a"},{"town":"字枋木","koaza":"","lat":40.819015,"lng":141.239258,"version":"14.0b/19.0a"},{"town":"字塞ノ神","koaza":"","lat":40.815631,"lng":141.087307,"version":"14.0b/19.0a"},{"town":"字坂下","koaza":"","lat":40.84181,"lng":141.160285,"version":"14.0b/19.0a"},{"town":"字坂ノ下","koaza":"","lat":40.790377,"lng":141.257402,"version":"14.0b/19.0a"},{"town":"字笹久保","koaza":"","lat":40.771438,"lng":141.287622,"version":"14.0b/19.0a"},{"town":"字淋代","koaza":"","lat":40.867368,"lng":141.217834,"version":"14.0b/19.0a"},{"town":"字淋代下山","koaza":"","lat":40.863227,"lng":141.252664,"version":"14.0b/19.0a"},{"town":"字漆玉","koaza":"","lat":40.789051,"lng":141.289309,"version":"14.0b/19.0a"},{"town":"字篠内平","koaza":"","lat":40.788817,"lng":141.187297,"version":"14.0b/19.0a"},{"town":"字清水目深山","koaza":"","lat":40.804698,"lng":141.09457,"version":"14.0b/19.0a"},{"town":"字清水目向","koaza":"","lat":40.817394,"lng":141.109846,"version":"14.0b/19.0a"},{"town":"字清水目山","koaza":"","lat":40.819083,"lng":141.118981,"version":"14.0b/19.0a"},{"town":"字下板橋","koaza":"","lat":40.808688,"lng":141.142998,"version":"14.0b/19.0a"},{"town":"字下笹橋","koaza":"","lat":40.775851,"lng":141.214431,"version":"14.0b/19.0a"},{"town":"字下山","koaza":"","lat":40.787628,"lng":141.218333,"version":"14.0b/19.0a"},{"town":"字素柄邸","koaza":"","lat":40.7797,"lng":141.27484,"version":"14.0b/19.0a"},{"town":"字堰合","koaza":"","lat":40.821194,"lng":141.113626,"version":"14.0b/19.0a"},{"town":"字堰向","koaza":"","lat":40.82441,"lng":141.116561,"version":"14.0b/19.0a"},{"town":"字膳前","koaza":"","lat":40.781986,"lng":141.20767,"version":"14.0b/19.0a"},{"town":"字添ノ沢","koaza":"","lat":40.82221,"lng":141.104627,"version":"14.0b/19.0a"},{"town":"字袖ノ沢","koaza":"","lat":40.808267,"lng":141.189273,"version":"14.0b/19.0a"},{"town":"字外蛯沢後久保","koaza":"","lat":40.79015,"lng":141.22912,"version":"14.0b/19.0a"},{"town":"字外蛯沢北久保","koaza":"","lat":40.786839,"lng":141.236416,"version":"14.0b/19.0a"},{"town":"字外蛯沢西平","koaza":"","lat":40.782272,"lng":141.229589,"version":"14.0b/19.0a"},{"town":"字外蛯沢前平","koaza":"","lat":40.781044,"lng":141.241311,"version":"14.0b/19.0a"},{"town":"字高森","koaza":"","lat":40.864043,"lng":141.220077,"version":"14.0b/19.0a"},{"town":"字滝沢","koaza":"","lat":40.84858,"lng":141.244905,"version":"14.0b/19.0a"},{"town":"字滝沢尻","koaza":"","lat":40.799554,"lng":141.260997,"version":"14.0b/19.0a"},{"town":"字滝沢平","koaza":"","lat":40.800185,"lng":141.274773,"version":"14.0b/19.0a"},{"town":"字滝沢山","koaza":"","lat":40.843161,"lng":141.241949,"version":"14.0b/19.0a"},{"town":"字舘","koaza":"","lat":40.765153,"lng":141.258347,"version":"14.0b/19.0a"},{"town":"字蓼内久保","koaza":"","lat":40.757223,"lng":141.285464,"version":"14.0b/19.0a"},{"town":"字舘花","koaza":"","lat":40.77288,"lng":141.212755,"version":"14.0b/19.0a"},{"town":"字田ノ沢","koaza":"","lat":40.78903,"lng":141.302638,"version":"14.0b/19.0a"},{"town":"字田ノ沢川添","koaza":"","lat":40.777399,"lng":141.301327,"version":"14.0b/19.0a"},{"town":"字田面木","koaza":"","lat":40.845087,"lng":141.147528,"version":"14.0b/19.0a"},{"town":"字千曳","koaza":"","lat":40.79991,"lng":141.167791,"version":"14.0b/19.0a"},{"town":"字千曳下山","koaza":"","lat":40.798348,"lng":141.181537,"version":"14.0b/19.0a"},{"town":"字千曳向","koaza":"","lat":40.798469,"lng":141.163969,"version":"14.0b/19.0a"},{"town":"字長者久保","koaza":"","lat":40.847791,"lng":141.157247,"version":"14.0b/19.0a"},{"town":"字堤尻","koaza":"","lat":40.762508,"lng":141.302184,"version":"14.0b/19.0a"},{"town":"字堤端","koaza":"","lat":40.792312,"lng":141.18556,"version":"14.0b/19.0a"},{"town":"字鶴ケ崎","koaza":"","lat":40.755174,"lng":141.317382,"version":"14.0b/19.0a"},{"town":"字寺沢","koaza":"","lat":40.761593,"lng":141.273427,"version":"14.0b/19.0a"},{"town":"字寺沢川端","koaza":"","lat":40.760037,"lng":141.265905,"version":"14.0b/19.0a"},{"town":"字塔ノ沢","koaza":"","lat":40.812265,"lng":141.198244,"version":"14.0b/19.0a"},{"town":"字塔ノ沢山","koaza":"","lat":40.779099,"lng":141.222246,"version":"14.0b/19.0a"},{"town":"字戸田ノ沢","koaza":"","lat":40.849187,"lng":141.139928,"version":"14.0b/19.0a"},{"town":"字土場","koaza":"","lat":40.790796,"lng":141.259832,"version":"14.0b/19.0a"},{"town":"字土場川","koaza":"","lat":40.778025,"lng":141.253616,"version":"14.0b/19.0a"},{"town":"字土場川目","koaza":"","lat":40.85456,"lng":141.234012,"version":"14.0b/19.0a"},{"town":"字鳥口平","koaza":"","lat":40.767886,"lng":141.262927,"version":"14.0b/19.0a"},{"town":"字長久保","koaza":"","lat":40.763663,"lng":141.281121,"version":"14.0b/19.0a"},{"town":"字中津平","koaza":"","lat":40.755595,"lng":141.304666,"version":"14.0b/19.0a"},{"town":"字中村道ノ上","koaza":"","lat":40.838053,"lng":141.280854,"version":"14.0b/19.0a"},{"town":"字中村道ノ下","koaza":"","lat":40.829244,"lng":141.299636,"version":"14.0b/19.0a"},{"town":"字夏焼","koaza":"","lat":40.819586,"lng":141.199717,"version":"14.0b/19.0a"},{"town":"字楢木山","koaza":"","lat":40.85684,"lng":141.250512,"version":"14.0b/19.0a"},{"town":"字西ノ沢","koaza":"","lat":40.853924,"lng":141.181991,"version":"14.0b/19.0a"},{"town":"字沼添左ノ平","koaza":"","lat":40.817411,"lng":141.29185,"version":"14.0b/19.0a"},{"town":"字子ノ鳥平","koaza":"","lat":40.818737,"lng":141.270161,"version":"14.0b/19.0a"},{"town":"字野田頭","koaza":"","lat":40.821799,"lng":141.274176,"version":"14.0b/19.0a"},{"town":"字野田頭山","koaza":"","lat":40.819818,"lng":141.280919,"version":"14.0b/19.0a"},{"town":"字野田尻","koaza":"","lat":40.816767,"lng":141.278832,"version":"14.0b/19.0a"},{"town":"字浜家苫","koaza":"","lat":40.771479,"lng":141.316766,"version":"14.0b/19.0a"},{"town":"字浜台","koaza":"","lat":40.809745,"lng":141.291672,"version":"14.0b/19.0a"},{"town":"字林ノ下","koaza":"","lat":40.824865,"lng":141.111807,"version":"14.0b/19.0a"},{"town":"字日影林ノ上山","koaza":"","lat":40.782347,"lng":141.274519,"version":"14.0b/19.0a"},{"town":"旭北一丁目","koaza":"","lat":40.734414,"lng":141.265428,"version":"14.0b/19.0a"},{"town":"旭北二丁目","koaza":"","lat":40.73662,"lng":141.267647,"version":"14.0b/19.0a"},{"town":"旭北三丁目","koaza":"","lat":40.737217,"lng":141.272008,"version":"14.0b/19.0a"},{"town":"旭北四丁目","koaza":"","lat":40.739024,"lng":141.276295,"version":"14.0b/19.0a"},{"town":"旭南一丁目","koaza":"","lat":40.729376,"lng":141.271603,"version":"14.0b/19.0a"},{"town":"旭南二丁目","koaza":"","lat":40.731979,"lng":141.27302,"version":"14.0b/19.0a"},{"town":"旭南三丁目","koaza":"","lat":40.732636,"lng":141.27562,"version":"14.0b/19.0a"},{"town":"旭南四丁目","koaza":"","lat":40.734003,"lng":141.278155,"version":"14.0b/19.0a"},{"town":"字寒水","koaza":"","lat":40.806632,"lng":141.226816,"version":"14.0b/19.0a"},{"town":"字寒水下","koaza":"","lat":40.81119,"lng":141.241815,"version":"14.0b/19.0a"},{"town":"字寒水山","koaza":"","lat":40.801709,"lng":141.244339,"version":"14.0b/19.0a"},{"town":"字敏蕩沢頭","koaza":"","lat":40.796529,"lng":141.212095,"version":"14.0b/19.0a"},{"town":"字藤木沢","koaza":"","lat":40.873034,"lng":141.250301,"version":"14.0b/19.0a"},{"town":"字夫雑原","koaza":"","lat":40.809418,"lng":141.154999,"version":"14.0b/19.0a"},{"town":"字夫雑原下山","koaza":"","lat":40.825997,"lng":141.173617,"version":"14.0b/19.0a"},{"town":"字夫雑原山中","koaza":"","lat":40.811519,"lng":141.188305,"version":"14.0b/19.0a"},{"town":"字船ケ沢","koaza":"","lat":40.761449,"lng":141.313969,"version":"14.0b/19.0a"},{"town":"字古屋敷","koaza":"","lat":40.753517,"lng":141.299229,"version":"14.0b/19.0a"},{"town":"字細津","koaza":"","lat":40.839079,"lng":141.253976,"version":"14.0b/19.0a"},{"town":"字細津橋ノ上","koaza":"","lat":40.842594,"lng":141.262307,"version":"14.0b/19.0a"},{"town":"字仏沢","koaza":"","lat":40.784179,"lng":141.217873,"version":"14.0b/19.0a"},{"town":"字保戸沢家ノ後","koaza":"","lat":40.793959,"lng":141.248486,"version":"14.0b/19.0a"},{"town":"字保戸沢家ノ上","koaza":"","lat":40.791735,"lng":141.246001,"version":"14.0b/19.0a"},{"town":"字保戸沢家ノ前","koaza":"","lat":40.788561,"lng":141.247864,"version":"14.0b/19.0a"},{"town":"字保戸沢道橋ノ上","koaza":"","lat":40.798076,"lng":141.242619,"version":"14.0b/19.0a"},{"town":"字洞内沢頭","koaza":"","lat":40.861329,"lng":141.179165,"version":"14.0b/19.0a"},{"town":"字間手場","koaza":"","lat":40.756135,"lng":141.271761,"version":"14.0b/19.0a"},{"town":"字饅頭長根","koaza":"","lat":40.835697,"lng":141.211001,"version":"14.0b/19.0a"},{"town":"字水尻","koaza":"","lat":40.779589,"lng":141.260809,"version":"14.0b/19.0a"},{"town":"字水流","koaza":"","lat":40.86005,"lng":141.19885,"version":"14.0b/19.0a"},{"town":"字水喰","koaza":"","lat":40.834025,"lng":141.274017,"version":"14.0b/19.0a"},{"town":"字水喰向","koaza":"","lat":40.828623,"lng":141.275791,"version":"14.0b/19.0a"},{"town":"字道合","koaza":"","lat":40.868941,"lng":141.216122,"version":"14.0b/19.0a"},{"town":"字道ノ北","koaza":"","lat":40.758564,"lng":141.295466,"version":"14.0b/19.0a"},{"town":"字向平","koaza":"","lat":40.798539,"lng":141.154107,"version":"14.0b/19.0a"},{"town":"字向籏屋","koaza":"","lat":40.788395,"lng":141.210321,"version":"14.0b/19.0a"},{"town":"字向屋敷","koaza":"","lat":40.794955,"lng":141.207917,"version":"14.0b/19.0a"},{"town":"字萠出道ノ上","koaza":"","lat":40.82798,"lng":141.246995,"version":"14.0b/19.0a"},{"town":"字萠出道ノ下","koaza":"","lat":40.835643,"lng":141.249169,"version":"14.0b/19.0a"},{"town":"字谷地頭","koaza":"","lat":40.87738,"lng":141.219509,"version":"14.0b/19.0a"},{"town":"字弥太郎","koaza":"","lat":40.759532,"lng":141.257663,"version":"14.0b/19.0a"},{"town":"字柳沢","koaza":"","lat":40.77561,"lng":141.193031,"version":"14.0b/19.0a"},{"town":"字山添","koaza":"","lat":40.833132,"lng":141.122791,"version":"14.0b/19.0a"},{"town":"字山下","koaza":"","lat":40.798058,"lng":141.202723,"version":"14.0b/19.0a"},{"town":"字湯沢","koaza":"","lat":40.833405,"lng":141.13662,"version":"14.0b/19.0a"},{"town":"字湯沢平","koaza":"","lat":40.833079,"lng":141.114436,"version":"14.0b/19.0a"},{"town":"字湯田平","koaza":"","lat":40.839953,"lng":141.114682,"version":"14.0b/19.0a"},{"town":"字横沢","koaza":"","lat":40.847696,"lng":141.201756,"version":"14.0b/19.0a"},{"town":"字横沢頭","koaza":"","lat":40.854109,"lng":141.194403,"version":"14.0b/19.0a"},{"town":"字横沢山","koaza":"","lat":40.830357,"lng":141.231467,"version":"14.0b/19.0a"},{"town":"字横志多","koaza":"","lat":40.757656,"lng":141.323898,"version":"14.0b/19.0a"},{"town":"字和山平","koaza":"","lat":40.782297,"lng":141.293927,"version":"14.0b/19.0a"},{"town":"大字上野","koaza":"","lat":40.735432,"lng":141.249514,"version":"14.0b/19.0a"},{"town":"大字大浦","koaza":"","lat":40.719577,"lng":141.288172,"version":"14.0b/19.0a"},{"town":"大字新舘","koaza":"","lat":40.698906,"lng":141.193802,"version":"14.0b/19.0a"},{"town":"上北北一丁目","koaza":"","lat":40.733212,"lng":141.261481,"version":"14.0b/19.0a"},{"town":"上北北二丁目","koaza":"","lat":40.731923,"lng":141.254097,"version":"14.0b/19.0a"},{"town":"上北北三丁目","koaza":"","lat":40.729486,"lng":141.253065,"version":"14.0b/19.0a"},{"town":"上北南一丁目","koaza":"","lat":40.728939,"lng":141.269352,"version":"14.0b/19.0a"},{"town":"上北南二丁目","koaza":"","lat":40.72859,"lng":141.266787,"version":"14.0b/19.0a"},{"town":"上北南三丁目","koaza":"","lat":40.728288,"lng":141.260202,"version":"14.0b/19.0a"},{"town":"上北南四丁目","koaza":"","lat":40.72742,"lng":141.25699,"version":"14.0b/19.0a"},{"town":"大字新舘","koaza":"屋敷添","lat":40.700085,"lng":141.178574,"version":"14.0b/19.0a"},{"town":"大字新舘","koaza":"松原","lat":40.697065,"lng":141.185409,"version":"14.0b/19.0a"},{"town":"大字新舘","koaza":"籠","lat":40.702506,"lng":141.186988,"version":"14.0b/19.0a"},{"town":"大字新舘","koaza":"八幡","lat":40.701122,"lng":141.191685,"version":"14.0b/19.0a"},{"town":"大字新舘","koaza":"赤平","lat":40.705434,"lng":141.192813,"version":"14.0b/19.0a"},{"town":"大字新舘","koaza":"有野部","lat":40.695009,"lng":141.198925,"version":"14.0b/19.0a"},{"town":"大字大浦","koaza":"白籏","lat":40.712249,"lng":141.203857,"version":"14.0b/19.0a"},{"town":"大字大浦","koaza":"二津屋","lat":40.710962,"lng":141.19971,"version":"14.0b/19.0a"},{"town":"大字大浦","koaza":"大坊頭","lat":40.707218,"lng":141.202592,"version":"14.0b/19.0a"},{"town":"大字大浦","koaza":"大浦","lat":40.710212,"lng":141.205309,"version":"14.0b/19.0a"},{"town":"大字大浦","koaza":"据崎","lat":40.712198,"lng":141.207906,"version":"14.0b/19.0a"},{"town":"大字大浦","koaza":"熊沢","lat":40.712576,"lng":141.217018,"version":"14.0b/19.0a"},{"town":"大字大浦","koaza":"徳万才","lat":40.715224,"lng":141.218904,"version":"14.0b/19.0a"},{"town":"大字大浦","koaza":"中岫平","lat":40.710033,"lng":141.220069,"version":"14.0b/19.0a"},{"town":"大字大浦","koaza":"大長根","lat":40.712157,"lng":141.220091,"version":"14.0b/19.0a"},{"town":"大字大浦","koaza":"道ノ上","lat":40.713892,"lng":141.226153,"version":"14.0b/19.0a"},{"town":"大字大浦","koaza":"境ノ沢","lat":40.71544,"lng":141.230648,"version":"14.0b/19.0a"},{"town":"大字大浦","koaza":"西淋代","lat":40.696518,"lng":141.235375,"version":"14.0b/19.0a"},{"town":"大字上野","koaza":"大長根","lat":40.718524,"lng":141.237867,"version":"14.0b/19.0a"},{"town":"大字上野","koaza":"手長","lat":40.727532,"lng":141.242291,"version":"14.0b/19.0a"},{"town":"大字上野","koaza":"小長根","lat":40.7232,"lng":141.240412,"version":"14.0b/19.0a"},{"town":"大字大浦","koaza":"中久根","lat":40.707581,"lng":141.248729,"version":"14.0b/19.0a"},{"town":"大字上野","koaza":"軍事屋敷","lat":40.723527,"lng":141.244457,"version":"14.0b/19.0a"},{"town":"大字上野","koaza":"上野","lat":40.727841,"lng":141.250085,"version":"14.0b/19.0a"},{"town":"大字上野","koaza":"上ミ田","lat":40.732809,"lng":141.245191,"version":"14.0b/19.0a"},{"town":"大字上野","koaza":"久保","lat":40.730739,"lng":141.246829,"version":"14.0b/19.0a"},{"town":"大字上野","koaza":"下田","lat":40.742197,"lng":141.254173,"version":"14.0b/19.0a"},{"town":"大字上野","koaza":"揚地ノ下","lat":40.732089,"lng":141.247583,"version":"14.0b/19.0a"},{"town":"大字上野","koaza":"北谷地","lat":40.73906,"lng":141.264474,"version":"14.0b/19.0a"},{"town":"大字大浦","koaza":"明堂向","lat":40.713659,"lng":141.251374,"version":"14.0b/19.0a"},{"town":"大字大浦","koaza":"井尻","lat":40.7115,"lng":141.253915,"version":"14.0b/19.0a"},{"town":"大字上野","koaza":"新堤向","lat":40.725009,"lng":141.259867,"version":"14.0b/19.0a"},{"town":"大字上野","koaza":"堤向","lat":40.719198,"lng":141.256959,"version":"14.0b/19.0a"},{"town":"大字大浦","koaza":"榎谷地","lat":40.714102,"lng":141.26278,"version":"14.0b/19.0a"},{"town":"大字上野","koaza":"山添","lat":40.72485,"lng":141.267593,"version":"14.0b/19.0a"},{"town":"大字大浦","koaza":"一本松","lat":40.719417,"lng":141.259529,"version":"14.0b/19.0a"},{"town":"大字大浦","koaza":"南家裏","lat":40.687279,"lng":141.275349,"version":"14.0b/19.0a"},{"town":"大字大浦","koaza":"久保頭","lat":40.679378,"lng":141.27405,"version":"14.0b/19.0a"},{"town":"大字大浦","koaza":"東道ノ上","lat":40.703461,"lng":141.276217,"version":"14.0b/19.0a"},{"town":"大字上野","koaza":"南谷地","lat":40.729843,"lng":141.277431,"version":"14.0b/19.0a"},{"town":"大字大浦","koaza":"立野","lat":40.72456,"lng":141.281156,"version":"14.0b/19.0a"},{"town":"大字大浦","koaza":"字大沢","lat":40.684427,"lng":141.279951,"version":"14.0b/19.0a"},{"town":"大字大浦","koaza":"道ノ下","lat":40.70081,"lng":141.278161,"version":"14.0b/19.0a"},{"town":"大字大浦","koaza":"家ノ前","lat":40.719609,"lng":141.286539,"version":"14.0b/19.0a"},{"town":"大字大浦","koaza":"沼端","lat":40.722694,"lng":141.285018,"version":"14.0b/19.0a"},{"town":"大字大浦","koaza":"字舘野","lat":40.708402,"lng":141.293883,"version":"14.0b/19.0a"},{"town":"大字大浦","koaza":"家ノ裏","lat":40.713262,"lng":141.296205,"version":"14.0b/19.0a"},{"town":"大字大浦","koaza":"助十郎崎","lat":40.700235,"lng":141.311956,"version":"14.0b/19.0a"},{"town":"大字大浦","koaza":"寒水頭","lat":40.702998,"lng":141.29943,"version":"14.0b/19.0a"},{"town":"大字大浦","koaza":"中久根下","lat":40.71302,"lng":141.299384,"version":"14.0b/19.0a"},{"town":"大字大浦","koaza":"向山","lat":40.709506,"lng":141.30597,"version":"14.0b/19.0a"},{"town":"大字大浦","koaza":"母衣平出生","lat":40.715314,"lng":141.308436,"version":"14.0b/19.0a"},{"town":"大字大浦","koaza":"中津","lat":40.692144,"lng":141.310839,"version":"14.0b/19.0a"},{"town":"大字大浦","koaza":"淋代","lat":40.714179,"lng":141.307701,"version":"14.0b/19.0a"},{"town":"大字大浦","koaza":"寒水","lat":40.710472,"lng":141.300996,"version":"14.0b/19.0a"},{"town":"大字大浦","koaza":"山ノ外","lat":40.708593,"lng":141.251405,"version":"14.0b/19.0a"},{"town":"大字大浦","koaza":"塚浦","lat":40.718424,"lng":141.231952,"version":"14.0b/19.0a"},{"town":"大字大浦","koaza":"才市田","lat":40.717728,"lng":141.223647,"version":"14.0b/19.0a"},{"town":"大字大浦","koaza":"観音沢","lat":40.711063,"lng":141.229471,"version":"14.0b/19.0a"},{"town":"大字大浦","koaza":"古舘","lat":40.714619,"lng":141.224258,"version":"14.0b/19.0a"},{"town":"大字大浦","koaza":"狐崎","lat":40.713126,"lng":141.222383,"version":"14.0b/19.0a"},{"town":"大字大浦","koaza":"鳥谷ケ崎","lat":40.708872,"lng":141.217076,"version":"14.0b/19.0a"},{"town":"大字大浦","koaza":"二タ渡","lat":40.703466,"lng":141.225616,"version":"14.0b/19.0a"},{"town":"大字大浦","koaza":"堀ノ内","lat":40.708731,"lng":141.207526,"version":"14.0b/19.0a"},{"town":"大字大浦","koaza":"字上久保","lat":40.714465,"lng":141.21387,"version":"14.0b/19.0a"},{"town":"大字大浦","koaza":"唐虫沢","lat":40.709531,"lng":141.292276,"version":"14.0b/19.0a"},{"town":"大字大浦","koaza":"菅林","lat":40.705649,"lng":141.199213,"version":"14.0b/19.0a"},{"town":"大字大浦","koaza":"山添","lat":40.697009,"lng":141.233275,"version":"14.0b/19.0a"},{"town":"大字大浦","koaza":"西向山","lat":40.704642,"lng":141.205823,"version":"14.0b/19.0a"},{"town":"大字大浦","koaza":"大浦山","lat":40.703261,"lng":141.218472,"version":"14.0b/19.0a"},{"town":"大字大浦","koaza":"外久根","lat":40.709891,"lng":141.246886,"version":"14.0b/19.0a"},{"town":"大字大浦","koaza":"上屋敷","lat":40.722327,"lng":141.274013,"version":"14.0b/19.0a"}]