[{"town":"字赤川向","koaza":"","lat":40.753548,"lng":141.248806,"version":"13.0b/18.0a"},{"town":"字荒熊内","koaza":"","lat":40.723483,"lng":141.149824,"version":"13.0b/18.0a"},{"town":"字荒屋","koaza":"","lat":40.669272,"lng":141.148048,"version":"13.0b/18.0a"},{"town":"字有田沢","koaza":"","lat":40.679826,"lng":141.121441,"version":"13.0b/18.0a"},{"town":"字家ノ裏","koaza":"","lat":40.745808,"lng":141.178015,"version":"13.0b/18.0a"},{"town":"字家ノ上","koaza":"","lat":40.747531,"lng":141.174326,"version":"13.0b/18.0a"},{"town":"字家ノ下","koaza":"","lat":40.747451,"lng":141.179019,"version":"13.0b/18.0a"},{"town":"字家ノ志茂","koaza":"","lat":40.761787,"lng":141.158644,"version":"13.0b/18.0a"},{"town":"字家ノ前","koaza":"","lat":40.736495,"lng":141.160211,"version":"13.0b/18.0a"},{"town":"字市ノ渡","koaza":"","lat":40.758284,"lng":141.092023,"version":"13.0b/18.0a"},{"town":"字銀南木","koaza":"","lat":40.725415,"lng":141.073183,"version":"13.0b/18.0a"},{"town":"字猪ノ鼻","koaza":"","lat":40.762138,"lng":141.174225,"version":"13.0b/18.0a"},{"town":"字上ノ山","koaza":"","lat":40.694009,"lng":141.140502,"version":"13.0b/18.0a"},{"town":"字上屋田","koaza":"","lat":40.690168,"lng":141.137963,"version":"13.0b/18.0a"},{"town":"字後川原","koaza":"","lat":40.695859,"lng":141.139442,"version":"13.0b/18.0a"},{"town":"字後平","koaza":"","lat":40.779123,"lng":141.155018,"version":"13.0b/18.0a"},{"town":"字内ノ沢","koaza":"","lat":40.776026,"lng":141.136413,"version":"13.0b/18.0a"},{"town":"字宇道坂","koaza":"","lat":40.700601,"lng":141.138105,"version":"13.0b/18.0a"},{"town":"字姥沢","koaza":"","lat":40.768189,"lng":141.240559,"version":"13.0b/18.0a"},{"town":"字海内","koaza":"","lat":40.692876,"lng":141.136987,"version":"13.0b/18.0a"},{"town":"字上町野","koaza":"","lat":40.704285,"lng":141.154435,"version":"13.0b/18.0a"},{"town":"字犹花","koaza":"","lat":40.706722,"lng":141.177388,"version":"13.0b/18.0a"},{"town":"字榎林家ノ後","koaza":"","lat":40.741808,"lng":141.214296,"version":"13.0b/18.0a"},{"town":"字榎林家ノ前","koaza":"","lat":40.73726,"lng":141.216601,"version":"13.0b/18.0a"},{"town":"字榎林小川向","koaza":"","lat":40.765885,"lng":141.253103,"version":"13.0b/18.0a"},{"town":"字榎林中田","koaza":"","lat":40.730179,"lng":141.217352,"version":"13.0b/18.0a"},{"town":"字榎林古屋敷","koaza":"","lat":40.771835,"lng":141.241838,"version":"13.0b/18.0a"},{"town":"字榎林前田","koaza":"","lat":40.737874,"lng":141.229257,"version":"13.0b/18.0a"},{"town":"字夷堂","koaza":"","lat":40.736264,"lng":141.213306,"version":"13.0b/18.0a"},{"town":"字大池","koaza":"","lat":40.702873,"lng":141.168381,"version":"13.0b/18.0a"},{"town":"字大川向","koaza":"","lat":40.75142,"lng":141.180981,"version":"13.0b/18.0a"},{"town":"字大沢","koaza":"","lat":40.717833,"lng":141.164014,"version":"13.0b/18.0a"},{"town":"字太田","koaza":"","lat":40.688785,"lng":141.168786,"version":"13.0b/18.0a"},{"town":"字大平","koaza":"","lat":40.761257,"lng":141.14935,"version":"13.0b/18.0a"},{"town":"字太田野","koaza":"","lat":40.693438,"lng":141.165701,"version":"13.0b/18.0a"},{"town":"字大林","koaza":"","lat":40.684339,"lng":141.153146,"version":"13.0b/18.0a"},{"town":"字大渡","koaza":"","lat":40.731917,"lng":141.232752,"version":"13.0b/18.0a"},{"town":"字尾山頭","koaza":"","lat":40.800279,"lng":141.124672,"version":"13.0b/18.0a"},{"town":"字小山川原","koaza":"","lat":40.678853,"lng":141.11516,"version":"13.0b/18.0a"},{"town":"字貝塚家ノ前","koaza":"","lat":40.751886,"lng":141.229877,"version":"13.0b/18.0a"},{"town":"字貝ノ口","koaza":"","lat":40.701902,"lng":141.146249,"version":"13.0b/18.0a"},{"town":"字影津内","koaza":"","lat":40.699612,"lng":141.161719,"version":"13.0b/18.0a"},{"town":"字鍛治林","koaza":"","lat":40.701846,"lng":141.12057,"version":"13.0b/18.0a"},{"town":"字金沢平","koaza":"","lat":40.761827,"lng":141.140158,"version":"13.0b/18.0a"},{"town":"字上川原","koaza":"","lat":40.769169,"lng":141.142476,"version":"13.0b/18.0a"},{"town":"字上志多","koaza":"","lat":40.798191,"lng":141.105644,"version":"13.0b/18.0a"},{"town":"字上平","koaza":"","lat":40.778679,"lng":141.137888,"version":"13.0b/18.0a"},{"town":"字上田坪","koaza":"","lat":40.772087,"lng":141.250483,"version":"13.0b/18.0a"},{"town":"字唐松","koaza":"","lat":40.642318,"lng":141.077773,"version":"13.0b/18.0a"},{"town":"字川口","koaza":"","lat":40.751972,"lng":141.2641,"version":"13.0b/18.0a"},{"town":"字川去","koaza":"","lat":40.679226,"lng":141.16081,"version":"13.0b/18.0a"},{"town":"字川端","koaza":"","lat":40.755497,"lng":141.163696,"version":"13.0b/18.0a"},{"town":"字北天間舘","koaza":"","lat":40.80176,"lng":141.134834,"version":"13.0b/18.0a"},{"town":"字倉岡","koaza":"","lat":40.733657,"lng":141.086187,"version":"13.0b/18.0a"},{"town":"字倉越","koaza":"","lat":40.702802,"lng":141.159023,"version":"13.0b/18.0a"},{"town":"字栗ノ木沢","koaza":"","lat":40.765879,"lng":141.105841,"version":"13.0b/18.0a"},{"town":"字五庵ノ下","koaza":"","lat":40.782366,"lng":141.107541,"version":"13.0b/18.0a"},{"town":"字小川口","koaza":"","lat":40.678757,"lng":141.124718,"version":"13.0b/18.0a"},{"town":"字小川向","koaza":"","lat":40.735207,"lng":141.190306,"version":"13.0b/18.0a"},{"town":"字小田下","koaza":"","lat":40.741555,"lng":141.187168,"version":"13.0b/18.0a"},{"town":"字小田平","koaza":"","lat":40.740794,"lng":141.184479,"version":"13.0b/18.0a"},{"town":"字小又","koaza":"","lat":40.760659,"lng":141.155684,"version":"13.0b/18.0a"},{"town":"字古和備","koaza":"","lat":40.741495,"lng":141.088691,"version":"13.0b/18.0a"},{"town":"字皀","koaza":"","lat":40.748157,"lng":141.188457,"version":"13.0b/18.0a"},{"town":"字賽ノ神","koaza":"","lat":40.646315,"lng":141.133168,"version":"13.0b/18.0a"},{"town":"字竿打川原","koaza":"","lat":40.736738,"lng":141.225697,"version":"13.0b/18.0a"},{"town":"字坂ノ外","koaza":"","lat":40.766817,"lng":141.235669,"version":"13.0b/18.0a"},{"town":"字作田","koaza":"","lat":40.697688,"lng":141.131311,"version":"13.0b/18.0a"},{"town":"字作田道","koaza":"","lat":40.729281,"lng":141.135423,"version":"13.0b/18.0a"},{"town":"字左組","koaza":"","lat":40.701449,"lng":141.094257,"version":"13.0b/18.0a"},{"town":"字桜田","koaza":"","lat":40.700433,"lng":141.1159,"version":"13.0b/18.0a"},{"town":"字哘","koaza":"","lat":40.752094,"lng":141.113247,"version":"13.0b/18.0a"},{"town":"字哘崎","koaza":"","lat":40.7456,"lng":141.13194,"version":"13.0b/18.0a"},{"town":"字哘平","koaza":"","lat":40.74612,"lng":141.12073,"version":"13.0b/18.0a"},{"town":"字淋代","koaza":"","lat":40.774467,"lng":141.123205,"version":"13.0b/18.0a"},{"town":"字笊田","koaza":"","lat":40.697672,"lng":141.16693,"version":"13.0b/18.0a"},{"town":"字笊田川久保","koaza":"","lat":40.698575,"lng":141.164686,"version":"13.0b/18.0a"},{"town":"字地蔵堂","koaza":"","lat":40.735014,"lng":141.220283,"version":"13.0b/18.0a"},{"town":"字下タ川原","koaza":"","lat":40.779914,"lng":141.12375,"version":"13.0b/18.0a"},{"town":"字七戸","koaza":"","lat":40.696638,"lng":141.151648,"version":"13.0b/18.0a"},{"town":"字七戸深山","koaza":"","lat":40.714254,"lng":141.046736,"version":"13.0b/18.0a"},{"town":"字柴舘道ノ下","koaza":"","lat":40.760047,"lng":141.247444,"version":"13.0b/18.0a"},{"town":"字清水頭","koaza":"","lat":40.665782,"lng":141.118827,"version":"13.0b/18.0a"},{"town":"字下モ川原","koaza":"","lat":40.755214,"lng":141.114296,"version":"13.0b/18.0a"},{"town":"字志茂川原","koaza":"","lat":40.788854,"lng":141.101324,"version":"13.0b/18.0a"},{"town":"字下志多","koaza":"","lat":40.7893,"lng":141.11573,"version":"13.0b/18.0a"},{"town":"字下田坪","koaza":"","lat":40.767284,"lng":141.249713,"version":"13.0b/18.0a"},{"town":"字下鳥谷部","koaza":"","lat":40.739894,"lng":141.143486,"version":"13.0b/18.0a"},{"town":"字下見町","koaza":"","lat":40.675725,"lng":141.141464,"version":"13.0b/18.0a"},{"town":"字蛇喰","koaza":"","lat":40.765585,"lng":141.149522,"version":"13.0b/18.0a"},{"town":"字白岩","koaza":"","lat":40.737406,"lng":141.109448,"version":"13.0b/18.0a"},{"town":"字白石","koaza":"","lat":40.78195,"lng":141.115263,"version":"13.0b/18.0a"},{"town":"字城ノ後","koaza":"","lat":40.698807,"lng":141.147902,"version":"13.0b/18.0a"},{"town":"字治部袋","koaza":"","lat":40.734939,"lng":141.116944,"version":"13.0b/18.0a"},{"town":"字李川原","koaza":"","lat":40.781662,"lng":141.128583,"version":"13.0b/18.0a"},{"town":"字李沢家ノ後","koaza":"","lat":40.763707,"lng":141.232902,"version":"13.0b/18.0a"},{"town":"字李沢家ノ前","koaza":"","lat":40.75793,"lng":141.233815,"version":"13.0b/18.0a"},{"town":"字李沢道ノ下","koaza":"","lat":40.757225,"lng":141.240871,"version":"13.0b/18.0a"},{"town":"字西野","koaza":"","lat":40.66833,"lng":141.088321,"version":"13.0b/18.0a"},{"town":"字堰合","koaza":"","lat":40.75489,"lng":141.236762,"version":"13.0b/18.0a"},{"town":"字堰代","koaza":"","lat":40.774797,"lng":141.113596,"version":"13.0b/18.0a"},{"town":"字堰添","koaza":"","lat":40.725246,"lng":141.21388,"version":"13.0b/18.0a"},{"town":"字堰根","koaza":"","lat":40.751934,"lng":141.108252,"version":"13.0b/18.0a"},{"town":"字千刈道ノ上","koaza":"","lat":40.739647,"lng":141.236512,"version":"13.0b/18.0a"},{"town":"字千刈道ノ下","koaza":"","lat":40.735152,"lng":141.239281,"version":"13.0b/18.0a"},{"town":"字蒼前","koaza":"","lat":40.692297,"lng":141.15983,"version":"13.0b/18.0a"},{"town":"字底田","koaza":"","lat":40.744262,"lng":141.102265,"version":"13.0b/18.0a"},{"town":"字卒古沢","koaza":"","lat":40.775612,"lng":141.175814,"version":"13.0b/18.0a"},{"town":"字卒古沢南平","koaza":"","lat":40.750429,"lng":141.202563,"version":"13.0b/18.0a"},{"town":"字高井名","koaza":"","lat":40.739936,"lng":141.124133,"version":"13.0b/18.0a"},{"town":"字高屋敷","koaza":"","lat":40.690204,"lng":141.119766,"version":"13.0b/18.0a"},{"town":"字舘野","koaza":"","lat":40.688907,"lng":141.155974,"version":"13.0b/18.0a"},{"town":"字立野頭","koaza":"","lat":40.708215,"lng":141.164958,"version":"13.0b/18.0a"},{"town":"字舘ノ下","koaza":"","lat":40.750467,"lng":141.165754,"version":"13.0b/18.0a"},{"town":"字舘向","koaza":"","lat":40.753002,"lng":141.174405,"version":"13.0b/18.0a"},{"town":"字塚長根","koaza":"","lat":40.741097,"lng":141.206396,"version":"13.0b/18.0a"},{"town":"字槻木沢","koaza":"","lat":40.655196,"lng":141.128475,"version":"13.0b/18.0a"},{"town":"字附田家ノ前","koaza":"","lat":40.740963,"lng":141.19876,"version":"13.0b/18.0a"},{"town":"字附田川目","koaza":"","lat":40.739912,"lng":141.202328,"version":"13.0b/18.0a"},{"town":"字附田向","koaza":"","lat":40.73102,"lng":141.210496,"version":"13.0b/18.0a"},{"town":"字附田向川目","koaza":"","lat":40.73408,"lng":141.213402,"version":"13.0b/18.0a"},{"town":"字坪川原","koaza":"","lat":40.76918,"lng":141.137946,"version":"13.0b/18.0a"},{"town":"字鶴打田","koaza":"","lat":40.695706,"lng":141.118754,"version":"13.0b/18.0a"},{"town":"字鶴児平","koaza":"","lat":40.703131,"lng":141.127527,"version":"13.0b/18.0a"},{"town":"字手代森","koaza":"","lat":40.732247,"lng":141.150701,"version":"13.0b/18.0a"},{"town":"字寺裏","koaza":"","lat":40.697764,"lng":141.15619,"version":"13.0b/18.0a"},{"town":"字寺沢前","koaza":"","lat":40.746989,"lng":141.195966,"version":"13.0b/18.0a"},{"town":"字寺下","koaza":"","lat":40.637464,"lng":141.100974,"version":"13.0b/18.0a"},{"town":"字寺下山","koaza":"","lat":40.640525,"lng":141.091901,"version":"13.0b/18.0a"},{"town":"字天神林","koaza":"","lat":40.689945,"lng":141.150872,"version":"13.0b/18.0a"},{"town":"字天王","koaza":"","lat":40.705942,"lng":141.152258,"version":"13.0b/18.0a"},{"town":"字天間舘荒谷","koaza":"","lat":40.746137,"lng":141.185412,"version":"13.0b/18.0a"},{"town":"字天間舘大沢","koaza":"","lat":40.761206,"lng":141.130068,"version":"13.0b/18.0a"},{"town":"字天間舘寒水","koaza":"","lat":40.775683,"lng":141.131064,"version":"13.0b/18.0a"},{"town":"字天間舘倉越","koaza":"","lat":40.750333,"lng":141.105724,"version":"13.0b/18.0a"},{"town":"字天間舘前川原","koaza":"","lat":40.767698,"lng":141.153446,"version":"13.0b/18.0a"},{"town":"字道地","koaza":"","lat":40.66371,"lng":141.068897,"version":"13.0b/18.0a"},{"town":"字十枝内","koaza":"","lat":40.750739,"lng":141.126912,"version":"13.0b/18.0a"},{"town":"字十役野","koaza":"","lat":40.706268,"lng":141.144572,"version":"13.0b/18.0a"},{"town":"字豊間内","koaza":"","lat":40.711496,"lng":141.159329,"version":"13.0b/18.0a"},{"town":"字鳥谷部","koaza":"","lat":40.739014,"lng":141.13723,"version":"13.0b/18.0a"},{"town":"字中岫","koaza":"","lat":40.689879,"lng":141.130743,"version":"13.0b/18.0a"},{"town":"字中岫太田嶋","koaza":"","lat":40.720236,"lng":141.204819,"version":"13.0b/18.0a"},{"town":"字中岫長沢下","koaza":"","lat":40.714774,"lng":141.184692,"version":"13.0b/18.0a"},{"town":"字中岫花松下","koaza":"","lat":40.723809,"lng":141.211449,"version":"13.0b/18.0a"},{"town":"字中岫番屋","koaza":"","lat":40.718931,"lng":141.201218,"version":"13.0b/18.0a"},{"town":"字中岫東道添","koaza":"","lat":40.720616,"lng":141.195875,"version":"13.0b/18.0a"},{"town":"字中岫村ノ上","koaza":"","lat":40.715909,"lng":141.192356,"version":"13.0b/18.0a"},{"town":"字長久保","koaza":"","lat":40.644868,"lng":141.103377,"version":"13.0b/18.0a"},{"town":"字中田","koaza":"","lat":40.661559,"lng":141.12726,"version":"13.0b/18.0a"},{"town":"字中天間舘","koaza":"","lat":40.775193,"lng":141.126761,"version":"13.0b/18.0a"},{"town":"字中鳥谷","koaza":"","lat":40.735269,"lng":141.143805,"version":"13.0b/18.0a"},{"town":"字中野","koaza":"","lat":40.739118,"lng":141.163466,"version":"13.0b/18.0a"},{"town":"字中村","koaza":"","lat":40.660351,"lng":141.138057,"version":"13.0b/18.0a"},{"town":"字中屋敷","koaza":"","lat":40.683387,"lng":141.140296,"version":"13.0b/18.0a"},{"town":"字夏間木","koaza":"","lat":40.755605,"lng":141.126928,"version":"13.0b/18.0a"},{"town":"字夏焼","koaza":"","lat":40.681117,"lng":141.143173,"version":"13.0b/18.0a"},{"town":"字西上川原","koaza":"","lat":40.697632,"lng":141.142915,"version":"13.0b/18.0a"},{"town":"字西槻木","koaza":"","lat":40.683049,"lng":141.121339,"version":"13.0b/18.0a"},{"town":"字沼頭","koaza":"","lat":40.728191,"lng":141.212928,"version":"13.0b/18.0a"},{"town":"字沼尻","koaza":"","lat":40.729713,"lng":141.224171,"version":"13.0b/18.0a"},{"town":"字沼ノ沢","koaza":"","lat":40.649794,"lng":141.146575,"version":"13.0b/18.0a"},{"town":"字根間手","koaza":"","lat":40.739114,"lng":141.194704,"version":"13.0b/18.0a"},{"town":"字野左掛","koaza":"","lat":40.654586,"lng":141.083815,"version":"13.0b/18.0a"},{"town":"字野左掛山","koaza":"","lat":40.642671,"lng":141.131263,"version":"13.0b/18.0a"},{"town":"字野崎","koaza":"","lat":40.726431,"lng":141.199526,"version":"13.0b/18.0a"},{"town":"字野崎揚地北","koaza":"","lat":40.731383,"lng":141.206917,"version":"13.0b/18.0a"},{"town":"字野崎上田","koaza":"","lat":40.729057,"lng":141.195806,"version":"13.0b/18.0a"},{"town":"字野崎狐久保","koaza":"","lat":40.724799,"lng":141.176776,"version":"13.0b/18.0a"},{"town":"字野崎境田","koaza":"","lat":40.732039,"lng":141.196079,"version":"13.0b/18.0a"},{"town":"字野崎樋場","koaza":"","lat":40.730931,"lng":141.202172,"version":"13.0b/18.0a"},{"town":"字野崎前平","koaza":"","lat":40.724498,"lng":141.193384,"version":"13.0b/18.0a"},{"town":"字野崎森ノ下","koaza":"","lat":40.721362,"lng":141.190324,"version":"13.0b/18.0a"},{"town":"字野続","koaza":"","lat":40.701068,"lng":141.142792,"version":"13.0b/18.0a"},{"town":"字萩ノ沢","koaza":"","lat":40.677652,"lng":141.108799,"version":"13.0b/18.0a"},{"town":"字橋ノ上","koaza":"","lat":40.734476,"lng":141.158062,"version":"13.0b/18.0a"},{"town":"字橋向","koaza":"","lat":40.734577,"lng":141.224799,"version":"13.0b/18.0a"},{"town":"字八幡下","koaza":"","lat":40.733801,"lng":141.10293,"version":"13.0b/18.0a"},{"town":"字八幡岳","koaza":"","lat":40.705319,"lng":141.031226,"version":"13.0b/18.0a"},{"town":"字鉢森平","koaza":"","lat":40.752687,"lng":141.216741,"version":"13.0b/18.0a"},{"town":"字八栗平","koaza":"","lat":40.674114,"lng":141.10252,"version":"13.0b/18.0a"},{"town":"字八ケ田","koaza":"","lat":40.688289,"lng":141.114275,"version":"13.0b/18.0a"},{"town":"字八尺堂","koaza":"","lat":40.692534,"lng":141.1236,"version":"13.0b/18.0a"},{"town":"字放森","koaza":"","lat":40.72964,"lng":141.116889,"version":"13.0b/18.0a"},{"town":"字花松林ノ根","koaza":"","lat":40.723729,"lng":141.205458,"version":"13.0b/18.0a"},{"town":"字原久保","koaza":"","lat":40.729193,"lng":141.170355,"version":"13.0b/18.0a"},{"town":"字東上川原","koaza":"","lat":40.694457,"lng":141.153653,"version":"13.0b/18.0a"},{"town":"字東槻木","koaza":"","lat":40.69428,"lng":141.159735,"version":"13.0b/18.0a"},{"town":"字東天間舘","koaza":"","lat":40.758957,"lng":141.104463,"version":"13.0b/18.0a"},{"town":"字膝森","koaza":"","lat":40.710233,"lng":141.174937,"version":"13.0b/18.0a"},{"town":"字寒水","koaza":"","lat":40.713294,"lng":141.16648,"version":"13.0b/18.0a"},{"town":"字二ツ森家ノ後","koaza":"","lat":40.748976,"lng":141.239954,"version":"13.0b/18.0a"},{"town":"字二ツ森家ノ表","koaza":"","lat":40.741685,"lng":141.241814,"version":"13.0b/18.0a"},{"town":"字二ツ森家ノ下","koaza":"","lat":40.746426,"lng":141.245674,"version":"13.0b/18.0a"},{"town":"字不動向","koaza":"","lat":40.686603,"lng":141.142121,"version":"13.0b/18.0a"},{"town":"字舟場向川久保","koaza":"","lat":40.760258,"lng":141.188704,"version":"13.0b/18.0a"},{"town":"字古屋敷","koaza":"","lat":40.731413,"lng":141.104206,"version":"13.0b/18.0a"},{"town":"字別曽","koaza":"","lat":40.671014,"lng":141.116704,"version":"13.0b/18.0a"},{"town":"字蛇坂","koaza":"","lat":40.708632,"lng":141.150205,"version":"13.0b/18.0a"},{"town":"字細松","koaza":"","lat":40.735697,"lng":141.128927,"version":"13.0b/18.0a"},{"town":"字菩提木","koaza":"","lat":40.795901,"lng":141.133403,"version":"13.0b/18.0a"},{"town":"字堀切","koaza":"","lat":40.735471,"lng":141.20253,"version":"13.0b/18.0a"},{"town":"字前川原","koaza":"","lat":40.692706,"lng":141.14815,"version":"13.0b/18.0a"},{"town":"字前左野","koaza":"","lat":40.766598,"lng":141.244589,"version":"13.0b/18.0a"},{"town":"字前田","koaza":"","lat":40.685268,"lng":141.124987,"version":"13.0b/18.0a"},{"town":"字馬門川原","koaza":"","lat":40.705722,"lng":141.100975,"version":"13.0b/18.0a"},{"town":"字町","koaza":"","lat":40.697829,"lng":141.154675,"version":"13.0b/18.0a"},{"town":"字松ヶ沢","koaza":"","lat":40.751542,"lng":141.139668,"version":"13.0b/18.0a"},{"town":"字道ノ上","koaza":"","lat":40.746032,"lng":141.152798,"version":"13.0b/18.0a"},{"town":"字道ノ下","koaza":"","lat":40.736956,"lng":141.17302,"version":"13.0b/18.0a"},{"town":"字南舘向","koaza":"","lat":40.751325,"lng":141.175583,"version":"13.0b/18.0a"},{"town":"字南天間舘","koaza":"","lat":40.736712,"lng":140.960904,"version":"13.0b/18.0a"},{"town":"字都平","koaza":"","lat":40.682849,"lng":141.1081,"version":"13.0b/18.0a"},{"town":"字見町","koaza":"","lat":40.671837,"lng":141.134452,"version":"13.0b/18.0a"},{"town":"字向川原","koaza":"","lat":40.785334,"lng":141.119676,"version":"13.0b/18.0a"},{"town":"字向田","koaza":"","lat":40.690822,"lng":141.149498,"version":"13.0b/18.0a"},{"town":"字向平","koaza":"","lat":40.726738,"lng":141.105902,"version":"13.0b/18.0a"},{"town":"字向中野川向","koaza":"","lat":40.744253,"lng":141.14849,"version":"13.0b/18.0a"},{"town":"字森ヶ沢","koaza":"","lat":40.752751,"lng":141.156878,"version":"13.0b/18.0a"},{"town":"字森ノ上","koaza":"","lat":40.745521,"lng":141.164616,"version":"13.0b/18.0a"},{"town":"字森ノ下","koaza":"","lat":40.741517,"lng":141.176651,"version":"13.0b/18.0a"},{"town":"字薬師平","koaza":"","lat":40.695237,"lng":141.105186,"version":"13.0b/18.0a"},{"town":"字矢倉","koaza":"","lat":40.676047,"lng":141.128116,"version":"13.0b/18.0a"},{"town":"字柳平","koaza":"","lat":40.789312,"lng":141.131583,"version":"13.0b/18.0a"},{"town":"字簗場川原","koaza":"","lat":40.75224,"lng":141.168549,"version":"13.0b/18.0a"},{"town":"字山舘","koaza":"","lat":40.687928,"lng":141.06162,"version":"13.0b/18.0a"},{"town":"字山屋","koaza":"","lat":40.689917,"lng":141.103882,"version":"13.0b/18.0a"},{"town":"字和田","koaza":"","lat":40.685638,"lng":141.131817,"version":"13.0b/18.0a"},{"town":"字和田下","koaza":"","lat":40.68815,"lng":141.138723,"version":"13.0b/18.0a"},{"town":"字渡ノ上","koaza":"","lat":40.659122,"lng":141.134627,"version":"13.0b/18.0a"},{"town":"字渡向","koaza":"","lat":40.759479,"lng":141.164164,"version":"13.0b/18.0a"},{"town":"字古屋敷","koaza":"原","lat":40.729912,"lng":141.104888,"version":"13.0b/18.0a"},{"town":"字赤川向","koaza":"","lat":40.753548,"lng":141.248806,"version":"14.0b/19.0a"},{"town":"字荒熊内","koaza":"","lat":40.723483,"lng":141.149824,"version":"14.0b/19.0a"},{"town":"字荒屋","koaza":"","lat":40.669272,"lng":141.148048,"version":"14.0b/19.0a"},{"town":"字有田沢","koaza":"","lat":40.679826,"lng":141.121441,"version":"14.0b/19.0a"},{"town":"字家ノ裏","koaza":"","lat":40.745808,"lng":141.178015,"version":"14.0b/19.0a"},{"town":"字家ノ上","koaza":"","lat":40.747531,"lng":141.174326,"version":"14.0b/19.0a"},{"town":"字家ノ下","koaza":"","lat":40.747451,"lng":141.179019,"version":"14.0b/19.0a"},{"town":"字家ノ志茂","koaza":"","lat":40.761787,"lng":141.158644,"version":"14.0b/19.0a"},{"town":"字家ノ前","koaza":"","lat":40.736495,"lng":141.160211,"version":"14.0b/19.0a"},{"town":"字市ノ渡","koaza":"","lat":40.758284,"lng":141.092023,"version":"14.0b/19.0a"},{"town":"字銀南木","koaza":"","lat":40.725415,"lng":141.073183,"version":"14.0b/19.0a"},{"town":"字猪ノ鼻","koaza":"","lat":40.762138,"lng":141.174225,"version":"14.0b/19.0a"},{"town":"字上ノ山","koaza":"","lat":40.694009,"lng":141.140502,"version":"14.0b/19.0a"},{"town":"字上屋田","koaza":"","lat":40.690168,"lng":141.137963,"version":"14.0b/19.0a"},{"town":"字後川原","koaza":"","lat":40.695859,"lng":141.139442,"version":"14.0b/19.0a"},{"town":"字後平","koaza":"","lat":40.779123,"lng":141.155018,"version":"14.0b/19.0a"},{"town":"字内ノ沢","koaza":"","lat":40.776026,"lng":141.136413,"version":"14.0b/19.0a"},{"town":"字宇道坂","koaza":"","lat":40.700601,"lng":141.138105,"version":"14.0b/19.0a"},{"town":"字姥沢","koaza":"","lat":40.768189,"lng":141.240559,"version":"14.0b/19.0a"},{"town":"字海内","koaza":"","lat":40.692876,"lng":141.136987,"version":"14.0b/19.0a"},{"town":"字上町野","koaza":"","lat":40.704285,"lng":141.154435,"version":"14.0b/19.0a"},{"town":"字犹花","koaza":"","lat":40.706722,"lng":141.177388,"version":"14.0b/19.0a"},{"town":"字榎林家ノ後","koaza":"","lat":40.741808,"lng":141.214296,"version":"14.0b/19.0a"},{"town":"字榎林家ノ前","koaza":"","lat":40.73726,"lng":141.216601,"version":"14.0b/19.0a"},{"town":"字榎林小川向","koaza":"","lat":40.765885,"lng":141.253103,"version":"14.0b/19.0a"},{"town":"字榎林中田","koaza":"","lat":40.730179,"lng":141.217352,"version":"14.0b/19.0a"},{"town":"字榎林古屋敷","koaza":"","lat":40.771835,"lng":141.241838,"version":"14.0b/19.0a"},{"town":"字榎林前田","koaza":"","lat":40.737874,"lng":141.229257,"version":"14.0b/19.0a"},{"town":"字夷堂","koaza":"","lat":40.736264,"lng":141.213306,"version":"14.0b/19.0a"},{"town":"字大池","koaza":"","lat":40.702873,"lng":141.168381,"version":"14.0b/19.0a"},{"town":"字大川向","koaza":"","lat":40.75142,"lng":141.180981,"version":"14.0b/19.0a"},{"town":"字大沢","koaza":"","lat":40.717833,"lng":141.164014,"version":"14.0b/19.0a"},{"town":"字太田","koaza":"","lat":40.688785,"lng":141.168786,"version":"14.0b/19.0a"},{"town":"字大平","koaza":"","lat":40.761257,"lng":141.14935,"version":"14.0b/19.0a"},{"town":"字太田野","koaza":"","lat":40.693438,"lng":141.165701,"version":"14.0b/19.0a"},{"town":"字大林","koaza":"","lat":40.684339,"lng":141.153146,"version":"14.0b/19.0a"},{"town":"字大渡","koaza":"","lat":40.731917,"lng":141.232752,"version":"14.0b/19.0a"},{"town":"字尾山頭","koaza":"","lat":40.800279,"lng":141.124672,"version":"14.0b/19.0a"},{"town":"字小山川原","koaza":"","lat":40.678853,"lng":141.11516,"version":"14.0b/19.0a"},{"town":"字貝塚家ノ前","koaza":"","lat":40.751886,"lng":141.229877,"version":"14.0b/19.0a"},{"town":"字貝ノ口","koaza":"","lat":40.701902,"lng":141.146249,"version":"14.0b/19.0a"},{"town":"字影津内","koaza":"","lat":40.699612,"lng":141.161719,"version":"14.0b/19.0a"},{"town":"字鍛治林","koaza":"","lat":40.701846,"lng":141.12057,"version":"14.0b/19.0a"},{"town":"字金沢平","koaza":"","lat":40.761827,"lng":141.140158,"version":"14.0b/19.0a"},{"town":"字上川原","koaza":"","lat":40.769169,"lng":141.142476,"version":"14.0b/19.0a"},{"town":"字上志多","koaza":"","lat":40.798191,"lng":141.105644,"version":"14.0b/19.0a"},{"town":"字上平","koaza":"","lat":40.778679,"lng":141.137888,"version":"14.0b/19.0a"},{"town":"字上田坪","koaza":"","lat":40.772087,"lng":141.250483,"version":"14.0b/19.0a"},{"town":"字唐松","koaza":"","lat":40.642318,"lng":141.077773,"version":"14.0b/19.0a"},{"town":"字川口","koaza":"","lat":40.751972,"lng":141.2641,"version":"14.0b/19.0a"},{"town":"字川去","koaza":"","lat":40.679226,"lng":141.16081,"version":"14.0b/19.0a"},{"town":"字川端","koaza":"","lat":40.755497,"lng":141.163696,"version":"14.0b/19.0a"},{"town":"字北天間舘","koaza":"","lat":40.80176,"lng":141.134834,"version":"14.0b/19.0a"},{"town":"字倉岡","koaza":"","lat":40.733657,"lng":141.086187,"version":"14.0b/19.0a"},{"town":"字倉越","koaza":"","lat":40.702802,"lng":141.159023,"version":"14.0b/19.0a"},{"town":"字栗ノ木沢","koaza":"","lat":40.765879,"lng":141.105841,"version":"14.0b/19.0a"},{"town":"字五庵ノ下","koaza":"","lat":40.782366,"lng":141.107541,"version":"14.0b/19.0a"},{"town":"字小川口","koaza":"","lat":40.678757,"lng":141.124718,"version":"14.0b/19.0a"},{"town":"字小川向","koaza":"","lat":40.735207,"lng":141.190306,"version":"14.0b/19.0a"},{"town":"字小田下","koaza":"","lat":40.741555,"lng":141.187168,"version":"14.0b/19.0a"},{"town":"字小田平","koaza":"","lat":40.740794,"lng":141.184479,"version":"14.0b/19.0a"},{"town":"字小又","koaza":"","lat":40.760659,"lng":141.155684,"version":"14.0b/19.0a"},{"town":"字古和備","koaza":"","lat":40.741495,"lng":141.088691,"version":"14.0b/19.0a"},{"town":"字皀","koaza":"","lat":40.748157,"lng":141.188457,"version":"14.0b/19.0a"},{"town":"字賽ノ神","koaza":"","lat":40.646315,"lng":141.133168,"version":"14.0b/19.0a"},{"town":"字竿打川原","koaza":"","lat":40.736738,"lng":141.225697,"version":"14.0b/19.0a"},{"town":"字坂ノ外","koaza":"","lat":40.766817,"lng":141.235669,"version":"14.0b/19.0a"},{"town":"字作田","koaza":"","lat":40.697688,"lng":141.131311,"version":"14.0b/19.0a"},{"town":"字作田道","koaza":"","lat":40.729281,"lng":141.135423,"version":"14.0b/19.0a"},{"town":"字左組","koaza":"","lat":40.701449,"lng":141.094257,"version":"14.0b/19.0a"},{"town":"字桜田","koaza":"","lat":40.700433,"lng":141.1159,"version":"14.0b/19.0a"},{"town":"字哘","koaza":"","lat":40.752094,"lng":141.113247,"version":"14.0b/19.0a"},{"town":"字哘崎","koaza":"","lat":40.7456,"lng":141.13194,"version":"14.0b/19.0a"},{"town":"字哘平","koaza":"","lat":40.74612,"lng":141.12073,"version":"14.0b/19.0a"},{"town":"字淋代","koaza":"","lat":40.774467,"lng":141.123205,"version":"14.0b/19.0a"},{"town":"字笊田","koaza":"","lat":40.697672,"lng":141.16693,"version":"14.0b/19.0a"},{"town":"字笊田川久保","koaza":"","lat":40.698575,"lng":141.164686,"version":"14.0b/19.0a"},{"town":"字地蔵堂","koaza":"","lat":40.735014,"lng":141.220283,"version":"14.0b/19.0a"},{"town":"字下タ川原","koaza":"","lat":40.779914,"lng":141.12375,"version":"14.0b/19.0a"},{"town":"字七戸","koaza":"","lat":40.696638,"lng":141.151648,"version":"14.0b/19.0a"},{"town":"字七戸深山","koaza":"","lat":40.714254,"lng":141.046736,"version":"14.0b/19.0a"},{"town":"字柴舘道ノ下","koaza":"","lat":40.760047,"lng":141.247444,"version":"14.0b/19.0a"},{"town":"字清水頭","koaza":"","lat":40.665782,"lng":141.118827,"version":"14.0b/19.0a"},{"town":"字下モ川原","koaza":"","lat":40.755214,"lng":141.114296,"version":"14.0b/19.0a"},{"town":"字志茂川原","koaza":"","lat":40.788854,"lng":141.101324,"version":"14.0b/19.0a"},{"town":"字下志多","koaza":"","lat":40.7893,"lng":141.11573,"version":"14.0b/19.0a"},{"town":"字下田坪","koaza":"","lat":40.767284,"lng":141.249713,"version":"14.0b/19.0a"},{"town":"字下鳥谷部","koaza":"","lat":40.739894,"lng":141.143486,"version":"14.0b/19.0a"},{"town":"字下見町","koaza":"","lat":40.675725,"lng":141.141464,"version":"14.0b/19.0a"},{"town":"字蛇喰","koaza":"","lat":40.765585,"lng":141.149522,"version":"14.0b/19.0a"},{"town":"字白岩","koaza":"","lat":40.737406,"lng":141.109448,"version":"14.0b/19.0a"},{"town":"字白石","koaza":"","lat":40.78195,"lng":141.115263,"version":"14.0b/19.0a"},{"town":"字城ノ後","koaza":"","lat":40.698807,"lng":141.147902,"version":"14.0b/19.0a"},{"town":"字治部袋","koaza":"","lat":40.734939,"lng":141.116944,"version":"14.0b/19.0a"},{"town":"字李川原","koaza":"","lat":40.781662,"lng":141.128583,"version":"14.0b/19.0a"},{"town":"字李沢家ノ後","koaza":"","lat":40.763707,"lng":141.232902,"version":"14.0b/19.0a"},{"town":"字李沢家ノ前","koaza":"","lat":40.75793,"lng":141.233815,"version":"14.0b/19.0a"},{"town":"字李沢道ノ下","koaza":"","lat":40.757225,"lng":141.240871,"version":"14.0b/19.0a"},{"town":"字西野","koaza":"","lat":40.66833,"lng":141.088321,"version":"14.0b/19.0a"},{"town":"字堰合","koaza":"","lat":40.75489,"lng":141.236762,"version":"14.0b/19.0a"},{"town":"字堰代","koaza":"","lat":40.774797,"lng":141.113596,"version":"14.0b/19.0a"},{"town":"字堰添","koaza":"","lat":40.725246,"lng":141.21388,"version":"14.0b/19.0a"},{"town":"字堰根","koaza":"","lat":40.751934,"lng":141.108252,"version":"14.0b/19.0a"},{"town":"字千刈道ノ上","koaza":"","lat":40.739647,"lng":141.236512,"version":"14.0b/19.0a"},{"town":"字千刈道ノ下","koaza":"","lat":40.735152,"lng":141.239281,"version":"14.0b/19.0a"},{"town":"字蒼前","koaza":"","lat":40.692297,"lng":141.15983,"version":"14.0b/19.0a"},{"town":"字底田","koaza":"","lat":40.744262,"lng":141.102265,"version":"14.0b/19.0a"},{"town":"字卒古沢","koaza":"","lat":40.775612,"lng":141.175814,"version":"14.0b/19.0a"},{"town":"字卒古沢南平","koaza":"","lat":40.750429,"lng":141.202563,"version":"14.0b/19.0a"},{"town":"字高井名","koaza":"","lat":40.739936,"lng":141.124133,"version":"14.0b/19.0a"},{"town":"字高屋敷","koaza":"","lat":40.690204,"lng":141.119766,"version":"14.0b/19.0a"},{"town":"字舘野","koaza":"","lat":40.688907,"lng":141.155974,"version":"14.0b/19.0a"},{"town":"字立野頭","koaza":"","lat":40.708215,"lng":141.164958,"version":"14.0b/19.0a"},{"town":"字舘ノ下","koaza":"","lat":40.750467,"lng":141.165754,"version":"14.0b/19.0a"},{"town":"字舘向","koaza":"","lat":40.753002,"lng":141.174405,"version":"14.0b/19.0a"},{"town":"字塚長根","koaza":"","lat":40.741097,"lng":141.206396,"version":"14.0b/19.0a"},{"town":"字槻木沢","koaza":"","lat":40.655196,"lng":141.128475,"version":"14.0b/19.0a"},{"town":"字附田家ノ前","koaza":"","lat":40.740963,"lng":141.19876,"version":"14.0b/19.0a"},{"town":"字附田川目","koaza":"","lat":40.739912,"lng":141.202328,"version":"14.0b/19.0a"},{"town":"字附田向","koaza":"","lat":40.73102,"lng":141.210496,"version":"14.0b/19.0a"},{"town":"字附田向川目","koaza":"","lat":40.73408,"lng":141.213402,"version":"14.0b/19.0a"},{"town":"字坪川原","koaza":"","lat":40.76918,"lng":141.137946,"version":"14.0b/19.0a"},{"town":"字鶴打田","koaza":"","lat":40.695706,"lng":141.118754,"version":"14.0b/19.0a"},{"town":"字鶴児平","koaza":"","lat":40.703131,"lng":141.127527,"version":"14.0b/19.0a"},{"town":"字手代森","koaza":"","lat":40.732247,"lng":141.150701,"version":"14.0b/19.0a"},{"town":"字寺裏","koaza":"","lat":40.697764,"lng":141.15619,"version":"14.0b/19.0a"},{"town":"字寺沢前","koaza":"","lat":40.746989,"lng":141.195966,"version":"14.0b/19.0a"},{"town":"字寺下","koaza":"","lat":40.637464,"lng":141.100974,"version":"14.0b/19.0a"},{"town":"字寺下山","koaza":"","lat":40.640525,"lng":141.091901,"version":"14.0b/19.0a"},{"town":"字天神林","koaza":"","lat":40.689945,"lng":141.150872,"version":"14.0b/19.0a"},{"town":"字天王","koaza":"","lat":40.705942,"lng":141.152258,"version":"14.0b/19.0a"},{"town":"字天間舘荒谷","koaza":"","lat":40.746137,"lng":141.185412,"version":"14.0b/19.0a"},{"town":"字天間舘大沢","koaza":"","lat":40.761206,"lng":141.130068,"version":"14.0b/19.0a"},{"town":"字天間舘寒水","koaza":"","lat":40.775683,"lng":141.131064,"version":"14.0b/19.0a"},{"town":"字天間舘倉越","koaza":"","lat":40.750333,"lng":141.105724,"version":"14.0b/19.0a"},{"town":"字天間舘前川原","koaza":"","lat":40.767698,"lng":141.153446,"version":"14.0b/19.0a"},{"town":"字道地","koaza":"","lat":40.66371,"lng":141.068897,"version":"14.0b/19.0a"},{"town":"字十枝内","koaza":"","lat":40.750739,"lng":141.126912,"version":"14.0b/19.0a"},{"town":"字十役野","koaza":"","lat":40.706268,"lng":141.144572,"version":"14.0b/19.0a"},{"town":"字豊間内","koaza":"","lat":40.711496,"lng":141.159329,"version":"14.0b/19.0a"},{"town":"字鳥谷部","koaza":"","lat":40.739014,"lng":141.13723,"version":"14.0b/19.0a"},{"town":"字中岫","koaza":"","lat":40.689879,"lng":141.130743,"version":"14.0b/19.0a"},{"town":"字中岫太田嶋","koaza":"","lat":40.720236,"lng":141.204819,"version":"14.0b/19.0a"},{"town":"字中岫長沢下","koaza":"","lat":40.714774,"lng":141.184692,"version":"14.0b/19.0a"},{"town":"字中岫花松下","koaza":"","lat":40.723809,"lng":141.211449,"version":"14.0b/19.0a"},{"town":"字中岫番屋","koaza":"","lat":40.718931,"lng":141.201218,"version":"14.0b/19.0a"},{"town":"字中岫東道添","koaza":"","lat":40.720616,"lng":141.195875,"version":"14.0b/19.0a"},{"town":"字中岫村ノ上","koaza":"","lat":40.715909,"lng":141.192356,"version":"14.0b/19.0a"},{"town":"字長久保","koaza":"","lat":40.644868,"lng":141.103377,"version":"14.0b/19.0a"},{"town":"字中田","koaza":"","lat":40.661559,"lng":141.12726,"version":"14.0b/19.0a"},{"town":"字中天間舘","koaza":"","lat":40.775193,"lng":141.126761,"version":"14.0b/19.0a"},{"town":"字中鳥谷","koaza":"","lat":40.735269,"lng":141.143805,"version":"14.0b/19.0a"},{"town":"字中野","koaza":"","lat":40.739118,"lng":141.163466,"version":"14.0b/19.0a"},{"town":"字中村","koaza":"","lat":40.660351,"lng":141.138057,"version":"14.0b/19.0a"},{"town":"字中屋敷","koaza":"","lat":40.683387,"lng":141.140296,"version":"14.0b/19.0a"},{"town":"字夏間木","koaza":"","lat":40.755605,"lng":141.126928,"version":"14.0b/19.0a"},{"town":"字夏焼","koaza":"","lat":40.681117,"lng":141.143173,"version":"14.0b/19.0a"},{"town":"字西上川原","koaza":"","lat":40.697632,"lng":141.142915,"version":"14.0b/19.0a"},{"town":"字西槻木","koaza":"","lat":40.683049,"lng":141.121339,"version":"14.0b/19.0a"},{"town":"字沼頭","koaza":"","lat":40.728191,"lng":141.212928,"version":"14.0b/19.0a"},{"town":"字沼尻","koaza":"","lat":40.729713,"lng":141.224171,"version":"14.0b/19.0a"},{"town":"字沼ノ沢","koaza":"","lat":40.649794,"lng":141.146575,"version":"14.0b/19.0a"},{"town":"字根間手","koaza":"","lat":40.739114,"lng":141.194704,"version":"14.0b/19.0a"},{"town":"字野左掛","koaza":"","lat":40.654586,"lng":141.083815,"version":"14.0b/19.0a"},{"town":"字野左掛山","koaza":"","lat":40.642671,"lng":141.131263,"version":"14.0b/19.0a"},{"town":"字野崎","koaza":"","lat":40.726431,"lng":141.199526,"version":"14.0b/19.0a"},{"town":"字野崎揚地北","koaza":"","lat":40.731383,"lng":141.206917,"version":"14.0b/19.0a"},{"town":"字野崎上田","koaza":"","lat":40.729057,"lng":141.195806,"version":"14.0b/19.0a"},{"town":"字野崎狐久保","koaza":"","lat":40.724799,"lng":141.176776,"version":"14.0b/19.0a"},{"town":"字野崎境田","koaza":"","lat":40.732039,"lng":141.196079,"version":"14.0b/19.0a"},{"town":"字野崎樋場","koaza":"","lat":40.730931,"lng":141.202172,"version":"14.0b/19.0a"},{"town":"字野崎前平","koaza":"","lat":40.724498,"lng":141.193384,"version":"14.0b/19.0a"},{"town":"字野崎森ノ下","koaza":"","lat":40.721362,"lng":141.190324,"version":"14.0b/19.0a"},{"town":"字野続","koaza":"","lat":40.701068,"lng":141.142792,"version":"14.0b/19.0a"},{"town":"字萩ノ沢","koaza":"","lat":40.677652,"lng":141.108799,"version":"14.0b/19.0a"},{"town":"字橋ノ上","koaza":"","lat":40.734476,"lng":141.158062,"version":"14.0b/19.0a"},{"town":"字橋向","koaza":"","lat":40.734577,"lng":141.224799,"version":"14.0b/19.0a"},{"town":"字八幡下","koaza":"","lat":40.733801,"lng":141.10293,"version":"14.0b/19.0a"},{"town":"字八幡岳","koaza":"","lat":40.705319,"lng":141.031226,"version":"14.0b/19.0a"},{"town":"字鉢森平","koaza":"","lat":40.752687,"lng":141.216741,"version":"14.0b/19.0a"},{"town":"字八栗平","koaza":"","lat":40.674114,"lng":141.10252,"version":"14.0b/19.0a"},{"town":"字八ケ田","koaza":"","lat":40.688289,"lng":141.114275,"version":"14.0b/19.0a"},{"town":"字八尺堂","koaza":"","lat":40.692534,"lng":141.1236,"version":"14.0b/19.0a"},{"town":"字放森","koaza":"","lat":40.72964,"lng":141.116889,"version":"14.0b/19.0a"},{"town":"字花松林ノ根","koaza":"","lat":40.723729,"lng":141.205458,"version":"14.0b/19.0a"},{"town":"字原久保","koaza":"","lat":40.729193,"lng":141.170355,"version":"14.0b/19.0a"},{"town":"字東上川原","koaza":"","lat":40.694457,"lng":141.153653,"version":"14.0b/19.0a"},{"town":"字東槻木","koaza":"","lat":40.69428,"lng":141.159735,"version":"14.0b/19.0a"},{"town":"字東天間舘","koaza":"","lat":40.758957,"lng":141.104463,"version":"14.0b/19.0a"},{"town":"字膝森","koaza":"","lat":40.710233,"lng":141.174937,"version":"14.0b/19.0a"},{"town":"字寒水","koaza":"","lat":40.713294,"lng":141.16648,"version":"14.0b/19.0a"},{"town":"字二ツ森家ノ後","koaza":"","lat":40.748976,"lng":141.239954,"version":"14.0b/19.0a"},{"town":"字二ツ森家ノ表","koaza":"","lat":40.741685,"lng":141.241814,"version":"14.0b/19.0a"},{"town":"字二ツ森家ノ下","koaza":"","lat":40.746426,"lng":141.245674,"version":"14.0b/19.0a"},{"town":"字不動向","koaza":"","lat":40.686603,"lng":141.142121,"version":"14.0b/19.0a"},{"town":"字舟場向川久保","koaza":"","lat":40.760258,"lng":141.188704,"version":"14.0b/19.0a"},{"town":"字古屋敷","koaza":"","lat":40.731413,"lng":141.104206,"version":"14.0b/19.0a"},{"town":"字別曽","koaza":"","lat":40.671014,"lng":141.116704,"version":"14.0b/19.0a"},{"town":"字蛇坂","koaza":"","lat":40.708632,"lng":141.150205,"version":"14.0b/19.0a"},{"town":"字細松","koaza":"","lat":40.735697,"lng":141.128927,"version":"14.0b/19.0a"},{"town":"字菩提木","koaza":"","lat":40.795901,"lng":141.133403,"version":"14.0b/19.0a"},{"town":"字堀切","koaza":"","lat":40.735471,"lng":141.20253,"version":"14.0b/19.0a"},{"town":"字前川原","koaza":"","lat":40.692706,"lng":141.14815,"version":"14.0b/19.0a"},{"town":"字前左野","koaza":"","lat":40.766598,"lng":141.244589,"version":"14.0b/19.0a"},{"town":"字前田","koaza":"","lat":40.685268,"lng":141.124987,"version":"14.0b/19.0a"},{"town":"字馬門川原","koaza":"","lat":40.705722,"lng":141.100975,"version":"14.0b/19.0a"},{"town":"字町","koaza":"","lat":40.697829,"lng":141.154675,"version":"14.0b/19.0a"},{"town":"字松ヶ沢","koaza":"","lat":40.751542,"lng":141.139668,"version":"14.0b/19.0a"},{"town":"字道ノ上","koaza":"","lat":40.746032,"lng":141.152798,"version":"14.0b/19.0a"},{"town":"字道ノ下","koaza":"","lat":40.736956,"lng":141.17302,"version":"14.0b/19.0a"},{"town":"字南舘向","koaza":"","lat":40.751325,"lng":141.175583,"version":"14.0b/19.0a"},{"town":"字南天間舘","koaza":"","lat":40.736712,"lng":140.960904,"version":"14.0b/19.0a"},{"town":"字都平","koaza":"","lat":40.682849,"lng":141.1081,"version":"14.0b/19.0a"},{"town":"字見町","koaza":"","lat":40.671837,"lng":141.134452,"version":"14.0b/19.0a"},{"town":"字向川原","koaza":"","lat":40.785334,"lng":141.119676,"version":"14.0b/19.0a"},{"town":"字向田","koaza":"","lat":40.690822,"lng":141.149498,"version":"14.0b/19.0a"},{"town":"字向平","koaza":"","lat":40.726738,"lng":141.105902,"version":"14.0b/19.0a"},{"town":"字向中野川向","koaza":"","lat":40.744253,"lng":141.14849,"version":"14.0b/19.0a"},{"town":"字森ヶ沢","koaza":"","lat":40.752751,"lng":141.156878,"version":"14.0b/19.0a"},{"town":"字森ノ上","koaza":"","lat":40.745521,"lng":141.164616,"version":"14.0b/19.0a"},{"town":"字森ノ下","koaza":"","lat":40.741517,"lng":141.176651,"version":"14.0b/19.0a"},{"town":"字薬師平","koaza":"","lat":40.695237,"lng":141.105186,"version":"14.0b/19.0a"},{"town":"字矢倉","koaza":"","lat":40.676047,"lng":141.128116,"version":"14.0b/19.0a"},{"town":"字柳平","koaza":"","lat":40.789312,"lng":141.131583,"version":"14.0b/19.0a"},{"town":"字簗場川原","koaza":"","lat":40.75224,"lng":141.168549,"version":"14.0b/19.0a"},{"town":"字山舘","koaza":"","lat":40.687928,"lng":141.06162,"version":"14.0b/19.0a"},{"town":"字山屋","koaza":"","lat":40.689917,"lng":141.103882,"version":"14.0b/19.0a"},{"town":"字和田","koaza":"","lat":40.685638,"lng":141.131817,"version":"14.0b/19.0a"},{"town":"字和田下","koaza":"","lat":40.68815,"lng":141.138723,"version":"14.0b/19.0a"},{"town":"字渡ノ上","koaza":"","lat":40.659122,"lng":141.134627,"version":"14.0b/19.0a"},{"town":"字渡向","koaza":"","lat":40.759479,"lng":141.164164,"version":"14.0b/19.0a"},{"town":"字古屋敷","koaza":"原","lat":40.729912,"lng":141.104888,"version":"14.0b/19.0a"}]