[{"town":"青葉一丁目","koaza":"","lat":40.50908,"lng":141.511275,"version":"13.0b/18.0a"},{"town":"青葉二丁目","koaza":"","lat":40.511007,"lng":141.51784,"version":"13.0b/18.0a"},{"town":"青葉三丁目","koaza":"","lat":40.507635,"lng":141.515931,"version":"13.0b/18.0a"},{"town":"旭ケ丘一丁目","koaza":"","lat":40.496482,"lng":141.535641,"version":"13.0b/18.0a"},{"town":"旭ケ丘二丁目","koaza":"","lat":40.496332,"lng":141.532402,"version":"13.0b/18.0a"},{"town":"旭ケ丘三丁目","koaza":"","lat":40.498963,"lng":141.534139,"version":"13.0b/18.0a"},{"town":"旭ケ丘四丁目","koaza":"","lat":40.496584,"lng":141.538586,"version":"13.0b/18.0a"},{"town":"旭ケ丘五丁目","koaza":"","lat":40.494378,"lng":141.5352,"version":"13.0b/18.0a"},{"town":"石堂一丁目","koaza":"","lat":40.529139,"lng":141.477685,"version":"13.0b/18.0a"},{"town":"石堂二丁目","koaza":"","lat":40.526463,"lng":141.472647,"version":"13.0b/18.0a"},{"town":"石堂三丁目","koaza":"","lat":40.526296,"lng":141.479826,"version":"13.0b/18.0a"},{"town":"石堂四丁目","koaza":"","lat":40.532341,"lng":141.481095,"version":"13.0b/18.0a"},{"town":"一番町一丁目","koaza":"","lat":40.509067,"lng":141.433602,"version":"13.0b/18.0a"},{"town":"一番町二丁目","koaza":"","lat":40.508442,"lng":141.434811,"version":"13.0b/18.0a"},{"town":"一番町三丁目","koaza":"","lat":40.505924,"lng":141.431302,"version":"13.0b/18.0a"},{"town":"内丸一丁目","koaza":"","lat":40.513936,"lng":141.488175,"version":"13.0b/18.0a"},{"town":"内丸二丁目","koaza":"","lat":40.515208,"lng":141.491234,"version":"13.0b/18.0a"},{"town":"内丸三丁目","koaza":"","lat":40.513421,"lng":141.491824,"version":"13.0b/18.0a"},{"town":"売市一丁目","koaza":"","lat":40.50966,"lng":141.478146,"version":"13.0b/18.0a"},{"town":"売市二丁目","koaza":"","lat":40.509425,"lng":141.474693,"version":"13.0b/18.0a"},{"town":"売市三丁目","koaza":"","lat":40.51076,"lng":141.471247,"version":"13.0b/18.0a"},{"town":"売市四丁目","koaza":"","lat":40.513431,"lng":141.472473,"version":"13.0b/18.0a"},{"town":"大字荒町","koaza":"","lat":40.506828,"lng":141.485008,"version":"13.0b/18.0a"},{"town":"大字石手洗","koaza":"","lat":40.483099,"lng":141.501669,"version":"13.0b/18.0a"},{"town":"大字石堂","koaza":"","lat":40.525523,"lng":141.481596,"version":"13.0b/18.0a"},{"town":"大字市川町","koaza":"","lat":40.574129,"lng":141.437356,"version":"13.0b/18.0a"},{"town":"大字稲荷町","koaza":"","lat":40.507756,"lng":141.484143,"version":"13.0b/18.0a"},{"town":"大字岩泉町","koaza":"","lat":40.508721,"lng":141.494161,"version":"13.0b/18.0a"},{"town":"大字売市","koaza":"","lat":40.512618,"lng":141.485597,"version":"13.0b/18.0a"},{"town":"大字上野","koaza":"","lat":40.477282,"lng":141.410008,"version":"13.0b/18.0a"},{"town":"大字大久保","koaza":"","lat":40.499513,"lng":141.566402,"version":"13.0b/18.0a"},{"town":"大字鍛冶町","koaza":"","lat":40.505296,"lng":141.493553,"version":"13.0b/18.0a"},{"town":"大字徒士町","koaza":"","lat":40.508579,"lng":141.485192,"version":"13.0b/18.0a"},{"town":"大字金浜","koaza":"","lat":40.47765,"lng":141.619241,"version":"13.0b/18.0a"},{"town":"大字上徒士町","koaza":"","lat":40.505432,"lng":141.483988,"version":"13.0b/18.0a"},{"town":"大字上組町","koaza":"","lat":40.504251,"lng":141.482955,"version":"13.0b/18.0a"},{"town":"大字櫛引","koaza":"","lat":40.476592,"lng":141.433429,"version":"13.0b/18.0a"},{"town":"大字窪町","koaza":"","lat":40.512211,"lng":141.493549,"version":"13.0b/18.0a"},{"town":"大字是川","koaza":"","lat":40.448153,"lng":141.493503,"version":"13.0b/18.0a"},{"town":"大字坂牛","koaza":"","lat":40.473949,"lng":141.451289,"version":"13.0b/18.0a"},{"town":"大字鮫町","koaza":"","lat":40.515266,"lng":141.589569,"version":"13.0b/18.0a"},{"town":"大字沢里","koaza":"","lat":40.492888,"lng":141.473394,"version":"13.0b/18.0a"},{"town":"大字十一日町","koaza":"","lat":40.510502,"lng":141.494939,"version":"13.0b/18.0a"},{"town":"大字十三日町","koaza":"","lat":40.508738,"lng":141.48895,"version":"13.0b/18.0a"},{"town":"大字十八日町","koaza":"","lat":40.511663,"lng":141.494346,"version":"13.0b/18.0a"},{"town":"大字十六日町","koaza":"","lat":40.50807,"lng":141.489796,"version":"13.0b/18.0a"},{"town":"大字常海町","koaza":"","lat":40.512896,"lng":141.493234,"version":"13.0b/18.0a"},{"town":"大字常番町","koaza":"","lat":40.504654,"lng":141.484613,"version":"13.0b/18.0a"},{"town":"大字尻内町","koaza":"","lat":40.520882,"lng":141.413693,"version":"13.0b/18.0a"},{"town":"大字白銀町","koaza":"","lat":40.517452,"lng":141.539606,"version":"13.0b/18.0a"},{"town":"大字新荒町","koaza":"","lat":40.506236,"lng":141.483091,"version":"13.0b/18.0a"},{"town":"大字大工町","koaza":"","lat":40.507113,"lng":141.491886,"version":"13.0b/18.0a"},{"town":"大字鷹匠小路","koaza":"","lat":40.507753,"lng":141.492497,"version":"13.0b/18.0a"},{"town":"大字田向","koaza":"","lat":40.493911,"lng":141.505439,"version":"13.0b/18.0a"},{"town":"大字田面木","koaza":"","lat":40.493453,"lng":141.450117,"version":"13.0b/18.0a"},{"town":"大字朔日町","koaza":"","lat":40.509746,"lng":141.492856,"version":"13.0b/18.0a"},{"town":"大字堤町","koaza":"","lat":40.509598,"lng":141.486728,"version":"13.0b/18.0a"},{"town":"大字寺横町","koaza":"","lat":40.5079,"lng":141.491418,"version":"13.0b/18.0a"},{"town":"大字十日市","koaza":"","lat":40.477757,"lng":141.513213,"version":"13.0b/18.0a"},{"town":"大字鳥屋部町","koaza":"","lat":40.506856,"lng":141.490114,"version":"13.0b/18.0a"},{"town":"大字豊崎町","koaza":"","lat":40.513441,"lng":141.38083,"version":"13.0b/18.0a"},{"town":"大字中居林","koaza":"","lat":40.493098,"lng":141.501462,"version":"13.0b/18.0a"},{"town":"大字長苗代","koaza":"","lat":40.51778,"lng":141.45388,"version":"13.0b/18.0a"},{"town":"大字長横町","koaza":"","lat":40.508078,"lng":141.493424,"version":"13.0b/18.0a"},{"town":"大字新井田","koaza":"","lat":40.500313,"lng":141.536933,"version":"13.0b/18.0a"},{"town":"大字廿三日町","koaza":"","lat":40.50766,"lng":141.487028,"version":"13.0b/18.0a"},{"town":"大字廿六日町","koaza":"","lat":40.506937,"lng":141.487618,"version":"13.0b/18.0a"},{"town":"大字糠塚","koaza":"","lat":40.490896,"lng":141.48738,"version":"13.0b/18.0a"},{"town":"大字沼館","koaza":"","lat":40.53284,"lng":141.49405,"version":"13.0b/18.0a"},{"town":"大字根城","koaza":"","lat":40.504602,"lng":141.455576,"version":"13.0b/18.0a"},{"town":"大字馬場町","koaza":"","lat":40.510893,"lng":141.488371,"version":"13.0b/18.0a"},{"town":"大字番町","koaza":"","lat":40.510627,"lng":141.490297,"version":"13.0b/18.0a"},{"town":"大字堀端町","koaza":"","lat":40.512096,"lng":141.490885,"version":"13.0b/18.0a"},{"town":"大字町組町","koaza":"","lat":40.505807,"lng":141.485628,"version":"13.0b/18.0a"},{"town":"大字松館","koaza":"","lat":40.465693,"lng":141.537162,"version":"13.0b/18.0a"},{"town":"大字三日町","koaza":"","lat":40.509685,"lng":141.490712,"version":"13.0b/18.0a"},{"town":"大字湊町","koaza":"","lat":40.519168,"lng":141.527277,"version":"13.0b/18.0a"},{"town":"大字美保野","koaza":"","lat":40.482335,"lng":141.583163,"version":"13.0b/18.0a"},{"town":"大字妙","koaza":"","lat":40.482584,"lng":141.545949,"version":"13.0b/18.0a"},{"town":"大字六日町","koaza":"","lat":40.508985,"lng":141.491412,"version":"13.0b/18.0a"},{"town":"大字本鍛冶町","koaza":"","lat":40.506222,"lng":141.488076,"version":"13.0b/18.0a"},{"town":"大字本徒士町","koaza":"","lat":40.509039,"lng":141.486054,"version":"13.0b/18.0a"},{"town":"大字山伏小路","koaza":"","lat":40.505124,"lng":141.492498,"version":"13.0b/18.0a"},{"town":"大字八幡","koaza":"","lat":40.489784,"lng":141.435827,"version":"13.0b/18.0a"},{"town":"大字八日町","koaza":"","lat":40.51067,"lng":141.492534,"version":"13.0b/18.0a"},{"town":"大字類家","koaza":"","lat":40.509477,"lng":141.496642,"version":"13.0b/18.0a"},{"town":"卸センター一丁目","koaza":"","lat":40.523513,"lng":141.45259,"version":"13.0b/18.0a"},{"town":"卸センター二丁目","koaza":"","lat":40.522195,"lng":141.453732,"version":"13.0b/18.0a"},{"town":"柏崎一丁目","koaza":"","lat":40.513972,"lng":141.495853,"version":"13.0b/18.0a"},{"town":"柏崎二丁目","koaza":"","lat":40.5113,"lng":141.498727,"version":"13.0b/18.0a"},{"town":"柏崎三丁目","koaza":"","lat":40.513398,"lng":141.501216,"version":"13.0b/18.0a"},{"town":"柏崎四丁目","koaza":"","lat":40.51519,"lng":141.499933,"version":"13.0b/18.0a"},{"town":"柏崎五丁目","koaza":"","lat":40.516985,"lng":141.503632,"version":"13.0b/18.0a"},{"town":"柏崎六丁目","koaza":"","lat":40.514318,"lng":141.50508,"version":"13.0b/18.0a"},{"town":"河原木","koaza":"","lat":40.532384,"lng":141.471124,"version":"13.0b/18.0a"},{"town":"桔梗野工業団地一丁目","koaza":"","lat":40.572478,"lng":141.463683,"version":"13.0b/18.0a"},{"town":"桔梗野工業団地二丁目","koaza":"","lat":40.564952,"lng":141.45489,"version":"13.0b/18.0a"},{"town":"桔梗野工業団地三丁目","koaza":"","lat":40.573149,"lng":141.46072,"version":"13.0b/18.0a"},{"town":"北インター工業団地一丁目","koaza":"","lat":40.544793,"lng":141.432731,"version":"13.0b/18.0a"},{"town":"北インター工業団地二丁目","koaza":"","lat":40.544408,"lng":141.428924,"version":"13.0b/18.0a"},{"town":"北インター工業団地三丁目","koaza":"","lat":40.547148,"lng":141.425356,"version":"13.0b/18.0a"},{"town":"北インター工業団地四丁目","koaza":"","lat":40.556931,"lng":141.426763,"version":"13.0b/18.0a"},{"town":"北インター工業団地五丁目","koaza":"","lat":40.554098,"lng":141.429778,"version":"13.0b/18.0a"},{"town":"北インター工業団地六丁目","koaza":"","lat":40.552315,"lng":141.433967,"version":"13.0b/18.0a"},{"town":"北白山台一丁目","koaza":"","lat":40.492472,"lng":141.46626,"version":"13.0b/18.0a"},{"town":"北白山台二丁目","koaza":"","lat":40.493691,"lng":141.46135,"version":"13.0b/18.0a"},{"town":"北白山台三丁目","koaza":"","lat":40.48872,"lng":141.465361,"version":"13.0b/18.0a"},{"town":"北白山台四丁目","koaza":"","lat":40.490058,"lng":141.461899,"version":"13.0b/18.0a"},{"town":"北白山台五丁目","koaza":"","lat":40.484967,"lng":141.462847,"version":"13.0b/18.0a"},{"town":"北白山台六丁目","koaza":"","lat":40.485191,"lng":141.458727,"version":"13.0b/18.0a"},{"town":"江陽一丁目","koaza":"","lat":40.519124,"lng":141.502739,"version":"13.0b/18.0a"},{"town":"江陽二丁目","koaza":"","lat":40.522241,"lng":141.502438,"version":"13.0b/18.0a"},{"town":"江陽三丁目","koaza":"","lat":40.528463,"lng":141.506054,"version":"13.0b/18.0a"},{"town":"江陽四丁目","koaza":"","lat":40.527566,"lng":141.514818,"version":"13.0b/18.0a"},{"town":"江陽五丁目","koaza":"","lat":40.52243,"lng":141.509757,"version":"13.0b/18.0a"},{"town":"小中野一丁目","koaza":"","lat":40.518078,"lng":141.507042,"version":"13.0b/18.0a"},{"town":"小中野二丁目","koaza":"","lat":40.515387,"lng":141.508787,"version":"13.0b/18.0a"},{"town":"小中野三丁目","koaza":"","lat":40.516681,"lng":141.512394,"version":"13.0b/18.0a"},{"town":"小中野四丁目","koaza":"","lat":40.519534,"lng":141.510162,"version":"13.0b/18.0a"},{"town":"小中野五丁目","koaza":"","lat":40.521559,"lng":141.514836,"version":"13.0b/18.0a"},{"town":"小中野六丁目","koaza":"","lat":40.518318,"lng":141.51706,"version":"13.0b/18.0a"},{"town":"小中野七丁目","koaza":"","lat":40.520252,"lng":141.520547,"version":"13.0b/18.0a"},{"town":"小中野八丁目","koaza":"","lat":40.524403,"lng":141.518911,"version":"13.0b/18.0a"},{"town":"是川一丁目","koaza":"","lat":40.466065,"lng":141.499431,"version":"13.0b/18.0a"},{"town":"是川二丁目","koaza":"","lat":40.467446,"lng":141.496319,"version":"13.0b/18.0a"},{"town":"是川三丁目","koaza":"","lat":40.470154,"lng":141.499121,"version":"13.0b/18.0a"},{"town":"是川四丁目","koaza":"","lat":40.468869,"lng":141.501888,"version":"13.0b/18.0a"},{"town":"是川五丁目","koaza":"","lat":40.466631,"lng":141.502981,"version":"13.0b/18.0a"},{"town":"桜ケ丘一丁目","koaza":"","lat":40.49999,"lng":141.542479,"version":"13.0b/18.0a"},{"town":"桜ケ丘二丁目","koaza":"","lat":40.495882,"lng":141.546146,"version":"13.0b/18.0a"},{"town":"桜ケ丘三丁目","koaza":"","lat":40.496561,"lng":141.5481,"version":"13.0b/18.0a"},{"town":"桜ケ丘四丁目","koaza":"","lat":40.496884,"lng":141.551741,"version":"13.0b/18.0a"},{"town":"下長一丁目","koaza":"","lat":40.529073,"lng":141.469484,"version":"13.0b/18.0a"},{"town":"下長二丁目","koaza":"","lat":40.532816,"lng":141.475188,"version":"13.0b/18.0a"},{"town":"下長六丁目","koaza":"","lat":40.534705,"lng":141.482623,"version":"13.0b/18.0a"},{"town":"下長七丁目","koaza":"","lat":40.534152,"lng":141.486265,"version":"13.0b/18.0a"},{"town":"下長八丁目","koaza":"","lat":40.536417,"lng":141.485904,"version":"13.0b/18.0a"},{"town":"白銀一丁目","koaza":"","lat":40.522835,"lng":141.541258,"version":"13.0b/18.0a"},{"town":"白銀二丁目","koaza":"","lat":40.523387,"lng":141.544615,"version":"13.0b/18.0a"},{"town":"白銀三丁目","koaza":"","lat":40.521337,"lng":141.545147,"version":"13.0b/18.0a"},{"town":"白銀四丁目","koaza":"","lat":40.52257,"lng":141.548658,"version":"13.0b/18.0a"},{"town":"白銀五丁目","koaza":"","lat":40.524405,"lng":141.549587,"version":"13.0b/18.0a"},{"town":"白銀台一丁目","koaza":"","lat":40.515537,"lng":141.554637,"version":"13.0b/18.0a"},{"town":"白銀台二丁目","koaza":"","lat":40.51604,"lng":141.557694,"version":"13.0b/18.0a"},{"town":"白銀台三丁目","koaza":"","lat":40.513958,"lng":141.558458,"version":"13.0b/18.0a"},{"town":"白銀台四丁目","koaza":"","lat":40.515101,"lng":141.561216,"version":"13.0b/18.0a"},{"town":"白銀台五丁目","koaza":"","lat":40.516801,"lng":141.560582,"version":"13.0b/18.0a"},{"town":"白銀台六丁目","koaza":"","lat":40.515917,"lng":141.562931,"version":"13.0b/18.0a"},{"town":"白銀台七丁目","koaza":"","lat":40.513848,"lng":141.562224,"version":"13.0b/18.0a"},{"town":"城下一丁目","koaza":"","lat":40.517563,"lng":141.493183,"version":"13.0b/18.0a"},{"town":"城下二丁目","koaza":"","lat":40.519081,"lng":141.48382,"version":"13.0b/18.0a"},{"town":"城下三丁目","koaza":"","lat":40.521528,"lng":141.484834,"version":"13.0b/18.0a"},{"town":"城下四丁目","koaza":"","lat":40.520697,"lng":141.493797,"version":"13.0b/18.0a"},{"town":"新湊一丁目","koaza":"","lat":40.527716,"lng":141.525035,"version":"13.0b/18.0a"},{"town":"新湊二丁目","koaza":"","lat":40.525703,"lng":141.528603,"version":"13.0b/18.0a"},{"town":"新湊三丁目","koaza":"","lat":40.528891,"lng":141.526084,"version":"13.0b/18.0a"},{"town":"諏訪一丁目","koaza":"","lat":40.517029,"lng":141.519496,"version":"13.0b/18.0a"},{"town":"諏訪二丁目","koaza":"","lat":40.511864,"lng":141.517646,"version":"13.0b/18.0a"},{"town":"諏訪三丁目","koaza":"","lat":40.509353,"lng":141.515336,"version":"13.0b/18.0a"},{"town":"高州一丁目","koaza":"","lat":40.537664,"lng":141.480597,"version":"13.0b/18.0a"},{"town":"多賀台一丁目","koaza":"","lat":40.583834,"lng":141.441062,"version":"13.0b/18.0a"},{"town":"多賀台二丁目","koaza":"","lat":40.585516,"lng":141.440265,"version":"13.0b/18.0a"},{"town":"多賀台三丁目","koaza":"","lat":40.587715,"lng":141.441681,"version":"13.0b/18.0a"},{"town":"多賀台四丁目","koaza":"","lat":40.588989,"lng":141.441297,"version":"13.0b/18.0a"},{"town":"築港街一丁目","koaza":"","lat":40.526071,"lng":141.542588,"version":"13.0b/18.0a"},{"town":"築港街二丁目","koaza":"","lat":40.527887,"lng":141.546618,"version":"13.0b/18.0a"},{"town":"築港街第一ふ頭","koaza":"","lat":40.529392,"lng":141.544348,"version":"13.0b/18.0a"},{"town":"長者一丁目","koaza":"","lat":40.502999,"lng":141.490415,"version":"13.0b/18.0a"},{"town":"長者二丁目","koaza":"","lat":40.499154,"lng":141.491233,"version":"13.0b/18.0a"},{"town":"長者三丁目","koaza":"","lat":40.500951,"lng":141.485029,"version":"13.0b/18.0a"},{"town":"長者四丁目","koaza":"","lat":40.498935,"lng":141.483303,"version":"13.0b/18.0a"},{"town":"豊洲","koaza":"","lat":40.537111,"lng":141.513555,"version":"13.0b/18.0a"},{"town":"長苗代一丁目","koaza":"","lat":40.519587,"lng":141.469109,"version":"13.0b/18.0a"},{"town":"長苗代二丁目","koaza":"","lat":40.524674,"lng":141.468833,"version":"13.0b/18.0a"},{"town":"長苗代三丁目","koaza":"","lat":40.52285,"lng":141.473863,"version":"13.0b/18.0a"},{"town":"長苗代四丁目","koaza":"","lat":40.520295,"lng":141.47356,"version":"13.0b/18.0a"},{"town":"長根一丁目","koaza":"","lat":40.511332,"lng":141.47938,"version":"13.0b/18.0a"},{"town":"長根二丁目","koaza":"","lat":40.514304,"lng":141.476152,"version":"13.0b/18.0a"},{"town":"南郷大字泥障作","koaza":"","lat":40.42681,"lng":141.451682,"version":"13.0b/18.0a"},{"town":"南郷大字泉清水","koaza":"","lat":40.37518,"lng":141.39068,"version":"13.0b/18.0a"},{"town":"南郷大字市野沢","koaza":"","lat":40.401711,"lng":141.445821,"version":"13.0b/18.0a"},{"town":"南郷大字大森","koaza":"","lat":40.379951,"lng":141.425959,"version":"13.0b/18.0a"},{"town":"南郷大字頃巻沢","koaza":"","lat":40.434192,"lng":141.473165,"version":"13.0b/18.0a"},{"town":"南郷大字島守","koaza":"","lat":40.394751,"lng":141.495641,"version":"13.0b/18.0a"},{"town":"南郷大字中野","koaza":"","lat":40.403681,"lng":141.410179,"version":"13.0b/18.0a"},{"town":"新井田西一丁目","koaza":"","lat":40.504213,"lng":141.520155,"version":"13.0b/18.0a"},{"town":"新井田西二丁目","koaza":"","lat":40.500901,"lng":141.520182,"version":"13.0b/18.0a"},{"town":"新井田西三丁目","koaza":"","lat":40.497284,"lng":141.516589,"version":"13.0b/18.0a"},{"town":"新井田西四丁目","koaza":"","lat":40.500129,"lng":141.51555,"version":"13.0b/18.0a"},{"town":"西白山台一丁目","koaza":"","lat":40.482253,"lng":141.454038,"version":"13.0b/18.0a"},{"town":"西白山台二丁目","koaza":"","lat":40.481661,"lng":141.449937,"version":"13.0b/18.0a"},{"town":"西白山台三丁目","koaza":"","lat":40.479313,"lng":141.457507,"version":"13.0b/18.0a"},{"town":"西白山台四丁目","koaza":"","lat":40.477479,"lng":141.454886,"version":"13.0b/18.0a"},{"town":"西白山台五丁目","koaza":"","lat":40.473832,"lng":141.458578,"version":"13.0b/18.0a"},{"town":"西白山台六丁目","koaza":"","lat":40.476076,"lng":141.452349,"version":"13.0b/18.0a"},{"town":"沼館一丁目","koaza":"","lat":40.524376,"lng":141.494512,"version":"13.0b/18.0a"},{"town":"沼館二丁目","koaza":"","lat":40.526045,"lng":141.486907,"version":"13.0b/18.0a"},{"town":"沼館三丁目","koaza":"","lat":40.530851,"lng":141.489674,"version":"13.0b/18.0a"},{"town":"沼館四丁目","koaza":"","lat":40.529141,"lng":141.497283,"version":"13.0b/18.0a"},{"town":"根城一丁目","koaza":"","lat":40.504449,"lng":141.480164,"version":"13.0b/18.0a"},{"town":"根城二丁目","koaza":"","lat":40.500634,"lng":141.479576,"version":"13.0b/18.0a"},{"town":"根城三丁目","koaza":"","lat":40.504128,"lng":141.475305,"version":"13.0b/18.0a"},{"town":"根城四丁目","koaza":"","lat":40.506615,"lng":141.47582,"version":"13.0b/18.0a"},{"town":"根城五丁目","koaza":"","lat":40.507045,"lng":141.469001,"version":"13.0b/18.0a"},{"town":"根城六丁目","koaza":"","lat":40.504324,"lng":141.469333,"version":"13.0b/18.0a"},{"town":"根城七丁目","koaza":"","lat":40.501567,"lng":141.467757,"version":"13.0b/18.0a"},{"town":"根城八丁目","koaza":"","lat":40.505332,"lng":141.463674,"version":"13.0b/18.0a"},{"town":"根城九丁目","koaza":"","lat":40.510166,"lng":141.467433,"version":"13.0b/18.0a"},{"town":"八太郎一丁目","koaza":"","lat":40.537777,"lng":141.492251,"version":"13.0b/18.0a"},{"town":"八太郎二丁目","koaza":"","lat":40.538063,"lng":141.489404,"version":"13.0b/18.0a"},{"town":"八太郎五丁目","koaza":"","lat":40.542213,"lng":141.493829,"version":"13.0b/18.0a"},{"town":"八太郎六丁目","koaza":"","lat":40.542103,"lng":141.498681,"version":"13.0b/18.0a"},{"town":"東白山台一丁目","koaza":"","lat":40.488818,"lng":141.468962,"version":"13.0b/18.0a"},{"town":"東白山台二丁目","koaza":"","lat":40.486521,"lng":141.472167,"version":"13.0b/18.0a"},{"town":"東白山台三丁目","koaza":"","lat":40.484073,"lng":141.464663,"version":"13.0b/18.0a"},{"town":"東白山台四丁目","koaza":"","lat":40.480529,"lng":141.470417,"version":"13.0b/18.0a"},{"town":"吹上一丁目","koaza":"","lat":40.505183,"lng":141.497324,"version":"13.0b/18.0a"},{"town":"吹上二丁目","koaza":"","lat":40.500064,"lng":141.499993,"version":"13.0b/18.0a"},{"town":"吹上三丁目","koaza":"","lat":40.50115,"lng":141.495133,"version":"13.0b/18.0a"},{"town":"吹上四丁目","koaza":"","lat":40.497364,"lng":141.494355,"version":"13.0b/18.0a"},{"town":"吹上五丁目","koaza":"","lat":40.496852,"lng":141.499725,"version":"13.0b/18.0a"},{"town":"吹上六丁目","koaza":"","lat":40.494857,"lng":141.495556,"version":"13.0b/18.0a"},{"town":"松ケ丘","koaza":"","lat":40.552432,"lng":141.448722,"version":"13.0b/18.0a"},{"town":"岬台一丁目","koaza":"","lat":40.517285,"lng":141.564063,"version":"13.0b/18.0a"},{"town":"岬台二丁目","koaza":"","lat":40.516694,"lng":141.567015,"version":"13.0b/18.0a"},{"town":"岬台三丁目","koaza":"","lat":40.516628,"lng":141.56943,"version":"13.0b/18.0a"},{"town":"岬台四丁目","koaza":"","lat":40.519032,"lng":141.565116,"version":"13.0b/18.0a"},{"town":"湊高台一丁目","koaza":"","lat":40.507047,"lng":141.5337,"version":"13.0b/18.0a"},{"town":"湊高台二丁目","koaza":"","lat":40.504302,"lng":141.538829,"version":"13.0b/18.0a"},{"town":"湊高台三丁目","koaza":"","lat":40.506661,"lng":141.544157,"version":"13.0b/18.0a"},{"town":"湊高台四丁目","koaza":"","lat":40.508249,"lng":141.539895,"version":"13.0b/18.0a"},{"town":"湊高台五丁目","koaza":"","lat":40.50981,"lng":141.535715,"version":"13.0b/18.0a"},{"town":"湊高台六丁目","koaza":"","lat":40.511575,"lng":141.538344,"version":"13.0b/18.0a"},{"town":"湊高台七丁目","koaza":"","lat":40.507028,"lng":141.54806,"version":"13.0b/18.0a"},{"town":"湊高台八丁目","koaza":"","lat":40.502509,"lng":141.546514,"version":"13.0b/18.0a"},{"town":"南白山台一丁目","koaza":"","lat":40.477987,"lng":141.463947,"version":"13.0b/18.0a"},{"town":"南白山台二丁目","koaza":"","lat":40.479229,"lng":141.460909,"version":"13.0b/18.0a"},{"town":"南白山台三丁目","koaza":"","lat":40.474339,"lng":141.464888,"version":"13.0b/18.0a"},{"town":"南類家一丁目","koaza":"","lat":40.503756,"lng":141.504564,"version":"13.0b/18.0a"},{"town":"南類家二丁目","koaza":"","lat":40.501112,"lng":141.506529,"version":"13.0b/18.0a"},{"town":"南類家三丁目","koaza":"","lat":40.503065,"lng":141.50977,"version":"13.0b/18.0a"},{"town":"南類家四丁目","koaza":"","lat":40.500374,"lng":141.510984,"version":"13.0b/18.0a"},{"town":"南類家五丁目","koaza":"","lat":40.499161,"lng":141.509463,"version":"13.0b/18.0a"},{"town":"類家一丁目","koaza":"","lat":40.508948,"lng":141.499877,"version":"13.0b/18.0a"},{"town":"類家二丁目","koaza":"","lat":40.504633,"lng":141.500986,"version":"13.0b/18.0a"},{"town":"類家三丁目","koaza":"","lat":40.508455,"lng":141.503988,"version":"13.0b/18.0a"},{"town":"類家四丁目","koaza":"","lat":40.506621,"lng":141.508043,"version":"13.0b/18.0a"},{"town":"類家五丁目","koaza":"","lat":40.505183,"lng":141.513979,"version":"13.0b/18.0a"},{"town":"八太郎三丁目","koaza":"","lat":40.540532,"lng":141.488991,"version":"13.0b/18.0a"},{"town":"八太郎四丁目","koaza":"","lat":40.541492,"lng":141.486865,"version":"13.0b/18.0a"},{"town":"高州二丁目","koaza":"","lat":40.538762,"lng":141.483554,"version":"13.0b/18.0a"},{"town":"日計五丁目","koaza":"","lat":40.5418,"lng":141.483745,"version":"13.0b/18.0a"},{"town":"下長五丁目","koaza":"","lat":40.5377,"lng":141.478595,"version":"13.0b/18.0a"},{"town":"日計四丁目","koaza":"","lat":40.541627,"lng":141.48042,"version":"13.0b/18.0a"},{"town":"日計三丁目","koaza":"","lat":40.54309,"lng":141.47655,"version":"13.0b/18.0a"},{"town":"日計二丁目","koaza":"","lat":40.54211,"lng":141.472918,"version":"13.0b/18.0a"},{"town":"下長四丁目","koaza":"","lat":40.536563,"lng":141.476813,"version":"13.0b/18.0a"},{"town":"下長三丁目","koaza":"","lat":40.537443,"lng":141.471737,"version":"13.0b/18.0a"},{"town":"小田二丁目","koaza":"","lat":40.538602,"lng":141.467057,"version":"13.0b/18.0a"},{"town":"日計一丁目","koaza":"","lat":40.540783,"lng":141.476162,"version":"13.0b/18.0a"},{"town":"小田一丁目","koaza":"","lat":40.539906,"lng":141.470573,"version":"13.0b/18.0a"},{"town":"長根四丁目","koaza":"","lat":40.51746,"lng":141.479986,"version":"13.0b/18.0a"},{"town":"長根三丁目","koaza":"","lat":40.515776,"lng":141.478947,"version":"13.0b/18.0a"},{"town":"田向一丁目","koaza":"","lat":40.4976,"lng":141.507422,"version":"13.0b/18.0a"},{"town":"田向二丁目","koaza":"","lat":40.495176,"lng":141.509413,"version":"13.0b/18.0a"},{"town":"田向三丁目","koaza":"","lat":40.493101,"lng":141.511606,"version":"13.0b/18.0a"},{"town":"田向四丁目","koaza":"","lat":40.489803,"lng":141.507986,"version":"13.0b/18.0a"},{"town":"田向五丁目","koaza":"","lat":40.489433,"lng":141.513102,"version":"13.0b/18.0a"},{"town":"大字豊崎町","koaza":"長窪","lat":40.511013,"lng":141.359651,"version":"13.0b/18.0a"},{"town":"大字豊崎町","koaza":"桜渡","lat":40.511004,"lng":141.36525,"version":"13.0b/18.0a"},{"town":"大字豊崎町","koaza":"下滝","lat":40.508439,"lng":141.363503,"version":"13.0b/18.0a"},{"town":"大字豊崎町","koaza":"前田","lat":40.513013,"lng":141.370547,"version":"13.0b/18.0a"},{"town":"大字豊崎町","koaza":"前平","lat":40.512021,"lng":141.364417,"version":"13.0b/18.0a"},{"town":"大字豊崎町","koaza":"上永福寺","lat":40.508682,"lng":141.381424,"version":"13.0b/18.0a"},{"town":"大字豊崎町","koaza":"池田","lat":40.522343,"lng":141.374577,"version":"13.0b/18.0a"},{"town":"大字豊崎町","koaza":"上七崎","lat":40.515015,"lng":141.37167,"version":"13.0b/18.0a"},{"town":"大字豊崎町","koaza":"中谷地","lat":40.516616,"lng":141.375682,"version":"13.0b/18.0a"},{"town":"大字豊崎町","koaza":"桜沢","lat":40.518473,"lng":141.37228,"version":"13.0b/18.0a"},{"town":"大字豊崎町","koaza":"下七崎","lat":40.516054,"lng":141.380382,"version":"13.0b/18.0a"},{"town":"大字櫛引","koaza":"鷹ノ巣","lat":40.497218,"lng":141.386393,"version":"13.0b/18.0a"},{"town":"大字豊崎町","koaza":"替地山下","lat":40.517845,"lng":141.38347,"version":"13.0b/18.0a"},{"town":"大字豊崎町","koaza":"下永福寺","lat":40.513138,"lng":141.386165,"version":"13.0b/18.0a"},{"town":"大字豊崎町","koaza":"浜坂脇","lat":40.518777,"lng":141.388096,"version":"13.0b/18.0a"},{"town":"大字豊崎町","koaza":"白銀端","lat":40.516129,"lng":141.386836,"version":"13.0b/18.0a"},{"town":"大字櫛引","koaza":"夏間木","lat":40.508098,"lng":141.390924,"version":"13.0b/18.0a"},{"town":"大字豊崎町","koaza":"高張","lat":40.514967,"lng":141.389252,"version":"13.0b/18.0a"},{"town":"大字豊崎町","koaza":"堤下","lat":40.511552,"lng":141.391107,"version":"13.0b/18.0a"},{"town":"大字尻内町","koaza":"洞","lat":40.517718,"lng":141.402392,"version":"13.0b/18.0a"},{"town":"大字上野","koaza":"大平森","lat":40.476465,"lng":141.400924,"version":"13.0b/18.0a"},{"town":"大字豊崎町","koaza":"境田","lat":40.514982,"lng":141.40259,"version":"13.0b/18.0a"},{"town":"大字上野","koaza":"萱森","lat":40.480223,"lng":141.401739,"version":"13.0b/18.0a"},{"town":"大字上野","koaza":"高岩","lat":40.47583,"lng":141.405415,"version":"13.0b/18.0a"},{"town":"大字尻内町","koaza":"滝谷沢","lat":40.52096,"lng":141.40499,"version":"13.0b/18.0a"},{"town":"大字上野","koaza":"久根合","lat":40.477804,"lng":141.407208,"version":"13.0b/18.0a"},{"town":"大字尻内町","koaza":"正法寺","lat":40.517068,"lng":141.408103,"version":"13.0b/18.0a"},{"town":"大字尻内町","koaza":"根市渡ノ葉","lat":40.512798,"lng":141.407332,"version":"13.0b/18.0a"},{"town":"大字尻内町","koaza":"泉沢","lat":40.522753,"lng":141.411751,"version":"13.0b/18.0a"},{"town":"大字尻内町","koaza":"柳館","lat":40.510638,"lng":141.41227,"version":"13.0b/18.0a"},{"town":"大字尻内町","koaza":"渡ノ葉","lat":40.515938,"lng":141.409014,"version":"13.0b/18.0a"},{"town":"大字市川町","koaza":"赤坂下","lat":40.577648,"lng":141.41371,"version":"13.0b/18.0a"},{"town":"大字尻内町","koaza":"大仏","lat":40.505295,"lng":141.412158,"version":"13.0b/18.0a"},{"town":"大字上野","koaza":"堀端","lat":40.475452,"lng":141.409817,"version":"13.0b/18.0a"},{"town":"大字上野","koaza":"西風張","lat":40.473176,"lng":141.411233,"version":"13.0b/18.0a"},{"town":"大字尻内町","koaza":"沢合","lat":40.505016,"lng":141.410608,"version":"13.0b/18.0a"},{"town":"大字上野","koaza":"山在家","lat":40.476557,"lng":141.411267,"version":"13.0b/18.0a"},{"town":"大字尻内町","koaza":"栃ノ木","lat":40.517923,"lng":141.413057,"version":"13.0b/18.0a"},{"town":"大字尻内町","koaza":"畑田","lat":40.516956,"lng":141.414191,"version":"13.0b/18.0a"},{"town":"大字上野","koaza":"古屋敷","lat":40.475207,"lng":141.414403,"version":"13.0b/18.0a"},{"town":"大字櫛引","koaza":"荒猪沢","lat":40.488463,"lng":141.419569,"version":"13.0b/18.0a"},{"town":"大字上野","koaza":"昼場","lat":40.478974,"lng":141.415752,"version":"13.0b/18.0a"},{"town":"大字尻内町","koaza":"根岸山添","lat":40.519867,"lng":141.418245,"version":"13.0b/18.0a"},{"town":"大字市川町","koaza":"轟木","lat":40.577433,"lng":141.423312,"version":"13.0b/18.0a"},{"town":"大字尻内町","koaza":"張田","lat":40.516723,"lng":141.420918,"version":"13.0b/18.0a"},{"town":"大字櫛引","koaza":"上舘場","lat":40.486702,"lng":141.423905,"version":"13.0b/18.0a"},{"town":"大字櫛引","koaza":"鷹待場","lat":40.484902,"lng":141.41953,"version":"13.0b/18.0a"},{"town":"大字市川町","koaza":"稲荷後","lat":40.581265,"lng":141.418779,"version":"13.0b/18.0a"},{"town":"大字櫛引","koaza":"上野平","lat":40.482054,"lng":141.420256,"version":"13.0b/18.0a"},{"town":"大字市川町","koaza":"中川原","lat":40.574655,"lng":141.421101,"version":"13.0b/18.0a"},{"town":"大字尻内町","koaza":"林ノ前","lat":40.520084,"lng":141.42507,"version":"13.0b/18.0a"},{"town":"大字市川町","koaza":"鮫ノ口","lat":40.579284,"lng":141.420898,"version":"13.0b/18.0a"},{"town":"大字櫛引","koaza":"烏館場","lat":40.479573,"lng":141.424102,"version":"13.0b/18.0a"},{"town":"大字尻内町","koaza":"高田","lat":40.509331,"lng":141.42185,"version":"13.0b/18.0a"},{"town":"大字尻内町","koaza":"直田堰","lat":40.518529,"lng":141.423633,"version":"13.0b/18.0a"},{"town":"大字市川町","koaza":"轟木前","lat":40.577179,"lng":141.424176,"version":"13.0b/18.0a"},{"town":"大字櫛引","koaza":"寺沢","lat":40.482893,"lng":141.42359,"version":"13.0b/18.0a"},{"town":"大字櫛引","koaza":"前田","lat":40.492882,"lng":141.423367,"version":"13.0b/18.0a"},{"town":"大字尻内町","koaza":"矢沢","lat":40.505671,"lng":141.424915,"version":"13.0b/18.0a"},{"town":"大字櫛引","koaza":"通清水","lat":40.469222,"lng":141.42744,"version":"13.0b/18.0a"},{"town":"大字市川町","koaza":"稲荷岱","lat":40.586995,"lng":141.429109,"version":"13.0b/18.0a"},{"town":"大字尻内町","koaza":"三条目","lat":40.514583,"lng":141.428215,"version":"13.0b/18.0a"},{"town":"大字市川町","koaza":"下川原","lat":40.573957,"lng":141.428759,"version":"13.0b/18.0a"},{"town":"大字櫛引","koaza":"一日市","lat":40.488803,"lng":141.426652,"version":"13.0b/18.0a"},{"town":"大字尻内町","koaza":"中根市","lat":40.513192,"lng":141.425297,"version":"13.0b/18.0a"},{"town":"大字尻内町","koaza":"松森","lat":40.518726,"lng":141.426358,"version":"13.0b/18.0a"},{"town":"大字櫛引","koaza":"烏沢","lat":40.47825,"lng":141.426422,"version":"13.0b/18.0a"},{"town":"大字尻内町","koaza":"直田","lat":40.516252,"lng":141.428922,"version":"13.0b/18.0a"},{"town":"大字尻内町","koaza":"メドツ河原","lat":40.511653,"lng":141.426975,"version":"13.0b/18.0a"},{"town":"大字尻内町","koaza":"鼠田","lat":40.504725,"lng":141.425936,"version":"13.0b/18.0a"},{"town":"大字櫛引","koaza":"上川原","lat":40.485181,"lng":141.426957,"version":"13.0b/18.0a"},{"town":"大字尻内町","koaza":"根市内矢沢","lat":40.511134,"lng":141.42767,"version":"13.0b/18.0a"},{"town":"大字市川町","koaza":"和野","lat":40.576015,"lng":141.431643,"version":"13.0b/18.0a"},{"town":"大字尻内町","koaza":"下毛合清水","lat":40.539848,"lng":141.433529,"version":"13.0b/18.0a"},{"town":"大字市川町","koaza":"新田","lat":40.578168,"lng":141.431078,"version":"13.0b/18.0a"},{"town":"大字八幡","koaza":"下陣屋","lat":40.489897,"lng":141.430635,"version":"13.0b/18.0a"},{"town":"大字尻内町","koaza":"内矢沢","lat":40.509567,"lng":141.429839,"version":"13.0b/18.0a"},{"town":"大字櫛引","koaza":"櫛引","lat":40.482566,"lng":141.429217,"version":"13.0b/18.0a"},{"town":"大字尻内町","koaza":"内田","lat":40.51557,"lng":141.431826,"version":"13.0b/18.0a"},{"town":"大字市川町","koaza":"南尻引","lat":40.573102,"lng":141.438871,"version":"13.0b/18.0a"},{"town":"大字尻内町","koaza":"鴨ヶ池","lat":40.511718,"lng":141.435834,"version":"13.0b/18.0a"},{"town":"大字尻内町","koaza":"笹ノ沢","lat":40.534146,"lng":141.433456,"version":"13.0b/18.0a"},{"town":"大字八幡","koaza":"盆田","lat":40.483967,"lng":141.43166,"version":"13.0b/18.0a"},{"town":"大字市川町","koaza":"高森","lat":40.585218,"lng":141.434112,"version":"13.0b/18.0a"},{"town":"大字八幡","koaza":"五日町","lat":40.488309,"lng":141.432147,"version":"13.0b/18.0a"},{"town":"大字長苗代","koaza":"天狗柳","lat":40.516316,"lng":141.436962,"version":"13.0b/18.0a"},{"town":"大字市川町","koaza":"菅谷地","lat":40.578979,"lng":141.435212,"version":"13.0b/18.0a"},{"town":"大字市川町","koaza":"尻引","lat":40.575171,"lng":141.435834,"version":"13.0b/18.0a"},{"town":"大字櫛引","koaza":"法領屋敷","lat":40.467503,"lng":141.440202,"version":"13.0b/18.0a"},{"town":"大字八幡","koaza":"岡前","lat":40.481623,"lng":141.433989,"version":"13.0b/18.0a"},{"town":"大字八幡","koaza":"松ノ木田","lat":40.493146,"lng":141.433658,"version":"13.0b/18.0a"},{"town":"大字市川町","koaza":"船場川原","lat":40.591758,"lng":141.436025,"version":"13.0b/18.0a"},{"town":"大字市川町","koaza":"高屋敷","lat":40.589471,"lng":141.436815,"version":"13.0b/18.0a"},{"town":"大字市川町","koaza":"和野前山","lat":40.55922,"lng":141.436573,"version":"13.0b/18.0a"},{"town":"大字八幡","koaza":"八幡丁","lat":40.488336,"lng":141.435492,"version":"13.0b/18.0a"},{"town":"大字八幡","koaza":"上樋田","lat":40.495359,"lng":141.435087,"version":"13.0b/18.0a"},{"town":"大字尻内町","koaza":"新川下","lat":40.527828,"lng":141.43691,"version":"13.0b/18.0a"},{"town":"大字八幡","koaza":"林崎","lat":40.489028,"lng":141.437897,"version":"13.0b/18.0a"},{"town":"大字櫛引","koaza":"上町","lat":40.478938,"lng":141.436365,"version":"13.0b/18.0a"},{"town":"大字尻内町","koaza":"田端","lat":40.52838,"lng":141.433533,"version":"13.0b/18.0a"},{"town":"大字八幡","koaza":"堰合","lat":40.491959,"lng":141.43587,"version":"13.0b/18.0a"},{"town":"大字市川町","koaza":"藁田柳","lat":40.567933,"lng":141.438043,"version":"13.0b/18.0a"},{"town":"大字八幡","koaza":"下前田","lat":40.492111,"lng":141.437769,"version":"13.0b/18.0a"},{"town":"大字尻内町","koaza":"馬場","lat":40.506761,"lng":141.436711,"version":"13.0b/18.0a"},{"town":"大字尻内町","koaza":"八百刈","lat":40.5081,"lng":141.438446,"version":"13.0b/18.0a"},{"town":"大字八幡","koaza":"上ミ沢","lat":40.484153,"lng":141.437649,"version":"13.0b/18.0a"},{"town":"大字長苗代","koaza":"上碇田","lat":40.513123,"lng":141.437603,"version":"13.0b/18.0a"},{"town":"大字尻内町","koaza":"表河原","lat":40.504192,"lng":141.439123,"version":"13.0b/18.0a"},{"town":"大字田面木","koaza":"前田表","lat":40.494616,"lng":141.438696,"version":"13.0b/18.0a"},{"town":"大字八幡","koaza":"小出田","lat":40.490167,"lng":141.438143,"version":"13.0b/18.0a"},{"town":"大字市川町","koaza":"赤畑","lat":40.578074,"lng":141.441611,"version":"13.0b/18.0a"},{"town":"大字市川町","koaza":"長者久保","lat":40.553535,"lng":141.44009,"version":"13.0b/18.0a"},{"town":"大字尻内町","koaza":"平中下","lat":40.506696,"lng":141.439693,"version":"13.0b/18.0a"},{"town":"大字市川町","koaza":"尻引前山","lat":40.564252,"lng":141.445128,"version":"13.0b/18.0a"},{"town":"大字長苗代","koaza":"紺屋町","lat":40.51492,"lng":141.438562,"version":"13.0b/18.0a"},{"town":"大字坂牛","koaza":"砂子走","lat":40.483307,"lng":141.442186,"version":"13.0b/18.0a"},{"town":"大字長苗代","koaza":"大谷地","lat":40.515622,"lng":141.44124,"version":"13.0b/18.0a"},{"town":"大字市川町","koaza":"田ノ沢頭","lat":40.54662,"lng":141.441908,"version":"13.0b/18.0a"},{"town":"大字尻内町","koaza":"尻内","lat":40.505182,"lng":141.442658,"version":"13.0b/18.0a"},{"town":"大字長苗代","koaza":"谷地","lat":40.513922,"lng":141.443336,"version":"13.0b/18.0a"},{"town":"大字田面木","koaza":"上田面木","lat":40.497786,"lng":141.44475,"version":"13.0b/18.0a"},{"town":"大字市川町","koaza":"尻引堤沢","lat":40.557646,"lng":141.44227,"version":"13.0b/18.0a"},{"town":"大字長苗代","koaza":"下碇田","lat":40.511722,"lng":141.442329,"version":"13.0b/18.0a"},{"town":"大字市川町","koaza":"菖蒲谷地","lat":40.580055,"lng":141.444141,"version":"13.0b/18.0a"},{"town":"大字尻内町","koaza":"鴨田","lat":40.509904,"lng":141.440836,"version":"13.0b/18.0a"},{"town":"大字尻内町","koaza":"家口田","lat":40.507115,"lng":141.441903,"version":"13.0b/18.0a"},{"town":"大字尻内町","koaza":"前明戸","lat":40.502635,"lng":141.441576,"version":"13.0b/18.0a"},{"town":"大字坂牛","koaza":"坂牛","lat":40.485482,"lng":141.442315,"version":"13.0b/18.0a"},{"town":"大字田面木","koaza":"中村","lat":40.494926,"lng":141.442417,"version":"13.0b/18.0a"},{"town":"大字尻内町","koaza":"島田","lat":40.510439,"lng":141.443658,"version":"13.0b/18.0a"},{"town":"河原木","koaza":"蝦夷館","lat":40.536205,"lng":141.450923,"version":"13.0b/18.0a"},{"town":"大字尻内町","koaza":"前河原","lat":40.504254,"lng":141.444728,"version":"13.0b/18.0a"},{"town":"大字市川町","koaza":"向谷地","lat":40.574848,"lng":141.448174,"version":"13.0b/18.0a"},{"town":"大字田面木","koaza":"横俵","lat":40.494026,"lng":141.444126,"version":"13.0b/18.0a"},{"town":"大字田面木","koaza":"上野平","lat":40.492777,"lng":141.446914,"version":"13.0b/18.0a"},{"town":"大字田面木","koaza":"船場道下","lat":40.500444,"lng":141.445019,"version":"13.0b/18.0a"},{"town":"大字尻内町","koaza":"沢ノ田","lat":40.507424,"lng":141.446641,"version":"13.0b/18.0a"},{"town":"大字長苗代","koaza":"二日市","lat":40.510306,"lng":141.447109,"version":"13.0b/18.0a"},{"town":"大字市川町","koaza":"桔梗野上","lat":40.554699,"lng":141.450258,"version":"13.0b/18.0a"},{"town":"大字市川町","koaza":"赤川下","lat":40.580162,"lng":141.453803,"version":"13.0b/18.0a"},{"town":"大字尻内町","koaza":"六百刈","lat":40.507748,"lng":141.444901,"version":"13.0b/18.0a"},{"town":"大字市川町","koaza":"中谷地","lat":40.581987,"lng":141.449117,"version":"13.0b/18.0a"},{"town":"大字尻内町","koaza":"尻内河原","lat":40.507092,"lng":141.44997,"version":"13.0b/18.0a"},{"town":"大字長苗代","koaza":"上中坪","lat":40.51684,"lng":141.44801,"version":"13.0b/18.0a"},{"town":"大字尻内町","koaza":"尻細","lat":40.508856,"lng":141.447843,"version":"13.0b/18.0a"},{"town":"河原木","koaza":"見立山","lat":40.540673,"lng":141.455057,"version":"13.0b/18.0a"},{"town":"大字田面木","koaza":"酒美平","lat":40.487858,"lng":141.451303,"version":"13.0b/18.0a"},{"town":"大字田面木","koaza":"上野道下タ","lat":40.496786,"lng":141.449891,"version":"13.0b/18.0a"},{"town":"大字長苗代","koaza":"狐田","lat":40.524716,"lng":141.451613,"version":"13.0b/18.0a"},{"town":"大字長苗代","koaza":"前田","lat":40.512407,"lng":141.453327,"version":"13.0b/18.0a"},{"town":"大字田面木","koaza":"下田面木","lat":40.499943,"lng":141.450562,"version":"13.0b/18.0a"},{"town":"大字田面木","koaza":"美濃助平","lat":40.490883,"lng":141.45167,"version":"13.0b/18.0a"},{"town":"大字田面木","koaza":"山道下タ","lat":40.495458,"lng":141.449079,"version":"13.0b/18.0a"},{"town":"大字市川町","koaza":"桔梗野","lat":40.558162,"lng":141.453594,"version":"13.0b/18.0a"},{"town":"大字田面木","koaza":"神明沢","lat":40.497489,"lng":141.451978,"version":"13.0b/18.0a"},{"town":"大字長苗代","koaza":"二分谷地","lat":40.520094,"lng":141.450512,"version":"13.0b/18.0a"},{"town":"大字長苗代","koaza":"幕ノ内","lat":40.510243,"lng":141.450674,"version":"13.0b/18.0a"},{"town":"河原木","koaza":"神才","lat":40.527488,"lng":141.452541,"version":"13.0b/18.0a"},{"town":"大字田面木","koaza":"外久保","lat":40.493309,"lng":141.452041,"version":"13.0b/18.0a"},{"town":"大字田面木","koaza":"中明戸","lat":40.500886,"lng":141.447931,"version":"13.0b/18.0a"},{"town":"大字長苗代","koaza":"化石","lat":40.509634,"lng":141.452102,"version":"13.0b/18.0a"},{"town":"大字長苗代","koaza":"中坪","lat":40.516854,"lng":141.455461,"version":"13.0b/18.0a"},{"town":"大字田面木","koaza":"赤坂","lat":40.499941,"lng":141.453307,"version":"13.0b/18.0a"},{"town":"河原木","koaza":"前谷地","lat":40.529453,"lng":141.452465,"version":"13.0b/18.0a"},{"town":"大字市川町","koaza":"姥懐","lat":40.585118,"lng":141.452985,"version":"13.0b/18.0a"},{"town":"大字田面木","koaza":"沼ノ平","lat":40.491606,"lng":141.455023,"version":"13.0b/18.0a"},{"town":"大字田面木","koaza":"十文字平","lat":40.485855,"lng":141.45346,"version":"13.0b/18.0a"},{"town":"大字市川町","koaza":"市川","lat":40.585507,"lng":141.456483,"version":"13.0b/18.0a"},{"town":"大字長苗代","koaza":"島ノ前","lat":40.523172,"lng":141.464788,"version":"13.0b/18.0a"},{"town":"大字田面木","koaza":"法霊林","lat":40.503547,"lng":141.453933,"version":"13.0b/18.0a"},{"town":"大字田面木","koaza":"前平","lat":40.495565,"lng":141.455041,"version":"13.0b/18.0a"},{"town":"大字市川町","koaza":"下大川端","lat":40.594412,"lng":141.454726,"version":"13.0b/18.0a"},{"town":"大字是川","koaza":"鴨平","lat":40.440321,"lng":141.457745,"version":"13.0b/18.0a"},{"town":"大字櫛引","koaza":"土橋","lat":40.446488,"lng":141.459044,"version":"13.0b/18.0a"},{"town":"大字市川町","koaza":"市川後","lat":40.587359,"lng":141.457311,"version":"13.0b/18.0a"},{"town":"大字根城","koaza":"西ノ沢","lat":40.504675,"lng":141.455804,"version":"13.0b/18.0a"},{"town":"大字市川町","koaza":"下揚","lat":40.594848,"lng":141.460853,"version":"13.0b/18.0a"},{"town":"河原木","koaza":"沢尻","lat":40.538454,"lng":141.456021,"version":"13.0b/18.0a"},{"town":"大字市川町","koaza":"下中平沖","lat":40.591207,"lng":141.458638,"version":"13.0b/18.0a"},{"town":"大字根城","koaza":"河原","lat":40.509192,"lng":141.460355,"version":"13.0b/18.0a"},{"town":"河原木","koaza":"高館","lat":40.539026,"lng":141.461357,"version":"13.0b/18.0a"},{"town":"大字田面木","koaza":"長者森","lat":40.489917,"lng":141.458004,"version":"13.0b/18.0a"},{"town":"大字長苗代","koaza":"観音堂","lat":40.526204,"lng":141.4595,"version":"13.0b/18.0a"},{"town":"大字田面木","koaza":"松長根","lat":40.499804,"lng":141.457655,"version":"13.0b/18.0a"},{"town":"大字根城","koaza":"馬場頭","lat":40.502669,"lng":141.458238,"version":"13.0b/18.0a"},{"town":"大字市川町","koaza":"古館","lat":40.584639,"lng":141.459249,"version":"13.0b/18.0a"},{"town":"大字市川町","koaza":"堂ノ下","lat":40.589873,"lng":141.462815,"version":"13.0b/18.0a"},{"town":"大字根城","koaza":"下町","lat":40.50806,"lng":141.460993,"version":"13.0b/18.0a"},{"town":"大字市川町","koaza":"上大谷地","lat":40.582708,"lng":141.462427,"version":"13.0b/18.0a"},{"town":"大字長苗代","koaza":"元木","lat":40.513732,"lng":141.459551,"version":"13.0b/18.0a"},{"town":"大字長苗代","koaza":"内前田","lat":40.517833,"lng":141.462883,"version":"13.0b/18.0a"},{"town":"大字市川町","koaza":"長七谷地","lat":40.572187,"lng":141.467391,"version":"13.0b/18.0a"},{"town":"大字長苗代","koaza":"鰻苗代","lat":40.511405,"lng":141.459233,"version":"13.0b/18.0a"},{"town":"大字是川","koaza":"駒洗沢","lat":40.457903,"lng":141.46273,"version":"13.0b/18.0a"},{"town":"大字長苗代","koaza":"島ノ後","lat":40.525641,"lng":141.463783,"version":"13.0b/18.0a"},{"town":"大字長苗代","koaza":"窪田","lat":40.512962,"lng":141.461717,"version":"13.0b/18.0a"},{"town":"大字長苗代","koaza":"下中坪","lat":40.521384,"lng":141.460847,"version":"13.0b/18.0a"},{"town":"河原木","koaza":"袖ノ沢","lat":40.541163,"lng":141.459389,"version":"13.0b/18.0a"},{"town":"河原木","koaza":"二階堀","lat":40.544853,"lng":141.460132,"version":"13.0b/18.0a"},{"town":"河原木","koaza":"高館前","lat":40.537174,"lng":141.463011,"version":"13.0b/18.0a"},{"town":"大字長苗代","koaza":"内舟渡","lat":40.517032,"lng":141.46515,"version":"13.0b/18.0a"},{"town":"大字是川","koaza":"土橋","lat":40.45415,"lng":141.466804,"version":"13.0b/18.0a"},{"town":"大字根城","koaza":"大久保","lat":40.498314,"lng":141.465022,"version":"13.0b/18.0a"},{"town":"大字市川町","koaza":"橋向","lat":40.584293,"lng":141.467095,"version":"13.0b/18.0a"},{"town":"大字長苗代","koaza":"太古殿","lat":40.527301,"lng":141.463886,"version":"13.0b/18.0a"},{"town":"河原木","koaza":"千刈田","lat":40.529563,"lng":141.464443,"version":"13.0b/18.0a"},{"town":"大字長苗代","koaza":"制札前","lat":40.520003,"lng":141.463885,"version":"13.0b/18.0a"},{"town":"河原木","koaza":"売場","lat":40.542082,"lng":141.464639,"version":"13.0b/18.0a"},{"town":"河原木","koaza":"久保","lat":40.544319,"lng":141.464024,"version":"13.0b/18.0a"},{"town":"大字根城","koaza":"笹子","lat":40.474285,"lng":141.469371,"version":"13.0b/18.0a"},{"town":"大字市川町","koaza":"下大谷地","lat":40.580554,"lng":141.466974,"version":"13.0b/18.0a"},{"town":"河原木","koaza":"河原木後","lat":40.532211,"lng":141.468056,"version":"13.0b/18.0a"},{"town":"大字是川","koaza":"前平","lat":40.450261,"lng":141.468062,"version":"13.0b/18.0a"},{"town":"河原木","koaza":"小田上","lat":40.546091,"lng":141.46957,"version":"13.0b/18.0a"},{"town":"大字是川","koaza":"大久保","lat":40.445458,"lng":141.470031,"version":"13.0b/18.0a"},{"town":"大字市川町","koaza":"南大谷地","lat":40.576244,"lng":141.468441,"version":"13.0b/18.0a"},{"town":"大字沢里","koaza":"古宮","lat":40.494839,"lng":141.469688,"version":"13.0b/18.0a"},{"town":"大字沢里","koaza":"鹿島沢","lat":40.499717,"lng":141.470329,"version":"13.0b/18.0a"},{"town":"大字市川町","koaza":"浜","lat":40.582137,"lng":141.472,"version":"13.0b/18.0a"},{"town":"河原木","koaza":"谷地田","lat":40.5362,"lng":141.470028,"version":"13.0b/18.0a"},{"town":"大字是川","koaza":"下天狗沢","lat":40.469143,"lng":141.473459,"version":"13.0b/18.0a"},{"town":"大字是川","koaza":"鍜冶畑","lat":40.473707,"lng":141.473846,"version":"13.0b/18.0a"},{"town":"大字沢里","koaza":"鍋久保","lat":40.496712,"lng":141.47104,"version":"13.0b/18.0a"},{"town":"大字是川","koaza":"元木","lat":40.456749,"lng":141.473299,"version":"13.0b/18.0a"},{"town":"河原木","koaza":"日計上","lat":40.54665,"lng":141.474261,"version":"13.0b/18.0a"},{"town":"大字是川","koaza":"ウトウ","lat":40.458365,"lng":141.474143,"version":"13.0b/18.0a"},{"town":"大字沢里","koaza":"上沢内","lat":40.49318,"lng":141.473675,"version":"13.0b/18.0a"},{"town":"河原木","koaza":"中崎","lat":40.550547,"lng":141.477316,"version":"13.0b/18.0a"},{"town":"大字是川","koaza":"天狗沢","lat":40.465529,"lng":141.472455,"version":"13.0b/18.0a"},{"town":"大字沢里","koaza":"下沢内","lat":40.5002,"lng":141.475392,"version":"13.0b/18.0a"},{"town":"大字是川","koaza":"小峠","lat":40.477946,"lng":141.477022,"version":"13.0b/18.0a"},{"town":"大字是川","koaza":"坊坂","lat":40.467556,"lng":141.477346,"version":"13.0b/18.0a"},{"town":"大字沢里","koaza":"藤子","lat":40.499069,"lng":141.477843,"version":"13.0b/18.0a"},{"town":"大字沢里","koaza":"休場","lat":40.494886,"lng":141.477665,"version":"13.0b/18.0a"},{"town":"大字沢里","koaza":"二ツ屋","lat":40.487705,"lng":141.478378,"version":"13.0b/18.0a"},{"town":"大字是川","koaza":"雨長根","lat":40.456377,"lng":141.47952,"version":"13.0b/18.0a"},{"town":"河原木","koaza":"八太郎山","lat":40.546515,"lng":141.484407,"version":"13.0b/18.0a"},{"town":"河原木","koaza":"北沼","lat":40.558076,"lng":141.483723,"version":"13.0b/18.0a"},{"town":"大字是川","koaza":"三十刈頭","lat":40.478648,"lng":141.482106,"version":"13.0b/18.0a"},{"town":"大字糠塚","koaza":"大開","lat":40.486417,"lng":141.482813,"version":"13.0b/18.0a"},{"town":"大字糠塚","koaza":"蟹沢","lat":40.49291,"lng":141.480174,"version":"13.0b/18.0a"},{"town":"大字糠塚","koaza":"狐森","lat":40.489886,"lng":141.480613,"version":"13.0b/18.0a"},{"town":"大字糠塚","koaza":"大杉平","lat":40.495583,"lng":141.480739,"version":"13.0b/18.0a"},{"town":"大字糠塚","koaza":"二ツ家","lat":40.484016,"lng":141.481015,"version":"13.0b/18.0a"},{"town":"大字売市","koaza":"小待","lat":40.516706,"lng":141.480784,"version":"13.0b/18.0a"},{"town":"大字是川","koaza":"金ヶ坂","lat":40.483154,"lng":141.485386,"version":"13.0b/18.0a"},{"town":"河原木","koaza":"海岸","lat":40.551799,"lng":141.497419,"version":"13.0b/18.0a"},{"town":"大字売市","koaza":"鴨ヶ池","lat":40.51565,"lng":141.482146,"version":"13.0b/18.0a"},{"town":"大字糠塚","koaza":"南長市","lat":40.495689,"lng":141.482855,"version":"13.0b/18.0a"},{"town":"大字糠塚","koaza":"鶉久保","lat":40.49389,"lng":141.483393,"version":"13.0b/18.0a"},{"town":"大字糠塚","koaza":"長久保","lat":40.487667,"lng":141.486399,"version":"13.0b/18.0a"},{"town":"大字売市","koaza":"観音下","lat":40.514883,"lng":141.484747,"version":"13.0b/18.0a"},{"town":"大字是川","koaza":"館前","lat":40.452381,"lng":141.497966,"version":"13.0b/18.0a"},{"town":"大字売市","koaza":"左水門下","lat":40.51192,"lng":141.484731,"version":"13.0b/18.0a"},{"town":"大字是川","koaza":"転道平","lat":40.483865,"lng":141.488594,"version":"13.0b/18.0a"},{"town":"大字売市","koaza":"右水門下","lat":40.511852,"lng":141.486366,"version":"13.0b/18.0a"},{"town":"河原木","koaza":"八太郎","lat":40.541508,"lng":141.488876,"version":"13.0b/18.0a"},{"town":"大字糠塚","koaza":"五郎兵衛前","lat":40.496168,"lng":141.48884,"version":"13.0b/18.0a"},{"town":"河原木","koaza":"蓮沼","lat":40.547875,"lng":141.489331,"version":"13.0b/18.0a"},{"town":"河原木","koaza":"浜名谷地","lat":40.546333,"lng":141.494193,"version":"13.0b/18.0a"},{"town":"大字是川","koaza":"田中","lat":40.469337,"lng":141.490207,"version":"13.0b/18.0a"},{"town":"大字是川","koaza":"田向","lat":40.476046,"lng":141.490137,"version":"13.0b/18.0a"},{"town":"大字糠塚","koaza":"古常泉下","lat":40.505732,"lng":141.490883,"version":"13.0b/18.0a"},{"town":"大字是川","koaza":"新田","lat":40.48096,"lng":141.493619,"version":"13.0b/18.0a"},{"town":"大字中居林","koaza":"狐森","lat":40.495207,"lng":141.491079,"version":"13.0b/18.0a"},{"town":"大字是川","koaza":"中居","lat":40.473101,"lng":141.488701,"version":"13.0b/18.0a"},{"town":"大字是川","koaza":"明土","lat":40.462419,"lng":141.495418,"version":"13.0b/18.0a"},{"town":"大字中居林","koaza":"中居林","lat":40.488132,"lng":141.495434,"version":"13.0b/18.0a"},{"town":"大字是川","koaza":"堀田","lat":40.476615,"lng":141.49292,"version":"13.0b/18.0a"},{"town":"大字中居林","koaza":"狐平","lat":40.487483,"lng":141.497641,"version":"13.0b/18.0a"},{"town":"大字是川","koaza":"細越河原","lat":40.458465,"lng":141.493404,"version":"13.0b/18.0a"},{"town":"大字是川","koaza":"中居河原","lat":40.472761,"lng":141.492132,"version":"13.0b/18.0a"},{"town":"大字是川","koaza":"田中河原","lat":40.469194,"lng":141.493175,"version":"13.0b/18.0a"},{"town":"大字糠塚","koaza":"長者山下","lat":40.503934,"lng":141.493208,"version":"13.0b/18.0a"},{"town":"大字是川","koaza":"東前田","lat":40.45762,"lng":141.495463,"version":"13.0b/18.0a"},{"town":"大字是川","koaza":"北城下","lat":40.457626,"lng":141.494397,"version":"13.0b/18.0a"},{"town":"大字類家","koaza":"縄手下","lat":40.505271,"lng":141.4945,"version":"13.0b/18.0a"},{"town":"大字是川","koaza":"権現堂向","lat":40.479004,"lng":141.494404,"version":"13.0b/18.0a"},{"town":"大字是川","koaza":"風張","lat":40.471862,"lng":141.496361,"version":"13.0b/18.0a"},{"town":"大字是川","koaza":"川端","lat":40.475644,"lng":141.496114,"version":"13.0b/18.0a"},{"town":"大字類家","koaza":"堤端","lat":40.509991,"lng":141.496629,"version":"13.0b/18.0a"},{"town":"大字中居林","koaza":"仕替場","lat":40.49148,"lng":141.496789,"version":"13.0b/18.0a"},{"town":"大字石手洗","koaza":"一本木","lat":40.484528,"lng":141.498325,"version":"13.0b/18.0a"},{"town":"大字是川","koaza":"妻ノ神","lat":40.461066,"lng":141.496724,"version":"13.0b/18.0a"},{"town":"大字中居林","koaza":"道合","lat":40.490177,"lng":141.497626,"version":"13.0b/18.0a"},{"town":"大字石手洗","koaza":"上石手洗","lat":40.48252,"lng":141.499619,"version":"13.0b/18.0a"},{"town":"大字中居林","koaza":"彦五郎","lat":40.493817,"lng":141.499114,"version":"13.0b/18.0a"},{"town":"大字中居林","koaza":"雷","lat":40.493309,"lng":141.500593,"version":"13.0b/18.0a"},{"town":"大字中居林","koaza":"綿ノ端","lat":40.488427,"lng":141.500162,"version":"13.0b/18.0a"},{"town":"大字石手洗","koaza":"駒ケ沢","lat":40.48603,"lng":141.499581,"version":"13.0b/18.0a"},{"town":"大字中居林","koaza":"蓋名池","lat":40.491231,"lng":141.503363,"version":"13.0b/18.0a"},{"town":"大字中居林","koaza":"平","lat":40.490638,"lng":141.502736,"version":"13.0b/18.0a"},{"town":"大字是川","koaza":"犹森","lat":40.475072,"lng":141.500823,"version":"13.0b/18.0a"},{"town":"大字櫛引","koaza":"取揚石","lat":40.458489,"lng":141.435406,"version":"13.0b/18.0a"},{"town":"大字市川町","koaza":"下水目沢","lat":40.565663,"lng":141.459971,"version":"13.0b/18.0a"},{"town":"大字上野","koaza":"平","lat":40.47667,"lng":141.408682,"version":"13.0b/18.0a"},{"town":"大字上野","koaza":"沢ノ上","lat":40.477333,"lng":141.413941,"version":"13.0b/18.0a"},{"town":"大字上野","koaza":"下ノ沢","lat":40.477085,"lng":141.415663,"version":"13.0b/18.0a"},{"town":"大字櫛引","koaza":"上明戸","lat":40.475992,"lng":141.424659,"version":"13.0b/18.0a"},{"town":"大字上野","koaza":"上野","lat":40.476984,"lng":141.419975,"version":"13.0b/18.0a"},{"town":"大字上野","koaza":"下明戸","lat":40.47751,"lng":141.417762,"version":"13.0b/18.0a"},{"town":"大字上野","koaza":"上野平","lat":40.481818,"lng":141.417917,"version":"13.0b/18.0a"},{"town":"大字櫛引","koaza":"蒼前沢","lat":40.485834,"lng":141.424914,"version":"13.0b/18.0a"},{"town":"大字糠塚","koaza":"柳ノ下","lat":40.497415,"lng":141.487469,"version":"13.0b/18.0a"},{"town":"大字沢里","koaza":"沢里山","lat":40.494062,"lng":141.476439,"version":"13.0b/18.0a"},{"town":"大字田面木","koaza":"田面木平","lat":40.474213,"lng":141.461522,"version":"13.0b/18.0a"},{"town":"大字糠塚","koaza":"平中","lat":40.503515,"lng":141.4843,"version":"13.0b/18.0a"},{"town":"大字糠塚","koaza":"下屋敷","lat":40.507396,"lng":141.482247,"version":"13.0b/18.0a"},{"town":"大字糠塚","koaza":"下道","lat":40.505241,"lng":141.488001,"version":"13.0b/18.0a"},{"town":"大字市川町","koaza":"尻引堤下","lat":40.564687,"lng":141.438471,"version":"13.0b/18.0a"},{"town":"大字市川町","koaza":"北雷平","lat":40.588961,"lng":141.446348,"version":"13.0b/18.0a"},{"town":"大字豊崎町","koaza":"境沢","lat":40.516074,"lng":141.384009,"version":"13.0b/18.0a"},{"town":"河原木","koaza":"小田","lat":40.541096,"lng":141.466583,"version":"13.0b/18.0a"},{"town":"河原木","koaza":"中島","lat":40.538142,"lng":141.494185,"version":"13.0b/18.0a"},{"town":"大字沼館","koaza":"浜梨子河原","lat":40.53396,"lng":141.494924,"version":"13.0b/18.0a"},{"town":"大字尻内町","koaza":"下根市","lat":40.514382,"lng":141.425318,"version":"13.0b/18.0a"},{"town":"大字尻内町","koaza":"中道","lat":40.512188,"lng":141.422138,"version":"13.0b/18.0a"},{"town":"大字尻内町","koaza":"館田","lat":40.508948,"lng":141.431336,"version":"13.0b/18.0a"},{"town":"大字長苗代","koaza":"上亀子谷地","lat":40.518226,"lng":141.443213,"version":"13.0b/18.0a"},{"town":"大字長苗代","koaza":"下亀子谷地","lat":40.524344,"lng":141.446477,"version":"13.0b/18.0a"},{"town":"大字長苗代","koaza":"蟇河原","lat":40.513939,"lng":141.464593,"version":"13.0b/18.0a"},{"town":"大字根城","koaza":"東構","lat":40.508212,"lng":141.463887,"version":"13.0b/18.0a"},{"town":"河原木","koaza":"川目","lat":40.536359,"lng":141.491262,"version":"13.0b/18.0a"},{"town":"河原木","koaza":"長円坊堀","lat":40.546825,"lng":141.463903,"version":"13.0b/18.0a"},{"town":"大字売市","koaza":"輿遊下","lat":40.510125,"lng":141.482911,"version":"13.0b/18.0a"},{"town":"大字是川","koaza":"土間沢","lat":40.481386,"lng":141.496041,"version":"13.0b/18.0a"},{"town":"大字是川","koaza":"長田沢","lat":40.474973,"lng":141.492757,"version":"13.0b/18.0a"},{"town":"大字是川","koaza":"平ラ平","lat":40.470212,"lng":141.497188,"version":"13.0b/18.0a"},{"town":"大字是川","koaza":"白幡","lat":40.463693,"lng":141.500853,"version":"13.0b/18.0a"},{"town":"大字是川","koaza":"野添","lat":40.462133,"lng":141.499756,"version":"13.0b/18.0a"},{"town":"大字田面木","koaza":"堤下","lat":40.500241,"lng":141.445674,"version":"13.0b/18.0a"},{"town":"大字田面木","koaza":"エヒサ沢","lat":40.499629,"lng":141.456603,"version":"13.0b/18.0a"},{"town":"大字尻内町","koaza":"田端山","lat":40.525248,"lng":141.430748,"version":"13.0b/18.0a"},{"town":"大字豊崎町","koaza":"滝谷","lat":40.506204,"lng":141.36142,"version":"13.0b/18.0a"},{"town":"大字櫛引","koaza":"岡前","lat":40.480771,"lng":141.432304,"version":"13.0b/18.0a"},{"town":"大字八幡","koaza":"館ノ下","lat":40.486196,"lng":141.430507,"version":"13.0b/18.0a"},{"town":"大字八幡","koaza":"殿見","lat":40.486432,"lng":141.439393,"version":"13.0b/18.0a"},{"town":"大字櫛引","koaza":"志賀良木","lat":40.474821,"lng":141.436495,"version":"13.0b/18.0a"},{"town":"大字八幡","koaza":"八森","lat":40.49134,"lng":141.441389,"version":"13.0b/18.0a"},{"town":"大字根城","koaza":"内沢","lat":40.497613,"lng":141.459884,"version":"13.0b/18.0a"},{"town":"大字根城","koaza":"根城","lat":40.505637,"lng":141.460794,"version":"13.0b/18.0a"},{"town":"大字沢里","koaza":"一盃森","lat":40.499751,"lng":141.473905,"version":"13.0b/18.0a"},{"town":"大字糠塚","koaza":"板橋","lat":40.492625,"lng":141.487191,"version":"13.0b/18.0a"},{"town":"大字糠塚","koaza":"葭谷地","lat":40.489865,"lng":141.485673,"version":"13.0b/18.0a"},{"town":"大字糠塚","koaza":"大沢","lat":40.490545,"lng":141.492003,"version":"13.0b/18.0a"},{"town":"大字石手洗","koaza":"石手洗","lat":40.483282,"lng":141.503091,"version":"13.0b/18.0a"},{"town":"大字是川","koaza":"寺ノ上","lat":40.464277,"lng":141.498752,"version":"13.0b/18.0a"},{"town":"大字是川","koaza":"十役下タ","lat":40.460661,"lng":141.495893,"version":"13.0b/18.0a"},{"town":"大字是川","koaza":"戸花","lat":40.455277,"lng":141.499221,"version":"13.0b/18.0a"},{"town":"大字是川","koaza":"差波","lat":40.461581,"lng":141.486719,"version":"13.0b/18.0a"},{"town":"大字是川","koaza":"稲荷上","lat":40.47342,"lng":141.498184,"version":"13.0b/18.0a"},{"town":"大字是川","koaza":"下長根","lat":40.471943,"lng":141.499205,"version":"13.0b/18.0a"},{"town":"大字是川","koaza":"潟野","lat":40.477676,"lng":141.488283,"version":"13.0b/18.0a"},{"town":"大字是川","koaza":"権現堂","lat":40.477334,"lng":141.49212,"version":"13.0b/18.0a"},{"town":"大字類家","koaza":"堤田","lat":40.508434,"lng":141.495117,"version":"13.0b/18.0a"},{"town":"大字糠塚","koaza":"土取場","lat":40.493052,"lng":141.490626,"version":"13.0b/18.0a"},{"town":"大字是川","koaza":"雲畑","lat":40.460935,"lng":141.471398,"version":"13.0b/18.0a"},{"town":"大字是川","koaza":"堤頭","lat":40.479344,"lng":141.481098,"version":"13.0b/18.0a"},{"town":"大字是川","koaza":"向古戸","lat":40.457752,"lng":141.499235,"version":"13.0b/18.0a"},{"town":"大字是川","koaza":"桃ノ窪","lat":40.440031,"lng":141.461491,"version":"13.0b/18.0a"},{"town":"大字是川","koaza":"ウトウ窪","lat":40.454157,"lng":141.47645,"version":"13.0b/18.0a"},{"town":"大字尻内町","koaza":"平中","lat":40.506359,"lng":141.438443,"version":"13.0b/18.0a"},{"town":"大字尻内町","koaza":"平中後","lat":40.507337,"lng":141.436015,"version":"13.0b/18.0a"},{"town":"大字是川","koaza":"二ツ屋","lat":40.483911,"lng":141.477274,"version":"13.0b/18.0a"},{"town":"大字是川","koaza":"番屋","lat":40.453973,"lng":141.484784,"version":"13.0b/18.0a"},{"town":"大字是川","koaza":"穴窪","lat":40.458148,"lng":141.477728,"version":"13.0b/18.0a"},{"town":"大字是川","koaza":"横山","lat":40.475547,"lng":141.488115,"version":"13.0b/18.0a"},{"town":"大字是川","koaza":"田中山","lat":40.463542,"lng":141.481678,"version":"13.0b/18.0a"},{"town":"大字是川","koaza":"田子沢","lat":40.472479,"lng":141.482238,"version":"13.0b/18.0a"},{"town":"大字是川","koaza":"館ノ内","lat":40.470369,"lng":141.495565,"version":"13.0b/18.0a"},{"town":"大字糠塚","koaza":"前谷地","lat":40.496317,"lng":141.490422,"version":"13.0b/18.0a"},{"town":"大字是川","koaza":"寺ノ沢","lat":40.47124,"lng":141.489208,"version":"13.0b/18.0a"},{"town":"大字是川","koaza":"長吉蒔目","lat":40.443975,"lng":141.470364,"version":"13.0b/18.0a"},{"town":"大字是川","koaza":"小田頭","lat":40.46303,"lng":141.504403,"version":"13.0b/18.0a"},{"town":"大字石手洗","koaza":"泉筋","lat":40.485765,"lng":141.502228,"version":"13.0b/18.0a"},{"town":"大字是川","koaza":"志民","lat":40.468538,"lng":141.506393,"version":"13.0b/18.0a"},{"town":"大字石手洗","koaza":"梨子木平","lat":40.488259,"lng":141.504887,"version":"13.0b/18.0a"},{"town":"大字石手洗","koaza":"油久保","lat":40.487816,"lng":141.503595,"version":"13.0b/18.0a"},{"town":"大字是川","koaza":"岩沢","lat":40.45894,"lng":141.505496,"version":"13.0b/18.0a"},{"town":"大字中居林","koaza":"藤ヶ森","lat":40.493119,"lng":141.503688,"version":"13.0b/18.0a"},{"town":"大字田向","koaza":"向平","lat":40.491789,"lng":141.505922,"version":"13.0b/18.0a"},{"town":"大字是川","koaza":"横大道","lat":40.46131,"lng":141.506083,"version":"13.0b/18.0a"},{"town":"大字是川","koaza":"一本木平","lat":40.466783,"lng":141.505451,"version":"13.0b/18.0a"},{"town":"大字石手洗","koaza":"斎郷","lat":40.484465,"lng":141.505583,"version":"13.0b/18.0a"},{"town":"河原木","koaza":"宇兵エ河原","lat":40.533811,"lng":141.515448,"version":"13.0b/18.0a"},{"town":"大字田向","koaza":"檀ノ平","lat":40.495479,"lng":141.505364,"version":"13.0b/18.0a"},{"town":"大字石手洗","koaza":"京塚","lat":40.484426,"lng":141.506476,"version":"13.0b/18.0a"},{"town":"大字是川","koaza":"水越沢","lat":40.461705,"lng":141.507606,"version":"13.0b/18.0a"},{"town":"大字是川","koaza":"平次郎","lat":40.458121,"lng":141.509097,"version":"13.0b/18.0a"},{"town":"大字是川","koaza":"楢館平","lat":40.474807,"lng":141.508289,"version":"13.0b/18.0a"},{"town":"大字是川","koaza":"坂ノ脇","lat":40.472712,"lng":141.507641,"version":"13.0b/18.0a"},{"town":"大字田向","koaza":"十二役","lat":40.486522,"lng":141.508353,"version":"13.0b/18.0a"},{"town":"大字是川","koaza":"水越","lat":40.458919,"lng":141.511857,"version":"13.0b/18.0a"},{"town":"大字十日市","koaza":"塚ノ下","lat":40.47513,"lng":141.511391,"version":"13.0b/18.0a"},{"town":"大字是川","koaza":"西母袋子","lat":40.443194,"lng":141.511734,"version":"13.0b/18.0a"},{"town":"大字十日市","koaza":"西","lat":40.48509,"lng":141.512917,"version":"13.0b/18.0a"},{"town":"大字是川","koaza":"上ノ沢","lat":40.471065,"lng":141.509258,"version":"13.0b/18.0a"},{"town":"大字是川","koaza":"長根","lat":40.467717,"lng":141.513847,"version":"13.0b/18.0a"},{"town":"大字是川","koaza":"東母袋子","lat":40.440094,"lng":141.514479,"version":"13.0b/18.0a"},{"town":"大字是川","koaza":"内野場","lat":40.457057,"lng":141.515835,"version":"13.0b/18.0a"},{"town":"大字是川","koaza":"外野場","lat":40.458663,"lng":141.517116,"version":"13.0b/18.0a"},{"town":"大字田向","koaza":"橋下","lat":40.495683,"lng":141.514983,"version":"13.0b/18.0a"},{"town":"大字是川","koaza":"西山","lat":40.422223,"lng":141.519868,"version":"13.0b/18.0a"},{"town":"大字松館","koaza":"水野平","lat":40.465679,"lng":141.517907,"version":"13.0b/18.0a"},{"town":"大字是川","koaza":"卯花木長根","lat":40.452809,"lng":141.517851,"version":"13.0b/18.0a"},{"town":"大字十日市","koaza":"天摩","lat":40.474448,"lng":141.518451,"version":"13.0b/18.0a"},{"town":"大字十日市","koaza":"伏部内","lat":40.482583,"lng":141.517759,"version":"13.0b/18.0a"},{"town":"大字是川","koaza":"才勝道","lat":40.455246,"lng":141.518403,"version":"13.0b/18.0a"},{"town":"大字新井田","koaza":"古館","lat":40.496342,"lng":141.518757,"version":"13.0b/18.0a"},{"town":"大字松館","koaza":"奥沢野場","lat":40.459869,"lng":141.519991,"version":"13.0b/18.0a"},{"town":"大字是川","koaza":"白蛇久保","lat":40.430258,"lng":141.520504,"version":"13.0b/18.0a"},{"town":"大字松館","koaza":"牛ヶ沢","lat":40.458376,"lng":141.519971,"version":"13.0b/18.0a"},{"town":"大字新井田","koaza":"横町","lat":40.494062,"lng":141.518085,"version":"13.0b/18.0a"},{"town":"大字新井田","koaza":"館下","lat":40.492699,"lng":141.519197,"version":"13.0b/18.0a"},{"town":"大字新井田","koaza":"中町","lat":40.496445,"lng":141.520996,"version":"13.0b/18.0a"},{"town":"大字湊町","koaza":"下河原","lat":40.518515,"lng":141.524169,"version":"13.0b/18.0a"},{"town":"大字湊町","koaza":"本町","lat":40.524676,"lng":141.522467,"version":"13.0b/18.0a"},{"town":"大字新井田","koaza":"古戸沢","lat":40.488801,"lng":141.522034,"version":"13.0b/18.0a"},{"town":"大字十日市","koaza":"黒坂前","lat":40.481522,"lng":141.522346,"version":"13.0b/18.0a"},{"town":"大字新井田","koaza":"門前","lat":40.497794,"lng":141.522927,"version":"13.0b/18.0a"},{"town":"大字新井田","koaza":"松山","lat":40.499311,"lng":141.526518,"version":"13.0b/18.0a"},{"town":"大字新井田","koaza":"朴木沢","lat":40.494401,"lng":141.52687,"version":"13.0b/18.0a"},{"town":"大字新井田","koaza":"鷹待場","lat":40.511804,"lng":141.52552,"version":"13.0b/18.0a"},{"town":"大字松館","koaza":"奥沢","lat":40.466557,"lng":141.527161,"version":"13.0b/18.0a"},{"town":"大字新井田","koaza":"市子林","lat":40.49077,"lng":141.52252,"version":"13.0b/18.0a"},{"town":"大字新井田","koaza":"寺沢","lat":40.506233,"lng":141.527453,"version":"13.0b/18.0a"},{"town":"大字新井田","koaza":"丑鞍森","lat":40.49748,"lng":141.527917,"version":"13.0b/18.0a"},{"town":"大字湊町","koaza":"ホロキ長根","lat":40.517892,"lng":141.524909,"version":"13.0b/18.0a"},{"town":"大字新井田","koaza":"石動木平","lat":40.503267,"lng":141.527429,"version":"13.0b/18.0a"},{"town":"大字新井田","koaza":"林ノ上","lat":40.514814,"lng":141.524656,"version":"13.0b/18.0a"},{"town":"大字湊町","koaza":"柳町","lat":40.522637,"lng":141.525057,"version":"13.0b/18.0a"},{"town":"大字妙","koaza":"古戸","lat":40.488457,"lng":141.523711,"version":"13.0b/18.0a"},{"town":"大字新井田","koaza":"石仏","lat":40.492676,"lng":141.52582,"version":"13.0b/18.0a"},{"town":"大字新井田","koaza":"木戸場","lat":40.509351,"lng":141.526484,"version":"13.0b/18.0a"},{"town":"大字松館","koaza":"細越","lat":40.478038,"lng":141.526907,"version":"13.0b/18.0a"},{"town":"大字妙","koaza":"坂中","lat":40.490785,"lng":141.528131,"version":"13.0b/18.0a"},{"town":"大字湊町","koaza":"久保","lat":40.522855,"lng":141.527079,"version":"13.0b/18.0a"},{"town":"大字妙","koaza":"油久保","lat":40.489843,"lng":141.52992,"version":"13.0b/18.0a"},{"town":"大字湊町","koaza":"縄張","lat":40.518572,"lng":141.527621,"version":"13.0b/18.0a"},{"town":"大字妙","koaza":"黒ヶ沢","lat":40.487527,"lng":141.52899,"version":"13.0b/18.0a"},{"town":"大字湊町","koaza":"赤坂","lat":40.520119,"lng":141.528514,"version":"13.0b/18.0a"},{"town":"大字湊町","koaza":"上中道","lat":40.522541,"lng":141.528867,"version":"13.0b/18.0a"},{"town":"大字新井田","koaza":"中ノ森","lat":40.510568,"lng":141.527853,"version":"13.0b/18.0a"},{"town":"大字松館","koaza":"長塚","lat":40.471217,"lng":141.536182,"version":"13.0b/18.0a"},{"town":"大字妙","koaza":"蟹沢","lat":40.478262,"lng":141.541927,"version":"13.0b/18.0a"},{"town":"大字妙","koaza":"犬森","lat":40.481209,"lng":141.533403,"version":"13.0b/18.0a"},{"town":"大字湊町","koaza":"鮫ノ口","lat":40.515864,"lng":141.529356,"version":"13.0b/18.0a"},{"town":"大字妙","koaza":"内妙","lat":40.483848,"lng":141.529268,"version":"13.0b/18.0a"},{"town":"大字妙","koaza":"西","lat":40.48508,"lng":141.528227,"version":"13.0b/18.0a"},{"town":"大字湊町","koaza":"上田屋前","lat":40.511919,"lng":141.528741,"version":"13.0b/18.0a"},{"town":"大字新井田","koaza":"長塚","lat":40.501091,"lng":141.530259,"version":"13.0b/18.0a"},{"town":"大字妙","koaza":"分枝","lat":40.485514,"lng":141.532521,"version":"13.0b/18.0a"},{"town":"大字湊町","koaza":"穴畑","lat":40.518031,"lng":141.531216,"version":"13.0b/18.0a"},{"town":"大字新井田","koaza":"平前","lat":40.509479,"lng":141.529924,"version":"13.0b/18.0a"},{"town":"大字新井田","koaza":"水溜","lat":40.50732,"lng":141.530197,"version":"13.0b/18.0a"},{"town":"大字湊町","koaza":"油久保","lat":40.513649,"lng":141.531017,"version":"13.0b/18.0a"},{"town":"大字湊町","koaza":"大沢","lat":40.52506,"lng":141.532245,"version":"13.0b/18.0a"},{"town":"大字妙","koaza":"東","lat":40.488713,"lng":141.532453,"version":"13.0b/18.0a"},{"town":"大字新井田","koaza":"長宝野","lat":40.492889,"lng":141.532425,"version":"13.0b/18.0a"},{"town":"大字新井田","koaza":"松山下野場","lat":40.503515,"lng":141.532457,"version":"13.0b/18.0a"},{"town":"大字松館","koaza":"門前","lat":40.466958,"lng":141.534572,"version":"13.0b/18.0a"},{"town":"大字白銀町","koaza":"右岩淵通","lat":40.519902,"lng":141.534586,"version":"13.0b/18.0a"},{"town":"大字湊町","koaza":"新井田道","lat":40.514644,"lng":141.53331,"version":"13.0b/18.0a"},{"town":"大字松館","koaza":"赤平","lat":40.462232,"lng":141.536896,"version":"13.0b/18.0a"},{"town":"大字白銀町","koaza":"左岩淵通","lat":40.518303,"lng":141.534769,"version":"13.0b/18.0a"},{"town":"大字白銀町","koaza":"三島下","lat":40.523364,"lng":141.537995,"version":"13.0b/18.0a"},{"town":"大字新井田","koaza":"二本杉","lat":40.505123,"lng":141.533773,"version":"13.0b/18.0a"},{"town":"大字松館","koaza":"外ヶ口","lat":40.465428,"lng":141.536748,"version":"13.0b/18.0a"},{"town":"大字妙","koaza":"水上","lat":40.487109,"lng":141.53634,"version":"13.0b/18.0a"},{"town":"大字白銀町","koaza":"右新井田道","lat":40.516343,"lng":141.534249,"version":"13.0b/18.0a"},{"town":"大字妙","koaza":"向野場","lat":40.491278,"lng":141.534576,"version":"13.0b/18.0a"},{"town":"大字松館","koaza":"長坂","lat":40.460563,"lng":141.537696,"version":"13.0b/18.0a"},{"town":"大字松館","koaza":"赤羽根","lat":40.466099,"lng":141.536843,"version":"13.0b/18.0a"},{"town":"大字新井田","koaza":"小久保頭","lat":40.502094,"lng":141.537597,"version":"13.0b/18.0a"},{"town":"大字新井田","koaza":"市子巻目","lat":40.492415,"lng":141.539077,"version":"13.0b/18.0a"},{"town":"大字妙","koaza":"桶屋平","lat":40.488627,"lng":141.538291,"version":"13.0b/18.0a"},{"town":"大字白銀町","koaza":"左新井田道","lat":40.515383,"lng":141.538601,"version":"13.0b/18.0a"},{"town":"大字新井田","koaza":"八森平","lat":40.499291,"lng":141.53909,"version":"13.0b/18.0a"},{"town":"大字白銀町","koaza":"久保下","lat":40.512576,"lng":141.540931,"version":"13.0b/18.0a"},{"town":"大字白銀町","koaza":"大沢頭","lat":40.520624,"lng":141.539818,"version":"13.0b/18.0a"},{"town":"大字妙","koaza":"滝沢","lat":40.486371,"lng":141.539103,"version":"13.0b/18.0a"},{"town":"大字新井田","koaza":"小久保尻","lat":40.497836,"lng":141.54122,"version":"13.0b/18.0a"},{"town":"大字白銀町","koaza":"堀ノ内","lat":40.517999,"lng":141.540768,"version":"13.0b/18.0a"},{"town":"大字白銀町","koaza":"三島上","lat":40.519206,"lng":141.540195,"version":"13.0b/18.0a"},{"town":"大字白銀町","koaza":"堀ノ外","lat":40.515829,"lng":141.541213,"version":"13.0b/18.0a"},{"town":"大字松館","koaza":"大向","lat":40.46233,"lng":141.54071,"version":"13.0b/18.0a"},{"town":"大字湊町","koaza":"下大久保道","lat":40.509748,"lng":141.544453,"version":"13.0b/18.0a"},{"town":"大字松館","koaza":"寺地","lat":40.464145,"lng":141.54252,"version":"13.0b/18.0a"},{"town":"大字大久保","koaza":"小久保平","lat":40.4916,"lng":141.543108,"version":"13.0b/18.0a"},{"town":"大字妙","koaza":"花生","lat":40.481661,"lng":141.548835,"version":"13.0b/18.0a"},{"town":"大字妙","koaza":"西平","lat":40.486104,"lng":141.548322,"version":"13.0b/18.0a"},{"town":"大字白銀町","koaza":"姥畑","lat":40.51364,"lng":141.543529,"version":"13.0b/18.0a"},{"town":"大字大久保","koaza":"小久保尻","lat":40.49373,"lng":141.544784,"version":"13.0b/18.0a"},{"town":"大字白銀町","koaza":"南ヶ丘","lat":40.517166,"lng":141.544857,"version":"13.0b/18.0a"},{"town":"大字大久保","koaza":"町道","lat":40.511756,"lng":141.546284,"version":"13.0b/18.0a"},{"town":"大字大久保","koaza":"小松平","lat":40.510497,"lng":141.547257,"version":"13.0b/18.0a"},{"town":"大字大久保","koaza":"サクロツ","lat":40.516009,"lng":141.546411,"version":"13.0b/18.0a"},{"town":"大字湊町","koaza":"中沢巻目","lat":40.508203,"lng":141.548312,"version":"13.0b/18.0a"},{"town":"大字大久保","koaza":"町畑西ノ平","lat":40.489002,"lng":141.549863,"version":"13.0b/18.0a"},{"town":"大字大久保","koaza":"西ノ平","lat":40.501504,"lng":141.55185,"version":"13.0b/18.0a"},{"town":"大字大久保","koaza":"坂ノ脇","lat":40.515142,"lng":141.548036,"version":"13.0b/18.0a"},{"town":"大字大久保","koaza":"夏川戸","lat":40.51797,"lng":141.54817,"version":"13.0b/18.0a"},{"town":"大字白銀町","koaza":"小沼","lat":40.519925,"lng":141.548899,"version":"13.0b/18.0a"},{"town":"大字白銀町","koaza":"昭和町","lat":40.530267,"lng":141.550069,"version":"13.0b/18.0a"},{"town":"大字妙","koaza":"大開","lat":40.479759,"lng":141.55783,"version":"13.0b/18.0a"},{"town":"大字大久保","koaza":"沢目","lat":40.513994,"lng":141.547875,"version":"13.0b/18.0a"},{"town":"大字大久保","koaza":"下大久保","lat":40.509916,"lng":141.549982,"version":"13.0b/18.0a"},{"town":"大字大久保","koaza":"坂ノ上","lat":40.515691,"lng":141.550028,"version":"13.0b/18.0a"},{"town":"大字大久保","koaza":"袖ノ沢","lat":40.516184,"lng":141.5514,"version":"13.0b/18.0a"},{"town":"大字大久保","koaza":"下長根","lat":40.513714,"lng":141.551533,"version":"13.0b/18.0a"},{"town":"大字大久保","koaza":"下町畑","lat":40.492132,"lng":141.551974,"version":"13.0b/18.0a"},{"town":"大字大久保","koaza":"鷹待場","lat":40.513509,"lng":141.554401,"version":"13.0b/18.0a"},{"town":"大字大久保","koaza":"行人坂","lat":40.510852,"lng":141.554315,"version":"13.0b/18.0a"},{"town":"大字大久保","koaza":"作兵エ穴","lat":40.504146,"lng":141.552898,"version":"13.0b/18.0a"},{"town":"大字白銀町","koaza":"姥久保","lat":40.518128,"lng":141.553778,"version":"13.0b/18.0a"},{"town":"大字白銀町","koaza":"栗沢道","lat":40.517864,"lng":141.557433,"version":"13.0b/18.0a"},{"town":"大字鮫町","koaza":"林通","lat":40.527053,"lng":141.55633,"version":"13.0b/18.0a"},{"town":"大字大久保","koaza":"行人塚","lat":40.489903,"lng":141.560154,"version":"13.0b/18.0a"},{"town":"大字大久保","koaza":"浜長根","lat":40.508553,"lng":141.557077,"version":"13.0b/18.0a"},{"town":"大字鮫町","koaza":"二見町","lat":40.527988,"lng":141.555311,"version":"13.0b/18.0a"},{"town":"大字鮫町","koaza":"二子石","lat":40.529124,"lng":141.555101,"version":"13.0b/18.0a"},{"town":"大字鮫町","koaza":"日出町","lat":40.531556,"lng":141.554894,"version":"13.0b/18.0a"},{"town":"大字大久保","koaza":"上面","lat":40.50193,"lng":141.557151,"version":"13.0b/18.0a"},{"town":"大字鮫町","koaza":"鮫","lat":40.535402,"lng":141.557779,"version":"13.0b/18.0a"},{"town":"大字鮫町","koaza":"福沢久保","lat":40.523837,"lng":141.558863,"version":"13.0b/18.0a"},{"town":"大字大久保","koaza":"長沢","lat":40.505475,"lng":141.561007,"version":"13.0b/18.0a"},{"town":"大字鮫町","koaza":"上鮫","lat":40.532773,"lng":141.557706,"version":"13.0b/18.0a"},{"town":"大字大久保","koaza":"生平","lat":40.507887,"lng":141.564388,"version":"13.0b/18.0a"},{"town":"大字鮫町","koaza":"冷水","lat":40.529369,"lng":141.55812,"version":"13.0b/18.0a"},{"town":"大字白銀町","koaza":"白浜道","lat":40.521675,"lng":141.560339,"version":"13.0b/18.0a"},{"town":"大字大久保","koaza":"大山","lat":40.493065,"lng":141.573693,"version":"13.0b/18.0a"},{"town":"大字鮫町","koaza":"小長根","lat":40.527151,"lng":141.559378,"version":"13.0b/18.0a"},{"town":"大字鮫町","koaza":"下手代森","lat":40.531338,"lng":141.560251,"version":"13.0b/18.0a"},{"town":"大字鮫町","koaza":"上手代森","lat":40.530361,"lng":141.559634,"version":"13.0b/18.0a"},{"town":"大字鮫町","koaza":"居合","lat":40.533967,"lng":141.560544,"version":"13.0b/18.0a"},{"town":"大字大久保","koaza":"大塚","lat":40.491158,"lng":141.56487,"version":"13.0b/18.0a"},{"town":"大字鮫町","koaza":"下松苗場","lat":40.537442,"lng":141.560879,"version":"13.0b/18.0a"},{"town":"大字鮫町","koaza":"綣久保","lat":40.532516,"lng":141.562737,"version":"13.0b/18.0a"},{"town":"大字鮫町","koaza":"ハンノ木沢","lat":40.528121,"lng":141.563596,"version":"13.0b/18.0a"},{"town":"大字鮫町","koaza":"上松苗場","lat":40.535043,"lng":141.563308,"version":"13.0b/18.0a"},{"town":"大字鮫町","koaza":"蟻子","lat":40.533601,"lng":141.563295,"version":"13.0b/18.0a"},{"town":"大字白銀町","koaza":"佐部長根","lat":40.508994,"lng":141.573188,"version":"13.0b/18.0a"},{"town":"大字鮫町","koaza":"大開","lat":40.531017,"lng":141.564867,"version":"13.0b/18.0a"},{"town":"大字鮫町","koaza":"山四郎蒔目","lat":40.524581,"lng":141.566738,"version":"13.0b/18.0a"},{"town":"大字鮫町","koaza":"下盲久保","lat":40.538798,"lng":141.565965,"version":"13.0b/18.0a"},{"town":"大字鮫町","koaza":"上盲久保","lat":40.535853,"lng":141.566811,"version":"13.0b/18.0a"},{"town":"大字鮫町","koaza":"古馬屋","lat":40.528518,"lng":141.568374,"version":"13.0b/18.0a"},{"town":"大字鮫町","koaza":"西子沢","lat":40.525972,"lng":141.572558,"version":"13.0b/18.0a"},{"town":"大字鮫町","koaza":"小舟渡平","lat":40.537589,"lng":141.574496,"version":"13.0b/18.0a"},{"town":"大字鮫町","koaza":"金屎","lat":40.516689,"lng":141.578147,"version":"13.0b/18.0a"},{"town":"大字鮫町","koaza":"大草離","lat":40.505901,"lng":141.580013,"version":"13.0b/18.0a"},{"town":"大字鮫町","koaza":"先祖ヶ久保","lat":40.536356,"lng":141.57599,"version":"13.0b/18.0a"},{"town":"大字鮫町","koaza":"姥懐","lat":40.521396,"lng":141.580917,"version":"13.0b/18.0a"},{"town":"大字鮫町","koaza":"浜道通","lat":40.514041,"lng":141.587769,"version":"13.0b/18.0a"},{"town":"大字鮫町","koaza":"堀込","lat":40.5166,"lng":141.590087,"version":"13.0b/18.0a"},{"town":"大字鮫町","koaza":"小沢","lat":40.514838,"lng":141.591271,"version":"13.0b/18.0a"},{"town":"大字鮫町","koaza":"骨沢","lat":40.494068,"lng":141.605677,"version":"13.0b/18.0a"},{"town":"大字鮫町","koaza":"高森","lat":40.505165,"lng":141.593684,"version":"13.0b/18.0a"},{"town":"大字鮫町","koaza":"館越","lat":40.515559,"lng":141.594206,"version":"13.0b/18.0a"},{"town":"大字鮫町","koaza":"亦窪","lat":40.505766,"lng":141.59095,"version":"13.0b/18.0a"},{"town":"大字鮫町","koaza":"二ツ石","lat":40.512152,"lng":141.5941,"version":"13.0b/18.0a"},{"town":"大字金浜","koaza":"折場沢","lat":40.480807,"lng":141.600718,"version":"13.0b/18.0a"},{"town":"大字金浜","koaza":"中渡","lat":40.469685,"lng":141.602707,"version":"13.0b/18.0a"},{"town":"大字金浜","koaza":"大渡","lat":40.467294,"lng":141.598712,"version":"13.0b/18.0a"},{"town":"大字金浜","koaza":"荒屋敷久保","lat":40.467594,"lng":141.60455,"version":"13.0b/18.0a"},{"town":"大字鮫町","koaza":"赤コウ","lat":40.514339,"lng":141.603264,"version":"13.0b/18.0a"},{"town":"大字鮫町","koaza":"棚久保","lat":40.506509,"lng":141.60884,"version":"13.0b/18.0a"},{"town":"大字金浜","koaza":"土橋","lat":40.469045,"lng":141.611078,"version":"13.0b/18.0a"},{"town":"大字鮫町","koaza":"大槻窪","lat":40.502817,"lng":141.61008,"version":"13.0b/18.0a"},{"town":"大字鮫町","koaza":"種差","lat":40.503938,"lng":141.613362,"version":"13.0b/18.0a"},{"town":"大字金浜","koaza":"北ノ沢","lat":40.483484,"lng":141.614498,"version":"13.0b/18.0a"},{"town":"大字鮫町","koaza":"遙望石","lat":40.503351,"lng":141.616444,"version":"13.0b/18.0a"},{"town":"大字金浜","koaza":"家ノ向","lat":40.472976,"lng":141.620355,"version":"13.0b/18.0a"},{"town":"大字鮫町","koaza":"高岩","lat":40.499401,"lng":141.619725,"version":"13.0b/18.0a"},{"town":"大字鮫町","koaza":"石越","lat":40.493852,"lng":141.621382,"version":"13.0b/18.0a"},{"town":"大字鮫町","koaza":"下柏木森","lat":40.493079,"lng":141.624556,"version":"13.0b/18.0a"},{"town":"大字金浜","koaza":"外ノ久保","lat":40.477523,"lng":141.621467,"version":"13.0b/18.0a"},{"town":"大字鮫町","koaza":"子猪越","lat":40.496019,"lng":141.625238,"version":"13.0b/18.0a"},{"town":"大字鮫町","koaza":"大作平","lat":40.49237,"lng":141.627625,"version":"13.0b/18.0a"},{"town":"大字金浜","koaza":"居場","lat":40.478457,"lng":141.628401,"version":"13.0b/18.0a"},{"town":"大字金浜","koaza":"級ノ木","lat":40.474296,"lng":141.630428,"version":"13.0b/18.0a"},{"town":"大字金浜","koaza":"一ノ久保","lat":40.476099,"lng":141.634596,"version":"13.0b/18.0a"},{"town":"大字金浜","koaza":"舟戸ノ上","lat":40.478367,"lng":141.636545,"version":"13.0b/18.0a"},{"town":"大字鮫町","koaza":"持越沢","lat":40.530864,"lng":141.555795,"version":"13.0b/18.0a"},{"town":"大字大久保","koaza":"上町畑","lat":40.486933,"lng":141.554837,"version":"13.0b/18.0a"},{"town":"大字新井田","koaza":"出口平","lat":40.48934,"lng":141.543064,"version":"13.0b/18.0a"},{"town":"大字妙","koaza":"丹内","lat":40.485511,"lng":141.52626,"version":"13.0b/18.0a"},{"town":"大字妙","koaza":"藤蕪","lat":40.486588,"lng":141.525643,"version":"13.0b/18.0a"},{"town":"大字新井田","koaza":"外館","lat":40.490265,"lng":141.519499,"version":"13.0b/18.0a"},{"town":"大字新井田","koaza":"館平","lat":40.491086,"lng":141.520666,"version":"13.0b/18.0a"},{"town":"大字新井田","koaza":"前田","lat":40.492248,"lng":141.521508,"version":"13.0b/18.0a"},{"town":"大字妙","koaza":"市子林","lat":40.490222,"lng":141.52456,"version":"13.0b/18.0a"},{"town":"大字新井田","koaza":"山道","lat":40.493098,"lng":141.522061,"version":"13.0b/18.0a"},{"town":"大字新井田","koaza":"八幡川原","lat":40.492019,"lng":141.516942,"version":"13.0b/18.0a"},{"town":"大字新井田","koaza":"畑中","lat":40.495096,"lng":141.518294,"version":"13.0b/18.0a"},{"town":"大字新井田","koaza":"後庵","lat":40.49831,"lng":141.520047,"version":"13.0b/18.0a"},{"town":"大字新井田","koaza":"寺窪","lat":40.506553,"lng":141.52522,"version":"13.0b/18.0a"},{"town":"大字新井田","koaza":"寺沢下","lat":40.505933,"lng":141.522692,"version":"13.0b/18.0a"},{"town":"大字新井田","koaza":"風浚","lat":40.513429,"lng":141.527111,"version":"13.0b/18.0a"},{"town":"大字新井田","koaza":"岩淵","lat":40.514509,"lng":141.523161,"version":"13.0b/18.0a"},{"town":"大字鮫町","koaza":"石株","lat":40.516974,"lng":141.58753,"version":"13.0b/18.0a"},{"town":"大字鮫町","koaza":"妻ノ神","lat":40.516951,"lng":141.585195,"version":"13.0b/18.0a"},{"town":"大字鮫町","koaza":"番屋","lat":40.511787,"lng":141.600771,"version":"13.0b/18.0a"},{"town":"大字鮫町","koaza":"神子沢久保","lat":40.50933,"lng":141.593349,"version":"13.0b/18.0a"},{"town":"大字湊町","koaza":"下沢巻目","lat":40.504763,"lng":141.551792,"version":"13.0b/18.0a"},{"town":"大字新井田","koaza":"常光田","lat":40.495975,"lng":141.522136,"version":"13.0b/18.0a"},{"town":"大字白銀町","koaza":"寺ノ後","lat":40.521185,"lng":141.547933,"version":"13.0b/18.0a"},{"town":"大字白銀町","koaza":"中平","lat":40.520462,"lng":141.551308,"version":"13.0b/18.0a"},{"town":"大字白銀町","koaza":"田端","lat":40.517981,"lng":141.551769,"version":"13.0b/18.0a"},{"town":"大字鮫町","koaza":"ハン木沢","lat":40.529096,"lng":141.564132,"version":"13.0b/18.0a"},{"town":"大字金浜","koaza":"下渡","lat":40.473328,"lng":141.603689,"version":"13.0b/18.0a"},{"town":"大字金浜","koaza":"内城","lat":40.478666,"lng":141.61847,"version":"13.0b/18.0a"},{"town":"大字金浜","koaza":"林ノ前","lat":40.47841,"lng":141.620492,"version":"13.0b/18.0a"},{"town":"大字是川","koaza":"街道端","lat":40.441496,"lng":141.519763,"version":"13.0b/18.0a"},{"town":"大字是川","koaza":"横道","lat":40.439915,"lng":141.519384,"version":"13.0b/18.0a"},{"town":"大字是川","koaza":"坂ノ上","lat":40.446541,"lng":141.512938,"version":"13.0b/18.0a"},{"town":"大字是川","koaza":"丁塚長根","lat":40.446351,"lng":141.519501,"version":"13.0b/18.0a"},{"town":"大字是川","koaza":"水野","lat":40.446088,"lng":141.516347,"version":"13.0b/18.0a"},{"town":"大字是川","koaza":"水野長根","lat":40.455167,"lng":141.510671,"version":"13.0b/18.0a"},{"town":"大字是川","koaza":"中山","lat":40.458033,"lng":141.503409,"version":"13.0b/18.0a"},{"town":"大字是川","koaza":"土樋","lat":40.464421,"lng":141.502805,"version":"13.0b/18.0a"},{"town":"大字是川","koaza":"中苗代下","lat":40.464955,"lng":141.506335,"version":"13.0b/18.0a"},{"town":"大字是川","koaza":"寒家","lat":40.47325,"lng":141.505691,"version":"13.0b/18.0a"},{"town":"大字十日市","koaza":"登手","lat":40.477826,"lng":141.511049,"version":"13.0b/18.0a"},{"town":"大字新井田","koaza":"重地下","lat":40.504235,"lng":141.522784,"version":"13.0b/18.0a"},{"town":"大字松館","koaza":"上寺地","lat":40.457795,"lng":141.54515,"version":"13.0b/18.0a"},{"town":"大字白銀町","koaza":"大沢片平","lat":40.522606,"lng":141.536734,"version":"13.0b/18.0a"},{"town":"大字白銀町","koaza":"新九郎蒔目","lat":40.515024,"lng":141.544676,"version":"13.0b/18.0a"},{"town":"大字白銀町","koaza":"沢向","lat":40.519624,"lng":141.545242,"version":"13.0b/18.0a"},{"town":"大字白銀町","koaza":"木戸場","lat":40.519059,"lng":141.54424,"version":"13.0b/18.0a"},{"town":"大字白銀町","koaza":"大久保道","lat":40.520209,"lng":141.546169,"version":"13.0b/18.0a"},{"town":"大字大久保","koaza":"上大久保","lat":40.505557,"lng":141.556202,"version":"13.0b/18.0a"},{"town":"大字新井田","koaza":"石橋","lat":40.493821,"lng":141.525501,"version":"13.0b/18.0a"},{"town":"大字新井田","koaza":"四本松","lat":40.506,"lng":141.530714,"version":"13.0b/18.0a"},{"town":"大字新井田","koaza":"塩入","lat":40.507773,"lng":141.526149,"version":"13.0b/18.0a"},{"town":"大字湊町","koaza":"中道","lat":40.521136,"lng":141.530395,"version":"13.0b/18.0a"},{"town":"大字湊町","koaza":"汐越","lat":40.524084,"lng":141.529273,"version":"13.0b/18.0a"},{"town":"大字鮫町","koaza":"鬼場平","lat":40.499648,"lng":141.616885,"version":"13.0b/18.0a"},{"town":"大字金浜","koaza":"郷路道","lat":40.480648,"lng":141.633572,"version":"13.0b/18.0a"},{"town":"大字金浜","koaza":"前川目","lat":40.476247,"lng":141.63035,"version":"13.0b/18.0a"},{"town":"大字金浜","koaza":"下作目","lat":40.479139,"lng":141.631159,"version":"13.0b/18.0a"},{"town":"大字金浜","koaza":"橋場川目","lat":40.472453,"lng":141.627703,"version":"13.0b/18.0a"},{"town":"大字金浜","koaza":"上平山","lat":40.487123,"lng":141.616893,"version":"13.0b/18.0a"},{"town":"大字鮫町","koaza":"上柏木森","lat":40.488826,"lng":141.622386,"version":"13.0b/18.0a"},{"town":"大字鮫町","koaza":"槻ノ木","lat":40.494386,"lng":141.617978,"version":"13.0b/18.0a"},{"town":"大字鮫町","koaza":"安川目","lat":40.49463,"lng":141.624129,"version":"13.0b/18.0a"},{"town":"大字鮫町","koaza":"海端","lat":40.49807,"lng":141.620019,"version":"13.0b/18.0a"},{"town":"大字鮫町","koaza":"舟渡ノ上","lat":40.51528,"lng":141.597119,"version":"13.0b/18.0a"},{"town":"大字鮫町","koaza":"坂ノ上","lat":40.512584,"lng":141.598087,"version":"13.0b/18.0a"},{"town":"大字大久保","koaza":"三社","lat":40.508562,"lng":141.550519,"version":"13.0b/18.0a"},{"town":"大字白銀町","koaza":"浜崖","lat":40.521597,"lng":141.536375,"version":"13.0b/18.0a"},{"town":"大字新井田","koaza":"法光野","lat":40.498921,"lng":141.521483,"version":"13.0b/18.0a"},{"town":"大字新井田","koaza":"松山中野場","lat":40.500863,"lng":141.535242,"version":"13.0b/18.0a"},{"town":"大字是川","koaza":"鶏沢","lat":40.473964,"lng":141.505298,"version":"13.0b/18.0a"},{"town":"大字鮫町","koaza":"鉄砲平","lat":40.523712,"lng":141.563106,"version":"13.0b/18.0a"},{"town":"大字鮫町","koaza":"シコシリ","lat":40.49016,"lng":141.625115,"version":"13.0b/18.0a"},{"town":"大字鮫町","koaza":"冷水平","lat":40.496397,"lng":141.620728,"version":"13.0b/18.0a"},{"town":"大字鮫町","koaza":"狐平","lat":40.497414,"lng":141.619562,"version":"13.0b/18.0a"},{"town":"大字白銀町","koaza":"人形沢","lat":40.526773,"lng":141.551607,"version":"13.0b/18.0a"},{"town":"大字大久保","koaza":"野馬小屋","lat":40.513121,"lng":141.556829,"version":"13.0b/18.0a"},{"town":"大字金浜","koaza":"泥ノ木沢","lat":40.483623,"lng":141.619267,"version":"13.0b/18.0a"},{"town":"大字鮫町","koaza":"膳並平","lat":40.496171,"lng":141.612052,"version":"13.0b/18.0a"},{"town":"大字鮫町","koaza":"石仏沢","lat":40.492483,"lng":141.626558,"version":"13.0b/18.0a"},{"town":"大字金浜","koaza":"長畝","lat":40.475497,"lng":141.625712,"version":"13.0b/18.0a"},{"town":"大字松館","koaza":"在家山谷","lat":40.460808,"lng":141.518703,"version":"13.0b/18.0a"},{"town":"大字中居林","koaza":"館越山","lat":40.498929,"lng":141.504314,"version":"13.0b/18.0a"},{"town":"大字田向","koaza":"館越下","lat":40.500328,"lng":141.504175,"version":"13.0b/18.0a"},{"town":"大字鮫町","koaza":"大岩","lat":40.515173,"lng":141.583819,"version":"13.0b/18.0a"},{"town":"大字松館","koaza":"風張","lat":40.466454,"lng":141.540888,"version":"13.0b/18.0a"},{"town":"大字湊町","koaza":"中巻目","lat":40.510066,"lng":141.542402,"version":"13.0b/18.0a"},{"town":"大字金浜","koaza":"下山","lat":40.486378,"lng":141.629431,"version":"13.0b/18.0a"},{"town":"大字尻内町","koaza":"根岸河原","lat":40.51708,"lng":141.393973,"version":"13.0b/18.0a"},{"town":"青葉一丁目","koaza":"","lat":40.50908,"lng":141.511275,"version":"14.0b/19.0a"},{"town":"青葉二丁目","koaza":"","lat":40.511007,"lng":141.51784,"version":"14.0b/19.0a"},{"town":"青葉三丁目","koaza":"","lat":40.507635,"lng":141.515931,"version":"14.0b/19.0a"},{"town":"旭ケ丘一丁目","koaza":"","lat":40.496482,"lng":141.535641,"version":"14.0b/19.0a"},{"town":"旭ケ丘二丁目","koaza":"","lat":40.496332,"lng":141.532402,"version":"14.0b/19.0a"},{"town":"旭ケ丘三丁目","koaza":"","lat":40.498963,"lng":141.534139,"version":"14.0b/19.0a"},{"town":"旭ケ丘四丁目","koaza":"","lat":40.496584,"lng":141.538586,"version":"14.0b/19.0a"},{"town":"旭ケ丘五丁目","koaza":"","lat":40.494378,"lng":141.5352,"version":"14.0b/19.0a"},{"town":"石堂一丁目","koaza":"","lat":40.529139,"lng":141.477685,"version":"14.0b/19.0a"},{"town":"石堂二丁目","koaza":"","lat":40.526463,"lng":141.472647,"version":"14.0b/19.0a"},{"town":"石堂三丁目","koaza":"","lat":40.526296,"lng":141.479826,"version":"14.0b/19.0a"},{"town":"石堂四丁目","koaza":"","lat":40.532341,"lng":141.481095,"version":"14.0b/19.0a"},{"town":"一番町一丁目","koaza":"","lat":40.509067,"lng":141.433602,"version":"14.0b/19.0a"},{"town":"一番町二丁目","koaza":"","lat":40.508442,"lng":141.434811,"version":"14.0b/19.0a"},{"town":"一番町三丁目","koaza":"","lat":40.505924,"lng":141.431302,"version":"14.0b/19.0a"},{"town":"内丸一丁目","koaza":"","lat":40.513936,"lng":141.488175,"version":"14.0b/19.0a"},{"town":"内丸二丁目","koaza":"","lat":40.515208,"lng":141.491234,"version":"14.0b/19.0a"},{"town":"内丸三丁目","koaza":"","lat":40.513421,"lng":141.491824,"version":"14.0b/19.0a"},{"town":"売市一丁目","koaza":"","lat":40.50966,"lng":141.478146,"version":"14.0b/19.0a"},{"town":"売市二丁目","koaza":"","lat":40.509425,"lng":141.474693,"version":"14.0b/19.0a"},{"town":"売市三丁目","koaza":"","lat":40.51076,"lng":141.471247,"version":"14.0b/19.0a"},{"town":"売市四丁目","koaza":"","lat":40.513431,"lng":141.472473,"version":"14.0b/19.0a"},{"town":"大字荒町","koaza":"","lat":40.506828,"lng":141.485008,"version":"14.0b/19.0a"},{"town":"大字石手洗","koaza":"","lat":40.483099,"lng":141.501669,"version":"14.0b/19.0a"},{"town":"大字石堂","koaza":"","lat":40.525523,"lng":141.481596,"version":"14.0b/19.0a"},{"town":"大字市川町","koaza":"","lat":40.574129,"lng":141.437356,"version":"14.0b/19.0a"},{"town":"大字稲荷町","koaza":"","lat":40.507756,"lng":141.484143,"version":"14.0b/19.0a"},{"town":"大字岩泉町","koaza":"","lat":40.508721,"lng":141.494161,"version":"14.0b/19.0a"},{"town":"大字売市","koaza":"","lat":40.512618,"lng":141.485597,"version":"14.0b/19.0a"},{"town":"大字上野","koaza":"","lat":40.477282,"lng":141.410008,"version":"14.0b/19.0a"},{"town":"大字大久保","koaza":"","lat":40.499513,"lng":141.566402,"version":"14.0b/19.0a"},{"town":"大字鍛冶町","koaza":"","lat":40.505296,"lng":141.493553,"version":"14.0b/19.0a"},{"town":"大字徒士町","koaza":"","lat":40.508579,"lng":141.485192,"version":"14.0b/19.0a"},{"town":"大字金浜","koaza":"","lat":40.47765,"lng":141.619241,"version":"14.0b/19.0a"},{"town":"大字上徒士町","koaza":"","lat":40.505432,"lng":141.483988,"version":"14.0b/19.0a"},{"town":"大字上組町","koaza":"","lat":40.504251,"lng":141.482955,"version":"14.0b/19.0a"},{"town":"大字櫛引","koaza":"","lat":40.476592,"lng":141.433429,"version":"14.0b/19.0a"},{"town":"大字窪町","koaza":"","lat":40.512211,"lng":141.493549,"version":"14.0b/19.0a"},{"town":"大字是川","koaza":"","lat":40.448153,"lng":141.493503,"version":"14.0b/19.0a"},{"town":"大字坂牛","koaza":"","lat":40.473949,"lng":141.451289,"version":"14.0b/19.0a"},{"town":"大字鮫町","koaza":"","lat":40.515266,"lng":141.589569,"version":"14.0b/19.0a"},{"town":"大字沢里","koaza":"","lat":40.492888,"lng":141.473394,"version":"14.0b/19.0a"},{"town":"大字十一日町","koaza":"","lat":40.510502,"lng":141.494939,"version":"14.0b/19.0a"},{"town":"大字十三日町","koaza":"","lat":40.508738,"lng":141.48895,"version":"14.0b/19.0a"},{"town":"大字十八日町","koaza":"","lat":40.511663,"lng":141.494346,"version":"14.0b/19.0a"},{"town":"大字十六日町","koaza":"","lat":40.50807,"lng":141.489796,"version":"14.0b/19.0a"},{"town":"大字常海町","koaza":"","lat":40.512896,"lng":141.493234,"version":"14.0b/19.0a"},{"town":"大字常番町","koaza":"","lat":40.504654,"lng":141.484613,"version":"14.0b/19.0a"},{"town":"大字尻内町","koaza":"","lat":40.520882,"lng":141.413693,"version":"14.0b/19.0a"},{"town":"大字白銀町","koaza":"","lat":40.517452,"lng":141.539606,"version":"14.0b/19.0a"},{"town":"大字新荒町","koaza":"","lat":40.506236,"lng":141.483091,"version":"14.0b/19.0a"},{"town":"大字大工町","koaza":"","lat":40.507113,"lng":141.491886,"version":"14.0b/19.0a"},{"town":"大字鷹匠小路","koaza":"","lat":40.507753,"lng":141.492497,"version":"14.0b/19.0a"},{"town":"大字田向","koaza":"","lat":40.493911,"lng":141.505439,"version":"14.0b/19.0a"},{"town":"大字田面木","koaza":"","lat":40.493453,"lng":141.450117,"version":"14.0b/19.0a"},{"town":"大字朔日町","koaza":"","lat":40.509746,"lng":141.492856,"version":"14.0b/19.0a"},{"town":"大字堤町","koaza":"","lat":40.509598,"lng":141.486728,"version":"14.0b/19.0a"},{"town":"大字寺横町","koaza":"","lat":40.5079,"lng":141.491418,"version":"14.0b/19.0a"},{"town":"大字十日市","koaza":"","lat":40.477757,"lng":141.513213,"version":"14.0b/19.0a"},{"town":"大字鳥屋部町","koaza":"","lat":40.506856,"lng":141.490114,"version":"14.0b/19.0a"},{"town":"大字豊崎町","koaza":"","lat":40.513441,"lng":141.38083,"version":"14.0b/19.0a"},{"town":"大字中居林","koaza":"","lat":40.493098,"lng":141.501462,"version":"14.0b/19.0a"},{"town":"大字長苗代","koaza":"","lat":40.51778,"lng":141.45388,"version":"14.0b/19.0a"},{"town":"大字長横町","koaza":"","lat":40.508078,"lng":141.493424,"version":"14.0b/19.0a"},{"town":"大字新井田","koaza":"","lat":40.500313,"lng":141.536933,"version":"14.0b/19.0a"},{"town":"大字廿三日町","koaza":"","lat":40.50766,"lng":141.487028,"version":"14.0b/19.0a"},{"town":"大字廿六日町","koaza":"","lat":40.506937,"lng":141.487618,"version":"14.0b/19.0a"},{"town":"大字糠塚","koaza":"","lat":40.490896,"lng":141.48738,"version":"14.0b/19.0a"},{"town":"大字沼館","koaza":"","lat":40.53284,"lng":141.49405,"version":"14.0b/19.0a"},{"town":"大字根城","koaza":"","lat":40.504602,"lng":141.455576,"version":"14.0b/19.0a"},{"town":"大字馬場町","koaza":"","lat":40.510893,"lng":141.488371,"version":"14.0b/19.0a"},{"town":"大字番町","koaza":"","lat":40.510627,"lng":141.490297,"version":"14.0b/19.0a"},{"town":"大字堀端町","koaza":"","lat":40.512096,"lng":141.490885,"version":"14.0b/19.0a"},{"town":"大字町組町","koaza":"","lat":40.505807,"lng":141.485628,"version":"14.0b/19.0a"},{"town":"大字松館","koaza":"","lat":40.465693,"lng":141.537162,"version":"14.0b/19.0a"},{"town":"大字三日町","koaza":"","lat":40.509685,"lng":141.490712,"version":"14.0b/19.0a"},{"town":"大字湊町","koaza":"","lat":40.519168,"lng":141.527277,"version":"14.0b/19.0a"},{"town":"大字美保野","koaza":"","lat":40.482335,"lng":141.583163,"version":"14.0b/19.0a"},{"town":"大字妙","koaza":"","lat":40.482584,"lng":141.545949,"version":"14.0b/19.0a"},{"town":"大字六日町","koaza":"","lat":40.508985,"lng":141.491412,"version":"14.0b/19.0a"},{"town":"大字本鍛冶町","koaza":"","lat":40.506222,"lng":141.488076,"version":"14.0b/19.0a"},{"town":"大字本徒士町","koaza":"","lat":40.509039,"lng":141.486054,"version":"14.0b/19.0a"},{"town":"大字山伏小路","koaza":"","lat":40.505124,"lng":141.492498,"version":"14.0b/19.0a"},{"town":"大字八幡","koaza":"","lat":40.489784,"lng":141.435827,"version":"14.0b/19.0a"},{"town":"大字八日町","koaza":"","lat":40.51067,"lng":141.492534,"version":"14.0b/19.0a"},{"town":"大字類家","koaza":"","lat":40.509477,"lng":141.496642,"version":"14.0b/19.0a"},{"town":"卸センター一丁目","koaza":"","lat":40.523513,"lng":141.45259,"version":"14.0b/19.0a"},{"town":"卸センター二丁目","koaza":"","lat":40.522195,"lng":141.453732,"version":"14.0b/19.0a"},{"town":"柏崎一丁目","koaza":"","lat":40.513972,"lng":141.495853,"version":"14.0b/19.0a"},{"town":"柏崎二丁目","koaza":"","lat":40.5113,"lng":141.498727,"version":"14.0b/19.0a"},{"town":"柏崎三丁目","koaza":"","lat":40.513398,"lng":141.501216,"version":"14.0b/19.0a"},{"town":"柏崎四丁目","koaza":"","lat":40.51519,"lng":141.499933,"version":"14.0b/19.0a"},{"town":"柏崎五丁目","koaza":"","lat":40.516985,"lng":141.503632,"version":"14.0b/19.0a"},{"town":"柏崎六丁目","koaza":"","lat":40.514318,"lng":141.50508,"version":"14.0b/19.0a"},{"town":"河原木","koaza":"","lat":40.532384,"lng":141.471124,"version":"14.0b/19.0a"},{"town":"桔梗野工業団地一丁目","koaza":"","lat":40.572478,"lng":141.463683,"version":"14.0b/19.0a"},{"town":"桔梗野工業団地二丁目","koaza":"","lat":40.564952,"lng":141.45489,"version":"14.0b/19.0a"},{"town":"桔梗野工業団地三丁目","koaza":"","lat":40.573149,"lng":141.46072,"version":"14.0b/19.0a"},{"town":"北インター工業団地一丁目","koaza":"","lat":40.544793,"lng":141.432731,"version":"14.0b/19.0a"},{"town":"北インター工業団地二丁目","koaza":"","lat":40.544408,"lng":141.428924,"version":"14.0b/19.0a"},{"town":"北インター工業団地三丁目","koaza":"","lat":40.547148,"lng":141.425356,"version":"14.0b/19.0a"},{"town":"北インター工業団地四丁目","koaza":"","lat":40.556931,"lng":141.426763,"version":"14.0b/19.0a"},{"town":"北インター工業団地五丁目","koaza":"","lat":40.554098,"lng":141.429778,"version":"14.0b/19.0a"},{"town":"北インター工業団地六丁目","koaza":"","lat":40.552315,"lng":141.433967,"version":"14.0b/19.0a"},{"town":"北白山台一丁目","koaza":"","lat":40.492472,"lng":141.46626,"version":"14.0b/19.0a"},{"town":"北白山台二丁目","koaza":"","lat":40.493691,"lng":141.46135,"version":"14.0b/19.0a"},{"town":"北白山台三丁目","koaza":"","lat":40.48872,"lng":141.465361,"version":"14.0b/19.0a"},{"town":"北白山台四丁目","koaza":"","lat":40.490058,"lng":141.461899,"version":"14.0b/19.0a"},{"town":"北白山台五丁目","koaza":"","lat":40.484967,"lng":141.462847,"version":"14.0b/19.0a"},{"town":"北白山台六丁目","koaza":"","lat":40.485191,"lng":141.458727,"version":"14.0b/19.0a"},{"town":"江陽一丁目","koaza":"","lat":40.519124,"lng":141.502739,"version":"14.0b/19.0a"},{"town":"江陽二丁目","koaza":"","lat":40.522241,"lng":141.502438,"version":"14.0b/19.0a"},{"town":"江陽三丁目","koaza":"","lat":40.528463,"lng":141.506054,"version":"14.0b/19.0a"},{"town":"江陽四丁目","koaza":"","lat":40.527566,"lng":141.514818,"version":"14.0b/19.0a"},{"town":"江陽五丁目","koaza":"","lat":40.52243,"lng":141.509757,"version":"14.0b/19.0a"},{"town":"小中野一丁目","koaza":"","lat":40.518078,"lng":141.507042,"version":"14.0b/19.0a"},{"town":"小中野二丁目","koaza":"","lat":40.515387,"lng":141.508787,"version":"14.0b/19.0a"},{"town":"小中野三丁目","koaza":"","lat":40.516681,"lng":141.512394,"version":"14.0b/19.0a"},{"town":"小中野四丁目","koaza":"","lat":40.519534,"lng":141.510162,"version":"14.0b/19.0a"},{"town":"小中野五丁目","koaza":"","lat":40.521559,"lng":141.514836,"version":"14.0b/19.0a"},{"town":"小中野六丁目","koaza":"","lat":40.518318,"lng":141.51706,"version":"14.0b/19.0a"},{"town":"小中野七丁目","koaza":"","lat":40.520252,"lng":141.520547,"version":"14.0b/19.0a"},{"town":"小中野八丁目","koaza":"","lat":40.524403,"lng":141.518911,"version":"14.0b/19.0a"},{"town":"是川一丁目","koaza":"","lat":40.466065,"lng":141.499431,"version":"14.0b/19.0a"},{"town":"是川二丁目","koaza":"","lat":40.467446,"lng":141.496319,"version":"14.0b/19.0a"},{"town":"是川三丁目","koaza":"","lat":40.470154,"lng":141.499121,"version":"14.0b/19.0a"},{"town":"是川四丁目","koaza":"","lat":40.468869,"lng":141.501888,"version":"14.0b/19.0a"},{"town":"是川五丁目","koaza":"","lat":40.466631,"lng":141.502981,"version":"14.0b/19.0a"},{"town":"桜ケ丘一丁目","koaza":"","lat":40.49999,"lng":141.542479,"version":"14.0b/19.0a"},{"town":"桜ケ丘二丁目","koaza":"","lat":40.495882,"lng":141.546146,"version":"14.0b/19.0a"},{"town":"桜ケ丘三丁目","koaza":"","lat":40.496561,"lng":141.5481,"version":"14.0b/19.0a"},{"town":"桜ケ丘四丁目","koaza":"","lat":40.496884,"lng":141.551741,"version":"14.0b/19.0a"},{"town":"下長一丁目","koaza":"","lat":40.529073,"lng":141.469484,"version":"14.0b/19.0a"},{"town":"下長二丁目","koaza":"","lat":40.532816,"lng":141.475188,"version":"14.0b/19.0a"},{"town":"下長六丁目","koaza":"","lat":40.534705,"lng":141.482623,"version":"14.0b/19.0a"},{"town":"下長七丁目","koaza":"","lat":40.534152,"lng":141.486265,"version":"14.0b/19.0a"},{"town":"下長八丁目","koaza":"","lat":40.536417,"lng":141.485904,"version":"14.0b/19.0a"},{"town":"白銀一丁目","koaza":"","lat":40.522835,"lng":141.541258,"version":"14.0b/19.0a"},{"town":"白銀二丁目","koaza":"","lat":40.523387,"lng":141.544615,"version":"14.0b/19.0a"},{"town":"白銀三丁目","koaza":"","lat":40.521337,"lng":141.545147,"version":"14.0b/19.0a"},{"town":"白銀四丁目","koaza":"","lat":40.52257,"lng":141.548658,"version":"14.0b/19.0a"},{"town":"白銀五丁目","koaza":"","lat":40.524405,"lng":141.549587,"version":"14.0b/19.0a"},{"town":"白銀台一丁目","koaza":"","lat":40.515537,"lng":141.554637,"version":"14.0b/19.0a"},{"town":"白銀台二丁目","koaza":"","lat":40.51604,"lng":141.557694,"version":"14.0b/19.0a"},{"town":"白銀台三丁目","koaza":"","lat":40.513958,"lng":141.558458,"version":"14.0b/19.0a"},{"town":"白銀台四丁目","koaza":"","lat":40.515101,"lng":141.561216,"version":"14.0b/19.0a"},{"town":"白銀台五丁目","koaza":"","lat":40.516801,"lng":141.560582,"version":"14.0b/19.0a"},{"town":"白銀台六丁目","koaza":"","lat":40.515917,"lng":141.562931,"version":"14.0b/19.0a"},{"town":"白銀台七丁目","koaza":"","lat":40.513848,"lng":141.562224,"version":"14.0b/19.0a"},{"town":"城下一丁目","koaza":"","lat":40.517563,"lng":141.493183,"version":"14.0b/19.0a"},{"town":"城下二丁目","koaza":"","lat":40.519081,"lng":141.48382,"version":"14.0b/19.0a"},{"town":"城下三丁目","koaza":"","lat":40.521528,"lng":141.484834,"version":"14.0b/19.0a"},{"town":"城下四丁目","koaza":"","lat":40.520697,"lng":141.493797,"version":"14.0b/19.0a"},{"town":"新湊一丁目","koaza":"","lat":40.527716,"lng":141.525035,"version":"14.0b/19.0a"},{"town":"新湊二丁目","koaza":"","lat":40.525703,"lng":141.528603,"version":"14.0b/19.0a"},{"town":"新湊三丁目","koaza":"","lat":40.528891,"lng":141.526084,"version":"14.0b/19.0a"},{"town":"諏訪一丁目","koaza":"","lat":40.517029,"lng":141.519496,"version":"14.0b/19.0a"},{"town":"諏訪二丁目","koaza":"","lat":40.511864,"lng":141.517646,"version":"14.0b/19.0a"},{"town":"諏訪三丁目","koaza":"","lat":40.509353,"lng":141.515336,"version":"14.0b/19.0a"},{"town":"高州一丁目","koaza":"","lat":40.537664,"lng":141.480597,"version":"14.0b/19.0a"},{"town":"多賀台一丁目","koaza":"","lat":40.583834,"lng":141.441062,"version":"14.0b/19.0a"},{"town":"多賀台二丁目","koaza":"","lat":40.585516,"lng":141.440265,"version":"14.0b/19.0a"},{"town":"多賀台三丁目","koaza":"","lat":40.587715,"lng":141.441681,"version":"14.0b/19.0a"},{"town":"多賀台四丁目","koaza":"","lat":40.588989,"lng":141.441297,"version":"14.0b/19.0a"},{"town":"築港街一丁目","koaza":"","lat":40.526071,"lng":141.542588,"version":"14.0b/19.0a"},{"town":"築港街二丁目","koaza":"","lat":40.527887,"lng":141.546618,"version":"14.0b/19.0a"},{"town":"築港街第一ふ頭","koaza":"","lat":40.529392,"lng":141.544348,"version":"14.0b/19.0a"},{"town":"長者一丁目","koaza":"","lat":40.502999,"lng":141.490415,"version":"14.0b/19.0a"},{"town":"長者二丁目","koaza":"","lat":40.499154,"lng":141.491233,"version":"14.0b/19.0a"},{"town":"長者三丁目","koaza":"","lat":40.500951,"lng":141.485029,"version":"14.0b/19.0a"},{"town":"長者四丁目","koaza":"","lat":40.498935,"lng":141.483303,"version":"14.0b/19.0a"},{"town":"豊洲","koaza":"","lat":40.537111,"lng":141.513555,"version":"14.0b/19.0a"},{"town":"長苗代一丁目","koaza":"","lat":40.519587,"lng":141.469109,"version":"14.0b/19.0a"},{"town":"長苗代二丁目","koaza":"","lat":40.524674,"lng":141.468833,"version":"14.0b/19.0a"},{"town":"長苗代三丁目","koaza":"","lat":40.52285,"lng":141.473863,"version":"14.0b/19.0a"},{"town":"長苗代四丁目","koaza":"","lat":40.520295,"lng":141.47356,"version":"14.0b/19.0a"},{"town":"長根一丁目","koaza":"","lat":40.511332,"lng":141.47938,"version":"14.0b/19.0a"},{"town":"長根二丁目","koaza":"","lat":40.514304,"lng":141.476152,"version":"14.0b/19.0a"},{"town":"南郷大字泥障作","koaza":"","lat":40.42681,"lng":141.451682,"version":"14.0b/19.0a"},{"town":"南郷大字泉清水","koaza":"","lat":40.37518,"lng":141.39068,"version":"14.0b/19.0a"},{"town":"南郷大字市野沢","koaza":"","lat":40.401711,"lng":141.445821,"version":"14.0b/19.0a"},{"town":"南郷大字大森","koaza":"","lat":40.379951,"lng":141.425959,"version":"14.0b/19.0a"},{"town":"南郷大字頃巻沢","koaza":"","lat":40.434192,"lng":141.473165,"version":"14.0b/19.0a"},{"town":"南郷大字島守","koaza":"","lat":40.394751,"lng":141.495641,"version":"14.0b/19.0a"},{"town":"南郷大字中野","koaza":"","lat":40.403681,"lng":141.410179,"version":"14.0b/19.0a"},{"town":"新井田西一丁目","koaza":"","lat":40.504213,"lng":141.520155,"version":"14.0b/19.0a"},{"town":"新井田西二丁目","koaza":"","lat":40.500901,"lng":141.520182,"version":"14.0b/19.0a"},{"town":"新井田西三丁目","koaza":"","lat":40.497284,"lng":141.516589,"version":"14.0b/19.0a"},{"town":"新井田西四丁目","koaza":"","lat":40.500129,"lng":141.51555,"version":"14.0b/19.0a"},{"town":"西白山台一丁目","koaza":"","lat":40.482253,"lng":141.454038,"version":"14.0b/19.0a"},{"town":"西白山台二丁目","koaza":"","lat":40.481661,"lng":141.449937,"version":"14.0b/19.0a"},{"town":"西白山台三丁目","koaza":"","lat":40.479313,"lng":141.457507,"version":"14.0b/19.0a"},{"town":"西白山台四丁目","koaza":"","lat":40.477479,"lng":141.454886,"version":"14.0b/19.0a"},{"town":"西白山台五丁目","koaza":"","lat":40.473832,"lng":141.458578,"version":"14.0b/19.0a"},{"town":"西白山台六丁目","koaza":"","lat":40.476076,"lng":141.452349,"version":"14.0b/19.0a"},{"town":"沼館一丁目","koaza":"","lat":40.524376,"lng":141.494512,"version":"14.0b/19.0a"},{"town":"沼館二丁目","koaza":"","lat":40.526045,"lng":141.486907,"version":"14.0b/19.0a"},{"town":"沼館三丁目","koaza":"","lat":40.530851,"lng":141.489674,"version":"14.0b/19.0a"},{"town":"沼館四丁目","koaza":"","lat":40.529141,"lng":141.497283,"version":"14.0b/19.0a"},{"town":"根城一丁目","koaza":"","lat":40.504449,"lng":141.480164,"version":"14.0b/19.0a"},{"town":"根城二丁目","koaza":"","lat":40.500634,"lng":141.479576,"version":"14.0b/19.0a"},{"town":"根城三丁目","koaza":"","lat":40.504128,"lng":141.475305,"version":"14.0b/19.0a"},{"town":"根城四丁目","koaza":"","lat":40.506615,"lng":141.47582,"version":"14.0b/19.0a"},{"town":"根城五丁目","koaza":"","lat":40.507045,"lng":141.469001,"version":"14.0b/19.0a"},{"town":"根城六丁目","koaza":"","lat":40.504324,"lng":141.469333,"version":"14.0b/19.0a"},{"town":"根城七丁目","koaza":"","lat":40.501567,"lng":141.467757,"version":"14.0b/19.0a"},{"town":"根城八丁目","koaza":"","lat":40.505332,"lng":141.463674,"version":"14.0b/19.0a"},{"town":"根城九丁目","koaza":"","lat":40.510166,"lng":141.467433,"version":"14.0b/19.0a"},{"town":"八太郎一丁目","koaza":"","lat":40.537777,"lng":141.492251,"version":"14.0b/19.0a"},{"town":"八太郎二丁目","koaza":"","lat":40.538063,"lng":141.489404,"version":"14.0b/19.0a"},{"town":"八太郎五丁目","koaza":"","lat":40.542213,"lng":141.493829,"version":"14.0b/19.0a"},{"town":"八太郎六丁目","koaza":"","lat":40.542103,"lng":141.498681,"version":"14.0b/19.0a"},{"town":"東白山台一丁目","koaza":"","lat":40.488818,"lng":141.468962,"version":"14.0b/19.0a"},{"town":"東白山台二丁目","koaza":"","lat":40.486521,"lng":141.472167,"version":"14.0b/19.0a"},{"town":"東白山台三丁目","koaza":"","lat":40.484073,"lng":141.464663,"version":"14.0b/19.0a"},{"town":"東白山台四丁目","koaza":"","lat":40.480529,"lng":141.470417,"version":"14.0b/19.0a"},{"town":"吹上一丁目","koaza":"","lat":40.505183,"lng":141.497324,"version":"14.0b/19.0a"},{"town":"吹上二丁目","koaza":"","lat":40.500064,"lng":141.499993,"version":"14.0b/19.0a"},