[{"town":"基線","koaza":"","lat":43.879699,"lng":142.500214,"version":"13.0b/18.0a"},{"town":"北十線","koaza":"","lat":43.932865,"lng":142.476234,"version":"13.0b/18.0a"},{"town":"北十一線","koaza":"","lat":43.938656,"lng":142.474411,"version":"13.0b/18.0a"},{"town":"北十二線","koaza":"","lat":43.940816,"lng":142.467066,"version":"13.0b/18.0a"},{"town":"北十三線","koaza":"","lat":43.943969,"lng":142.46168,"version":"13.0b/18.0a"},{"town":"北十四線","koaza":"","lat":43.948823,"lng":142.45942,"version":"13.0b/18.0a"},{"town":"北十五線","koaza":"","lat":43.953363,"lng":142.454125,"version":"13.0b/18.0a"},{"town":"北一線","koaza":"","lat":43.895453,"lng":142.510299,"version":"13.0b/18.0a"},{"town":"北二線","koaza":"","lat":43.901077,"lng":142.507856,"version":"13.0b/18.0a"},{"town":"北三線","koaza":"","lat":43.894101,"lng":142.4895,"version":"13.0b/18.0a"},{"town":"北四線","koaza":"","lat":43.899108,"lng":142.486381,"version":"13.0b/18.0a"},{"town":"北五線","koaza":"","lat":43.904668,"lng":142.48405,"version":"13.0b/18.0a"},{"town":"北六線","koaza":"","lat":43.909278,"lng":142.480643,"version":"13.0b/18.0a"},{"town":"北七線","koaza":"","lat":43.915497,"lng":142.479163,"version":"13.0b/18.0a"},{"town":"北八線","koaza":"","lat":43.922525,"lng":142.47883,"version":"13.0b/18.0a"},{"town":"北九線","koaza":"","lat":43.926299,"lng":142.475671,"version":"13.0b/18.0a"},{"town":"北町一丁目","koaza":"","lat":43.875526,"lng":142.477924,"version":"13.0b/18.0a"},{"town":"北町二丁目","koaza":"","lat":43.876749,"lng":142.479409,"version":"13.0b/18.0a"},{"town":"北町三丁目","koaza":"","lat":43.877931,"lng":142.48101,"version":"13.0b/18.0a"},{"town":"寿町一丁目","koaza":"","lat":43.877284,"lng":142.475274,"version":"13.0b/18.0a"},{"town":"寿町二丁目","koaza":"","lat":43.878521,"lng":142.476329,"version":"13.0b/18.0a"},{"town":"寿町三丁目","koaza":"","lat":43.879504,"lng":142.478584,"version":"13.0b/18.0a"},{"town":"寿町四丁目","koaza":"","lat":43.88092,"lng":142.479983,"version":"13.0b/18.0a"},{"town":"寿町五丁目","koaza":"","lat":43.882141,"lng":142.481545,"version":"13.0b/18.0a"},{"town":"寿町六丁目","koaza":"","lat":43.883376,"lng":142.483119,"version":"13.0b/18.0a"},{"town":"新町一丁目","koaza":"","lat":43.86754,"lng":142.477106,"version":"13.0b/18.0a"},{"town":"新町二丁目","koaza":"","lat":43.867597,"lng":142.479666,"version":"13.0b/18.0a"},{"town":"新町三丁目","koaza":"","lat":43.868593,"lng":142.481775,"version":"13.0b/18.0a"},{"town":"新町四丁目","koaza":"","lat":43.869409,"lng":142.483689,"version":"13.0b/18.0a"},{"town":"新町五丁目","koaza":"","lat":43.871765,"lng":142.483048,"version":"13.0b/18.0a"},{"town":"中町一丁目","koaza":"","lat":43.872979,"lng":142.474738,"version":"13.0b/18.0a"},{"town":"中町二丁目","koaza":"","lat":43.874348,"lng":142.476076,"version":"13.0b/18.0a"},{"town":"西町一丁目","koaza":"","lat":43.873052,"lng":142.471714,"version":"13.0b/18.0a"},{"town":"西町二丁目","koaza":"","lat":43.874308,"lng":142.472613,"version":"13.0b/18.0a"},{"town":"西町三丁目","koaza":"","lat":43.875286,"lng":142.473227,"version":"13.0b/18.0a"},{"town":"西町四丁目","koaza":"","lat":43.876953,"lng":142.47289,"version":"13.0b/18.0a"},{"town":"東町一丁目","koaza":"","lat":43.87381,"lng":142.480473,"version":"13.0b/18.0a"},{"town":"東町二丁目","koaza":"","lat":43.874992,"lng":142.482021,"version":"13.0b/18.0a"},{"town":"東町三丁目","koaza":"","lat":43.876226,"lng":142.483584,"version":"13.0b/18.0a"},{"town":"緑町一丁目","koaza":"","lat":43.86871,"lng":142.474436,"version":"13.0b/18.0a"},{"town":"緑町二丁目","koaza":"","lat":43.870693,"lng":142.471674,"version":"13.0b/18.0a"},{"town":"緑町三丁目","koaza":"","lat":43.87194,"lng":142.473311,"version":"13.0b/18.0a"},{"town":"南一線","koaza":"","lat":43.86599,"lng":142.495087,"version":"13.0b/18.0a"},{"town":"南町一丁目","koaza":"","lat":43.870213,"lng":142.475711,"version":"13.0b/18.0a"},{"town":"南町二丁目","koaza":"","lat":43.871369,"lng":142.477307,"version":"13.0b/18.0a"},{"town":"南町三丁目","koaza":"","lat":43.872595,"lng":142.478865,"version":"13.0b/18.0a"},{"town":"基線","koaza":"","lat":43.879699,"lng":142.500214,"version":"14.0b/19.0a"},{"town":"北十線","koaza":"","lat":43.932865,"lng":142.476234,"version":"14.0b/19.0a"},{"town":"北十一線","koaza":"","lat":43.938656,"lng":142.474411,"version":"14.0b/19.0a"},{"town":"北十二線","koaza":"","lat":43.940816,"lng":142.467066,"version":"14.0b/19.0a"},{"town":"北十三線","koaza":"","lat":43.943969,"lng":142.46168,"version":"14.0b/19.0a"},{"town":"北十四線","koaza":"","lat":43.948823,"lng":142.45942,"version":"14.0b/19.0a"},{"town":"北十五線","koaza":"","lat":43.953363,"lng":142.454125,"version":"14.0b/19.0a"},{"town":"北一線","koaza":"","lat":43.895453,"lng":142.510299,"version":"14.0b/19.0a"},{"town":"北二線","koaza":"","lat":43.901077,"lng":142.507856,"version":"14.0b/19.0a"},{"town":"北三線","koaza":"","lat":43.894101,"lng":142.4895,"version":"14.0b/19.0a"},{"town":"北四線","koaza":"","lat":43.899108,"lng":142.486381,"version":"14.0b/19.0a"},{"town":"北五線","koaza":"","lat":43.904668,"lng":142.48405,"version":"14.0b/19.0a"},{"town":"北六線","koaza":"","lat":43.909278,"lng":142.480643,"version":"14.0b/19.0a"},{"town":"北七線","koaza":"","lat":43.915497,"lng":142.479163,"version":"14.0b/19.0a"},{"town":"北八線","koaza":"","lat":43.922525,"lng":142.47883,"version":"14.0b/19.0a"},{"town":"北九線","koaza":"","lat":43.926299,"lng":142.475671,"version":"14.0b/19.0a"},{"town":"北町一丁目","koaza":"","lat":43.875526,"lng":142.477924,"version":"14.0b/19.0a"},{"town":"北町二丁目","koaza":"","lat":43.876749,"lng":142.479409,"version":"14.0b/19.0a"},{"town":"北町三丁目","koaza":"","lat":43.877931,"lng":142.48101,"version":"14.0b/19.0a"},{"town":"寿町一丁目","koaza":"","lat":43.877284,"lng":142.475274,"version":"14.0b/19.0a"},{"town":"寿町二丁目","koaza":"","lat":43.878521,"lng":142.476329,"version":"14.0b/19.0a"},{"town":"寿町三丁目","koaza":"","lat":43.879504,"lng":142.478584,"version":"14.0b/19.0a"},{"town":"寿町四丁目","koaza":"","lat":43.88092,"lng":142.479983,"version":"14.0b/19.0a"},{"town":"寿町五丁目","koaza":"","lat":43.882141,"lng":142.481545,"version":"14.0b/19.0a"},{"town":"寿町六丁目","koaza":"","lat":43.883376,"lng":142.483119,"version":"14.0b/19.0a"},{"town":"新町一丁目","koaza":"","lat":43.86754,"lng":142.477106,"version":"14.0b/19.0a"},{"town":"新町二丁目","koaza":"","lat":43.867597,"lng":142.479666,"version":"14.0b/19.0a"},{"town":"新町三丁目","koaza":"","lat":43.868593,"lng":142.481775,"version":"14.0b/19.0a"},{"town":"新町四丁目","koaza":"","lat":43.869409,"lng":142.483689,"version":"14.0b/19.0a"},{"town":"新町五丁目","koaza":"","lat":43.871765,"lng":142.483048,"version":"14.0b/19.0a"},{"town":"中町一丁目","koaza":"","lat":43.872979,"lng":142.474738,"version":"14.0b/19.0a"},{"town":"中町二丁目","koaza":"","lat":43.874348,"lng":142.476076,"version":"14.0b/19.0a"},{"town":"西町一丁目","koaza":"","lat":43.873052,"lng":142.471714,"version":"14.0b/19.0a"},{"town":"西町二丁目","koaza":"","lat":43.874308,"lng":142.472613,"version":"14.0b/19.0a"},{"town":"西町三丁目","koaza":"","lat":43.875286,"lng":142.473227,"version":"14.0b/19.0a"},{"town":"西町四丁目","koaza":"","lat":43.876953,"lng":142.47289,"version":"14.0b/19.0a"},{"town":"東町一丁目","koaza":"","lat":43.87381,"lng":142.480473,"version":"14.0b/19.0a"},{"town":"東町二丁目","koaza":"","lat":43.874992,"lng":142.482021,"version":"14.0b/19.0a"},{"town":"東町三丁目","koaza":"","lat":43.876226,"lng":142.483584,"version":"14.0b/19.0a"},{"town":"緑町一丁目","koaza":"","lat":43.86871,"lng":142.474436,"version":"14.0b/19.0a"},{"town":"緑町二丁目","koaza":"","lat":43.870693,"lng":142.471674,"version":"14.0b/19.0a"},{"town":"緑町三丁目","koaza":"","lat":43.87194,"lng":142.473311,"version":"14.0b/19.0a"},{"town":"南一線","koaza":"","lat":43.86599,"lng":142.495087,"version":"14.0b/19.0a"},{"town":"南町一丁目","koaza":"","lat":43.870213,"lng":142.475711,"version":"14.0b/19.0a"},{"town":"南町二丁目","koaza":"","lat":43.871369,"lng":142.477307,"version":"14.0b/19.0a"},{"town":"南町三丁目","koaza":"","lat":43.872595,"lng":142.478865,"version":"14.0b/19.0a"}]