[{"town":"十号","koaza":"","lat":43.702455,"lng":142.437248,"version":"13.0b/18.0a"},{"town":"十一号","koaza":"","lat":43.694879,"lng":142.437635,"version":"13.0b/18.0a"},{"town":"十二号","koaza":"","lat":43.690713,"lng":142.441967,"version":"13.0b/18.0a"},{"town":"十三号","koaza":"","lat":43.688692,"lng":142.45155,"version":"13.0b/18.0a"},{"town":"十四号","koaza":"","lat":43.693918,"lng":142.463511,"version":"13.0b/18.0a"},{"town":"十五号","koaza":"","lat":43.694855,"lng":142.470667,"version":"13.0b/18.0a"},{"town":"十六号","koaza":"","lat":43.692975,"lng":142.477237,"version":"13.0b/18.0a"},{"town":"十七号","koaza":"","lat":43.691077,"lng":142.483838,"version":"13.0b/18.0a"},{"town":"十八号","koaza":"","lat":43.690662,"lng":142.490615,"version":"13.0b/18.0a"},{"town":"十九号","koaza":"","lat":43.68965,"lng":142.497345,"version":"13.0b/18.0a"},{"town":"二十号","koaza":"","lat":43.687145,"lng":142.502548,"version":"13.0b/18.0a"},{"town":"二十一号","koaza":"","lat":43.687227,"lng":142.510569,"version":"13.0b/18.0a"},{"town":"二十二号","koaza":"","lat":43.685313,"lng":142.516,"version":"13.0b/18.0a"},{"town":"二十三号","koaza":"","lat":43.681438,"lng":142.520581,"version":"13.0b/18.0a"},{"town":"二十四号","koaza":"","lat":43.677922,"lng":142.525513,"version":"13.0b/18.0a"},{"town":"二十五号","koaza":"","lat":43.673891,"lng":142.531804,"version":"13.0b/18.0a"},{"town":"二十六号","koaza":"","lat":43.67096,"lng":142.538513,"version":"13.0b/18.0a"},{"town":"二十七号","koaza":"","lat":43.669572,"lng":142.543748,"version":"13.0b/18.0a"},{"town":"三号","koaza":"","lat":43.724461,"lng":142.400296,"version":"13.0b/18.0a"},{"town":"四号","koaza":"","lat":43.721149,"lng":142.403758,"version":"13.0b/18.0a"},{"town":"五号","koaza":"","lat":43.715241,"lng":142.408348,"version":"13.0b/18.0a"},{"town":"六号","koaza":"","lat":43.715997,"lng":142.418692,"version":"13.0b/18.0a"},{"town":"七号","koaza":"","lat":43.712939,"lng":142.422489,"version":"13.0b/18.0a"},{"town":"八号","koaza":"","lat":43.709644,"lng":142.427571,"version":"13.0b/18.0a"},{"town":"九号","koaza":"","lat":43.706211,"lng":142.432585,"version":"13.0b/18.0a"},{"town":"字栄岡","koaza":"","lat":43.654947,"lng":142.555862,"version":"13.0b/18.0a"},{"town":"字栄岡十線","koaza":"","lat":43.640176,"lng":142.563857,"version":"13.0b/18.0a"},{"town":"字栄岡八線","koaza":"","lat":43.65457,"lng":142.545019,"version":"13.0b/18.0a"},{"town":"字栄岡九線","koaza":"","lat":43.653161,"lng":142.551032,"version":"13.0b/18.0a"},{"town":"字志比内","koaza":"","lat":43.640103,"lng":142.586655,"version":"13.0b/18.0a"},{"town":"字八千代ケ岡","koaza":"","lat":43.650209,"lng":142.502696,"version":"13.0b/18.0a"},{"town":"字八千代ケ岡二線","koaza":"","lat":43.661484,"lng":142.5017,"version":"13.0b/18.0a"},{"town":"字八千代ケ岡三線","koaza":"","lat":43.655128,"lng":142.510084,"version":"13.0b/18.0a"},{"town":"字八千代ケ岡四線","koaza":"","lat":43.656051,"lng":142.516843,"version":"13.0b/18.0a"},{"town":"字八千代ケ岡五線","koaza":"","lat":43.657361,"lng":142.523439,"version":"13.0b/18.0a"},{"town":"字八千代ケ岡六線","koaza":"","lat":43.658235,"lng":142.530227,"version":"13.0b/18.0a"},{"town":"字八千代ケ岡七線","koaza":"","lat":43.656234,"lng":142.537658,"version":"13.0b/18.0a"},{"town":"基線","koaza":"","lat":43.700215,"lng":142.40581,"version":"13.0b/18.0a"},{"town":"北一条西一丁目","koaza":"","lat":43.69915,"lng":142.453437,"version":"13.0b/18.0a"},{"town":"北一条西二丁目","koaza":"","lat":43.700732,"lng":142.45076,"version":"13.0b/18.0a"},{"town":"北一条西三丁目","koaza":"","lat":43.702226,"lng":142.44787,"version":"13.0b/18.0a"},{"town":"北一条西四丁目","koaza":"","lat":43.703827,"lng":142.44518,"version":"13.0b/18.0a"},{"town":"北一条東一丁目","koaza":"","lat":43.698384,"lng":142.455603,"version":"13.0b/18.0a"},{"town":"北一条東二丁目","koaza":"","lat":43.6981,"lng":142.458546,"version":"13.0b/18.0a"},{"town":"北二条西三丁目","koaza":"","lat":43.703759,"lng":142.449746,"version":"13.0b/18.0a"},{"town":"北二条西四丁目","koaza":"","lat":43.705453,"lng":142.446852,"version":"13.0b/18.0a"},{"town":"北二条東二丁目","koaza":"","lat":43.700148,"lng":142.459067,"version":"13.0b/18.0a"},{"town":"北三条東二丁目","koaza":"","lat":43.703065,"lng":142.460405,"version":"13.0b/18.0a"},{"town":"東一線","koaza":"","lat":43.681799,"lng":142.43213,"version":"13.0b/18.0a"},{"town":"東二線","koaza":"","lat":43.663666,"lng":142.468179,"version":"13.0b/18.0a"},{"town":"東三線","koaza":"","lat":43.665111,"lng":142.475913,"version":"13.0b/18.0a"},{"town":"東四線","koaza":"","lat":43.666306,"lng":142.484599,"version":"13.0b/18.0a"},{"town":"東五線","koaza":"","lat":43.666033,"lng":142.492806,"version":"13.0b/18.0a"},{"town":"ひじり野北一条十丁目","koaza":"","lat":43.728494,"lng":142.401995,"version":"13.0b/18.0a"},{"town":"ひじり野北一条一丁目","koaza":"","lat":43.719445,"lng":142.417729,"version":"13.0b/18.0a"},{"town":"ひじり野北一条二丁目","koaza":"","lat":43.720579,"lng":142.415752,"version":"13.0b/18.0a"},{"town":"ひじり野北一条三丁目","koaza":"","lat":43.721671,"lng":142.413493,"version":"13.0b/18.0a"},{"town":"ひじり野北一条四丁目","koaza":"","lat":43.722735,"lng":142.412515,"version":"13.0b/18.0a"},{"town":"ひじり野北一条五丁目","koaza":"","lat":43.723561,"lng":142.410158,"version":"13.0b/18.0a"},{"town":"ひじり野北一条六丁目","koaza":"","lat":43.724519,"lng":142.408864,"version":"13.0b/18.0a"},{"town":"ひじり野北一条七丁目","koaza":"","lat":43.725499,"lng":142.407059,"version":"13.0b/18.0a"},{"town":"ひじり野北一条八丁目","koaza":"","lat":43.726403,"lng":142.405441,"version":"13.0b/18.0a"},{"town":"ひじり野北一条九丁目","koaza":"","lat":43.727372,"lng":142.403788,"version":"13.0b/18.0a"},{"town":"ひじり野北二条十丁目","koaza":"","lat":43.729947,"lng":142.403331,"version":"13.0b/18.0a"},{"town":"ひじり野北二条一丁目","koaza":"","lat":43.721345,"lng":142.419781,"version":"13.0b/18.0a"},{"town":"ひじり野北二条二丁目","koaza":"","lat":43.722355,"lng":142.41766,"version":"13.0b/18.0a"},{"town":"ひじり野北二条三丁目","koaza":"","lat":43.723361,"lng":142.415858,"version":"13.0b/18.0a"},{"town":"ひじり野北二条四丁目","koaza":"","lat":43.724252,"lng":142.41414,"version":"13.0b/18.0a"},{"town":"ひじり野北二条五丁目","koaza":"","lat":43.725604,"lng":142.412407,"version":"13.0b/18.0a"},{"town":"ひじり野北二条六丁目","koaza":"","lat":43.726354,"lng":142.410302,"version":"13.0b/18.0a"},{"town":"ひじり野北二条七丁目","koaza":"","lat":43.727212,"lng":142.408593,"version":"13.0b/18.0a"},{"town":"ひじり野北二条八丁目","koaza":"","lat":43.727933,"lng":142.406812,"version":"13.0b/18.0a"},{"town":"ひじり野北二条九丁目","koaza":"","lat":43.728876,"lng":142.405441,"version":"13.0b/18.0a"},{"town":"ひじり野南一条十丁目","koaza":"","lat":43.727512,"lng":142.401211,"version":"13.0b/18.0a"},{"town":"ひじり野南一条一丁目","koaza":"","lat":43.717946,"lng":142.416149,"version":"13.0b/18.0a"},{"town":"ひじり野南一条二丁目","koaza":"","lat":43.718873,"lng":142.414277,"version":"13.0b/18.0a"},{"town":"ひじり野南一条三丁目","koaza":"","lat":43.720439,"lng":142.412685,"version":"13.0b/18.0a"},{"town":"ひじり野南一条四丁目","koaza":"","lat":43.721093,"lng":142.410483,"version":"13.0b/18.0a"},{"town":"ひじり野南一条五丁目","koaza":"","lat":43.722369,"lng":142.408922,"version":"13.0b/18.0a"},{"town":"ひじり野南一条六丁目","koaza":"","lat":43.723115,"lng":142.406779,"version":"13.0b/18.0a"},{"town":"ひじり野南一条七丁目","koaza":"","lat":43.724587,"lng":142.40541,"version":"13.0b/18.0a"},{"town":"ひじり野南一条八丁目","koaza":"","lat":43.725457,"lng":142.404163,"version":"13.0b/18.0a"},{"town":"ひじり野南一条九丁目","koaza":"","lat":43.726419,"lng":142.402876,"version":"13.0b/18.0a"},{"town":"ひじり野南二条一丁目","koaza":"","lat":43.716468,"lng":142.41486,"version":"13.0b/18.0a"},{"town":"ひじり野南二条二丁目","koaza":"","lat":43.717892,"lng":142.412788,"version":"13.0b/18.0a"},{"town":"ひじり野南二条三丁目","koaza":"","lat":43.718947,"lng":142.41096,"version":"13.0b/18.0a"},{"town":"ひじり野南二条四丁目","koaza":"","lat":43.719959,"lng":142.409039,"version":"13.0b/18.0a"},{"town":"ひじり野南二条五丁目","koaza":"","lat":43.720996,"lng":142.40762,"version":"13.0b/18.0a"},{"town":"ひじり野南三条一丁目","koaza":"","lat":43.714953,"lng":142.413521,"version":"13.0b/18.0a"},{"town":"ひじり野南三条二丁目","koaza":"","lat":43.716156,"lng":142.41076,"version":"13.0b/18.0a"},{"town":"ひじり野南三条三丁目","koaza":"","lat":43.717646,"lng":142.409669,"version":"13.0b/18.0a"},{"town":"ひじり野南三条四丁目","koaza":"","lat":43.718646,"lng":142.408451,"version":"13.0b/18.0a"},{"town":"ひじり野南三条五丁目","koaza":"","lat":43.720031,"lng":142.40728,"version":"13.0b/18.0a"},{"town":"南十三号","koaza":"","lat":43.677266,"lng":142.46836,"version":"13.0b/18.0a"},{"town":"南一条西一丁目","koaza":"","lat":43.697244,"lng":142.451279,"version":"13.0b/18.0a"},{"town":"南一条西二丁目","koaza":"","lat":43.698788,"lng":142.448595,"version":"13.0b/18.0a"},{"town":"南一条西三丁目","koaza":"","lat":43.700365,"lng":142.445843,"version":"13.0b/18.0a"},{"town":"南一条西四丁目","koaza":"","lat":43.701349,"lng":142.443997,"version":"13.0b/18.0a"},{"town":"南一条東一丁目","koaza":"","lat":43.696058,"lng":142.454044,"version":"13.0b/18.0a"},{"town":"南一条東二丁目","koaza":"","lat":43.695627,"lng":142.458014,"version":"13.0b/18.0a"},{"town":"南一番通","koaza":"","lat":43.678468,"lng":142.512168,"version":"13.0b/18.0a"},{"town":"南二条西一丁目","koaza":"","lat":43.695525,"lng":142.449461,"version":"13.0b/18.0a"},{"town":"南二条西二丁目","koaza":"","lat":43.697134,"lng":142.446727,"version":"13.0b/18.0a"},{"town":"南二条東一丁目","koaza":"","lat":43.693974,"lng":142.452838,"version":"13.0b/18.0a"},{"town":"南二条東二丁目","koaza":"","lat":43.693414,"lng":142.455768,"version":"13.0b/18.0a"},{"town":"南二線","koaza":"","lat":43.683434,"lng":142.482773,"version":"13.0b/18.0a"},{"town":"南三条東一丁目","koaza":"","lat":43.692945,"lng":142.450629,"version":"13.0b/18.0a"},{"town":"南三線","koaza":"","lat":43.678624,"lng":142.488547,"version":"13.0b/18.0a"},{"town":"南四線","koaza":"","lat":43.673091,"lng":142.497129,"version":"13.0b/18.0a"},{"town":"南五線","koaza":"","lat":43.668555,"lng":142.499022,"version":"13.0b/18.0a"},{"town":"基線","koaza":"一号","lat":43.719068,"lng":142.395044,"version":"13.0b/18.0a"},{"town":"東一線","koaza":"一号","lat":43.721586,"lng":142.395474,"version":"13.0b/18.0a"},{"town":"三号","koaza":"南","lat":43.724272,"lng":142.401748,"version":"13.0b/18.0a"},{"town":"基線","koaza":"三号","lat":43.711789,"lng":142.399265,"version":"13.0b/18.0a"},{"town":"東一線","koaza":"二号","lat":43.717633,"lng":142.399745,"version":"13.0b/18.0a"},{"town":"東一線","koaza":"三号","lat":43.711708,"lng":142.401233,"version":"13.0b/18.0a"},{"town":"基線","koaza":"四号","lat":43.706394,"lng":142.401246,"version":"13.0b/18.0a"},{"town":"四号","koaza":"南","lat":43.721004,"lng":142.403885,"version":"13.0b/18.0a"},{"town":"東一線","koaza":"四号","lat":43.708152,"lng":142.408562,"version":"13.0b/18.0a"},{"town":"基線","koaza":"五号","lat":43.70334,"lng":142.403094,"version":"13.0b/18.0a"},{"town":"東一線","koaza":"五号","lat":43.702563,"lng":142.406474,"version":"13.0b/18.0a"},{"town":"基線","koaza":"六号","lat":43.697102,"lng":142.406651,"version":"13.0b/18.0a"},{"town":"五号","koaza":"南","lat":43.716707,"lng":142.408621,"version":"13.0b/18.0a"},{"town":"六号","koaza":"南","lat":43.713334,"lng":142.416155,"version":"13.0b/18.0a"},{"town":"東一線","koaza":"六号","lat":43.698548,"lng":142.414074,"version":"13.0b/18.0a"},{"town":"基線","koaza":"七号","lat":43.692085,"lng":142.409184,"version":"13.0b/18.0a"},{"town":"東二線","koaza":"四号","lat":43.709175,"lng":142.410663,"version":"13.0b/18.0a"},{"town":"基線","koaza":"九号","lat":43.688584,"lng":142.412392,"version":"13.0b/18.0a"},{"town":"東一線","koaza":"七号","lat":43.69584,"lng":142.415599,"version":"13.0b/18.0a"},{"town":"東二線","koaza":"五号","lat":43.704792,"lng":142.413313,"version":"13.0b/18.0a"},{"town":"東一線","koaza":"八号","lat":43.692528,"lng":142.417727,"version":"13.0b/18.0a"},{"town":"東一線","koaza":"九号","lat":43.689601,"lng":142.417707,"version":"13.0b/18.0a"},{"town":"七号","koaza":"南","lat":43.711304,"lng":142.420433,"version":"13.0b/18.0a"},{"town":"東二線","koaza":"六号","lat":43.699879,"lng":142.417026,"version":"13.0b/18.0a"},{"town":"東二線","koaza":"七号","lat":43.695262,"lng":142.42068,"version":"13.0b/18.0a"},{"town":"東一線","koaza":"十号","lat":43.687009,"lng":142.421342,"version":"13.0b/18.0a"},{"town":"基線","koaza":"十号","lat":43.684734,"lng":142.418408,"version":"13.0b/18.0a"},{"town":"八号","koaza":"南","lat":43.708253,"lng":142.425842,"version":"13.0b/18.0a"},{"town":"東二線","koaza":"八号","lat":43.694398,"lng":142.422759,"version":"13.0b/18.0a"},{"town":"六号","koaza":"北","lat":43.717275,"lng":142.421205,"version":"13.0b/18.0a"},{"town":"基線","koaza":"十一号","lat":43.681326,"lng":142.423427,"version":"13.0b/18.0a"},{"town":"七号","koaza":"北","lat":43.716009,"lng":142.42328,"version":"13.0b/18.0a"},{"town":"東二線","koaza":"九号","lat":43.693278,"lng":142.423339,"version":"13.0b/18.0a"},{"town":"九号","koaza":"南","lat":43.702483,"lng":142.428526,"version":"13.0b/18.0a"},{"town":"東二線","koaza":"十号","lat":43.693512,"lng":142.42572,"version":"13.0b/18.0a"},{"town":"東一線","koaza":"十一号","lat":43.683447,"lng":142.426576,"version":"13.0b/18.0a"},{"town":"東二線","koaza":"十一号","lat":43.688847,"lng":142.429164,"version":"13.0b/18.0a"},{"town":"十号","koaza":"南","lat":43.698305,"lng":142.431892,"version":"13.0b/18.0a"},{"town":"東一線","koaza":"十二号","lat":43.682024,"lng":142.433666,"version":"13.0b/18.0a"},{"town":"八号","koaza":"北","lat":43.714348,"lng":142.432738,"version":"13.0b/18.0a"},{"town":"十一号","koaza":"南","lat":43.69239,"lng":142.434981,"version":"13.0b/18.0a"},{"town":"基線","koaza":"十二号","lat":43.676994,"lng":142.429949,"version":"13.0b/18.0a"},{"town":"九号","koaza":"北","lat":43.711536,"lng":142.438477,"version":"13.0b/18.0a"},{"town":"十号","koaza":"北","lat":43.711393,"lng":142.447311,"version":"13.0b/18.0a"},{"town":"東二線","koaza":"十六号","lat":43.669199,"lng":142.459094,"version":"13.0b/18.0a"},{"town":"基線","koaza":"二号","lat":43.716024,"lng":142.396191,"version":"13.0b/18.0a"},{"town":"十号","koaza":"","lat":43.702455,"lng":142.437248,"version":"14.0b/19.0a"},{"town":"十一号","koaza":"","lat":43.694879,"lng":142.437635,"version":"14.0b/19.0a"},{"town":"十二号","koaza":"","lat":43.690713,"lng":142.441967,"version":"14.0b/19.0a"},{"town":"十三号","koaza":"","lat":43.688692,"lng":142.45155,"version":"14.0b/19.0a"},{"town":"十四号","koaza":"","lat":43.693918,"lng":142.463511,"version":"14.0b/19.0a"},{"town":"十五号","koaza":"","lat":43.694855,"lng":142.470667,"version":"14.0b/19.0a"},{"town":"十六号","koaza":"","lat":43.692975,"lng":142.477237,"version":"14.0b/19.0a"},{"town":"十七号","koaza":"","lat":43.691077,"lng":142.483838,"version":"14.0b/19.0a"},{"town":"十八号","koaza":"","lat":43.690662,"lng":142.490615,"version":"14.0b/19.0a"},{"town":"十九号","koaza":"","lat":43.68965,"lng":142.497345,"version":"14.0b/19.0a"},{"town":"二十号","koaza":"","lat":43.687145,"lng":142.502548,"version":"14.0b/19.0a"},{"town":"二十一号","koaza":"","lat":43.687227,"lng":142.510569,"version":"14.0b/19.0a"},{"town":"二十二号","koaza":"","lat":43.685313,"lng":142.516,"version":"14.0b/19.0a"},{"town":"二十三号","koaza":"","lat":43.681438,"lng":142.520581,"version":"14.0b/19.0a"},{"town":"二十四号","koaza":"","lat":43.677922,"lng":142.525513,"version":"14.0b/19.0a"},{"town":"二十五号","koaza":"","lat":43.673891,"lng":142.531804,"version":"14.0b/19.0a"},{"town":"二十六号","koaza":"","lat":43.67096,"lng":142.538513,"version":"14.0b/19.0a"},{"town":"二十七号","koaza":"","lat":43.669572,"lng":142.543748,"version":"14.0b/19.0a"},{"town":"三号","koaza":"","lat":43.724461,"lng":142.400296,"version":"14.0b/19.0a"},{"town":"四号","koaza":"","lat":43.721149,"lng":142.403758,"version":"14.0b/19.0a"},{"town":"五号","koaza":"","lat":43.715241,"lng":142.408348,"version":"14.0b/19.0a"},{"town":"六号","koaza":"","lat":43.715997,"lng":142.418692,"version":"14.0b/19.0a"},{"town":"七号","koaza":"","lat":43.712939,"lng":142.422489,"version":"14.0b/19.0a"},{"town":"八号","koaza":"","lat":43.709644,"lng":142.427571,"version":"14.0b/19.0a"},{"town":"九号","koaza":"","lat":43.706211,"lng":142.432585,"version":"14.0b/19.0a"},{"town":"字栄岡","koaza":"","lat":43.654947,"lng":142.555862,"version":"14.0b/19.0a"},{"town":"字栄岡十線","koaza":"","lat":43.640176,"lng":142.563857,"version":"14.0b/19.0a"},{"town":"字栄岡八線","koaza":"","lat":43.65457,"lng":142.545019,"version":"14.0b/19.0a"},{"town":"字栄岡九線","koaza":"","lat":43.653161,"lng":142.551032,"version":"14.0b/19.0a"},{"town":"字志比内","koaza":"","lat":43.640103,"lng":142.586655,"version":"14.0b/19.0a"},{"town":"字八千代ケ岡","koaza":"","lat":43.650209,"lng":142.502696,"version":"14.0b/19.0a"},{"town":"字八千代ケ岡二線","koaza":"","lat":43.661484,"lng":142.5017,"version":"14.0b/19.0a"},{"town":"字八千代ケ岡三線","koaza":"","lat":43.655128,"lng":142.510084,"version":"14.0b/19.0a"},{"town":"字八千代ケ岡四線","koaza":"","lat":43.656051,"lng":142.516843,"version":"14.0b/19.0a"},{"town":"字八千代ケ岡五線","koaza":"","lat":43.657361,"lng":142.523439,"version":"14.0b/19.0a"},{"town":"字八千代ケ岡六線","koaza":"","lat":43.658235,"lng":142.530227,"version":"14.0b/19.0a"},{"town":"字八千代ケ岡七線","koaza":"","lat":43.656234,"lng":142.537658,"version":"14.0b/19.0a"},{"town":"基線","koaza":"","lat":43.700215,"lng":142.40581,"version":"14.0b/19.0a"},{"town":"北一条西一丁目","koaza":"","lat":43.69915,"lng":142.453437,"version":"14.0b/19.0a"},{"town":"北一条西二丁目","koaza":"","lat":43.700732,"lng":142.45076,"version":"14.0b/19.0a"},{"town":"北一条西三丁目","koaza":"","lat":43.702226,"lng":142.44787,"version":"14.0b/19.0a"},{"town":"北一条西四丁目","koaza":"","lat":43.703827,"lng":142.44518,"version":"14.0b/19.0a"},{"town":"北一条東一丁目","koaza":"","lat":43.698384,"lng":142.455603,"version":"14.0b/19.0a"},{"town":"北一条東二丁目","koaza":"","lat":43.6981,"lng":142.458546,"version":"14.0b/19.0a"},{"town":"北二条西三丁目","koaza":"","lat":43.703759,"lng":142.449746,"version":"14.0b/19.0a"},{"town":"北二条西四丁目","koaza":"","lat":43.705453,"lng":142.446852,"version":"14.0b/19.0a"},{"town":"北二条東二丁目","koaza":"","lat":43.700148,"lng":142.459067,"version":"14.0b/19.0a"},{"town":"北三条東二丁目","koaza":"","lat":43.703065,"lng":142.460405,"version":"14.0b/19.0a"},{"town":"東一線","koaza":"","lat":43.681799,"lng":142.43213,"version":"14.0b/19.0a"},{"town":"東二線","koaza":"","lat":43.663666,"lng":142.468179,"version":"14.0b/19.0a"},{"town":"東三線","koaza":"","lat":43.665111,"lng":142.475913,"version":"14.0b/19.0a"},{"town":"東四線","koaza":"","lat":43.666306,"lng":142.484599,"version":"14.0b/19.0a"},{"town":"東五線","koaza":"","lat":43.666033,"lng":142.492806,"version":"14.0b/19.0a"},{"town":"ひじり野北一条十丁目","koaza":"","lat":43.728494,"lng":142.401995,"version":"14.0b/19.0a"},{"town":"ひじり野北一条一丁目","koaza":"","lat":43.719445,"lng":142.417729,"version":"14.0b/19.0a"},{"town":"ひじり野北一条二丁目","koaza":"","lat":43.720579,"lng":142.415752,"version":"14.0b/19.0a"},{"town":"ひじり野北一条三丁目","koaza":"","lat":43.721671,"lng":142.413493,"version":"14.0b/19.0a"},{"town":"ひじり野北一条四丁目","koaza":"","lat":43.722735,"lng":142.412515,"version":"14.0b/19.0a"},{"town":"ひじり野北一条五丁目","koaza":"","lat":43.723561,"lng":142.410158,"version":"14.0b/19.0a"},{"town":"ひじり野北一条六丁目","koaza":"","lat":43.724519,"lng":142.408864,"version":"14.0b/19.0a"},{"town":"ひじり野北一条七丁目","koaza":"","lat":43.725499,"lng":142.407059,"version":"14.0b/19.0a"},{"town":"ひじり野北一条八丁目","koaza":"","lat":43.726403,"lng":142.405441,"version":"14.0b/19.0a"},{"town":"ひじり野北一条九丁目","koaza":"","lat":43.727372,"lng":142.403788,"version":"14.0b/19.0a"},{"town":"ひじり野北二条十丁目","koaza":"","lat":43.729947,"lng":142.403331,"version":"14.0b/19.0a"},{"town":"ひじり野北二条一丁目","koaza":"","lat":43.721345,"lng":142.419781,"version":"14.0b/19.0a"},{"town":"ひじり野北二条二丁目","koaza":"","lat":43.722355,"lng":142.41766,"version":"14.0b/19.0a"},{"town":"ひじり野北二条三丁目","koaza":"","lat":43.723361,"lng":142.415858,"version":"14.0b/19.0a"},{"town":"ひじり野北二条四丁目","koaza":"","lat":43.724252,"lng":142.41414,"version":"14.0b/19.0a"},{"town":"ひじり野北二条五丁目","koaza":"","lat":43.725604,"lng":142.412407,"version":"14.0b/19.0a"},{"town":"ひじり野北二条六丁目","koaza":"","lat":43.726354,"lng":142.410302,"version":"14.0b/19.0a"},{"town":"ひじり野北二条七丁目","koaza":"","lat":43.727212,"lng":142.408593,"version":"14.0b/19.0a"},{"town":"ひじり野北二条八丁目","koaza":"","lat":43.727933,"lng":142.406812,"version":"14.0b/19.0a"},{"town":"ひじり野北二条九丁目","koaza":"","lat":43.728876,"lng":142.405441,"version":"14.0b/19.0a"},{"town":"ひじり野南一条十丁目","koaza":"","lat":43.727512,"lng":142.401211,"version":"14.0b/19.0a"},{"town":"ひじり野南一条一丁目","koaza":"","lat":43.717946,"lng":142.416149,"version":"14.0b/19.0a"},{"town":"ひじり野南一条二丁目","koaza":"","lat":43.718873,"lng":142.414277,"version":"14.0b/19.0a"},{"town":"ひじり野南一条三丁目","koaza":"","lat":43.720439,"lng":142.412685,"version":"14.0b/19.0a"},{"town":"ひじり野南一条四丁目","koaza":"","lat":43.721093,"lng":142.410483,"version":"14.0b/19.0a"},{"town":"ひじり野南一条五丁目","koaza":"","lat":43.722369,"lng":142.408922,"version":"14.0b/19.0a"},{"town":"ひじり野南一条六丁目","koaza":"","lat":43.723115,"lng":142.406779,"version":"14.0b/19.0a"},{"town":"ひじり野南一条七丁目","koaza":"","lat":43.724587,"lng":142.40541,"version":"14.0b/19.0a"},{"town":"ひじり野南一条八丁目","koaza":"","lat":43.725457,"lng":142.404163,"version":"14.0b/19.0a"},{"town":"ひじり野南一条九丁目","koaza":"","lat":43.726419,"lng":142.402876,"version":"14.0b/19.0a"},{"town":"ひじり野南二条一丁目","koaza":"","lat":43.716468,"lng":142.41486,"version":"14.0b/19.0a"},{"town":"ひじり野南二条二丁目","koaza":"","lat":43.717892,"lng":142.412788,"version":"14.0b/19.0a"},{"town":"ひじり野南二条三丁目","koaza":"","lat":43.718947,"lng":142.41096,"version":"14.0b/19.0a"},{"town":"ひじり野南二条四丁目","koaza":"","lat":43.719959,"lng":142.409039,"version":"14.0b/19.0a"},{"town":"ひじり野南二条五丁目","koaza":"","lat":43.720996,"lng":142.40762,"version":"14.0b/19.0a"},{"town":"ひじり野南三条一丁目","koaza":"","lat":43.714953,"lng":142.413521,"version":"14.0b/19.0a"},{"town":"ひじり野南三条二丁目","koaza":"","lat":43.716156,"lng":142.41076,"version":"14.0b/19.0a"},{"town":"ひじり野南三条三丁目","koaza":"","lat":43.717646,"lng":142.409669,"version":"14.0b/19.0a"},{"town":"ひじり野南三条四丁目","koaza":"","lat":43.718646,"lng":142.408451,"version":"14.0b/19.0a"},{"town":"ひじり野南三条五丁目","koaza":"","lat":43.720031,"lng":142.40728,"version":"14.0b/19.0a"},{"town":"南十三号","koaza":"","lat":43.677266,"lng":142.46836,"version":"14.0b/19.0a"},{"town":"南一条西一丁目","koaza":"","lat":43.697244,"lng":142.451279,"version":"14.0b/19.0a"},{"town":"南一条西二丁目","koaza":"","lat":43.698788,"lng":142.448595,"version":"14.0b/19.0a"},{"town":"南一条西三丁目","koaza":"","lat":43.700365,"lng":142.445843,"version":"14.0b/19.0a"},{"town":"南一条西四丁目","koaza":"","lat":43.701349,"lng":142.443997,"version":"14.0b/19.0a"},{"town":"南一条東一丁目","koaza":"","lat":43.696058,"lng":142.454044,"version":"14.0b/19.0a"},{"town":"南一条東二丁目","koaza":"","lat":43.695627,"lng":142.458014,"version":"14.0b/19.0a"},{"town":"南一番通","koaza":"","lat":43.678468,"lng":142.512168,"version":"14.0b/19.0a"},{"town":"南二条西一丁目","koaza":"","lat":43.695525,"lng":142.449461,"version":"14.0b/19.0a"},{"town":"南二条西二丁目","koaza":"","lat":43.697134,"lng":142.446727,"version":"14.0b/19.0a"},{"town":"南二条東一丁目","koaza":"","lat":43.693974,"lng":142.452838,"version":"14.0b/19.0a"},{"town":"南二条東二丁目","koaza":"","lat":43.693414,"lng":142.455768,"version":"14.0b/19.0a"},{"town":"南二線","koaza":"","lat":43.683434,"lng":142.482773,"version":"14.0b/19.0a"},{"town":"南三条東一丁目","koaza":"","lat":43.692945,"lng":142.450629,"version":"14.0b/19.0a"},{"town":"南三線","koaza":"","lat":43.678624,"lng":142.488547,"version":"14.0b/19.0a"},{"town":"南四線","koaza":"","lat":43.673091,"lng":142.497129,"version":"14.0b/19.0a"},{"town":"南五線","koaza":"","lat":43.668555,"lng":142.499022,"version":"14.0b/19.0a"},{"town":"基線","koaza":"一号","lat":43.719068,"lng":142.395044,"version":"14.0b/19.0a"},{"town":"東一線","koaza":"一号","lat":43.721586,"lng":142.395474,"version":"14.0b/19.0a"},{"town":"三号","koaza":"南","lat":43.724272,"lng":142.401748,"version":"14.0b/19.0a"},{"town":"基線","koaza":"三号","lat":43.711789,"lng":142.399265,"version":"14.0b/19.0a"},{"town":"東一線","koaza":"二号","lat":43.717633,"lng":142.399745,"version":"14.0b/19.0a"},{"town":"東一線","koaza":"三号","lat":43.711708,"lng":142.401233,"version":"14.0b/19.0a"},{"town":"基線","koaza":"四号","lat":43.706394,"lng":142.401246,"version":"14.0b/19.0a"},{"town":"四号","koaza":"南","lat":43.721004,"lng":142.403885,"version":"14.0b/19.0a"},{"town":"東一線","koaza":"四号","lat":43.708152,"lng":142.408562,"version":"14.0b/19.0a"},{"town":"基線","koaza":"五号","lat":43.70334,"lng":142.403094,"version":"14.0b/19.0a"},{"town":"東一線","koaza":"五号","lat":43.702563,"lng":142.406474,"version":"14.0b/19.0a"},{"town":"基線","koaza":"六号","lat":43.697102,"lng":142.406651,"version":"14.0b/19.0a"},{"town":"五号","koaza":"南","lat":43.716707,"lng":142.408621,"version":"14.0b/19.0a"},{"town":"六号","koaza":"南","lat":43.713334,"lng":142.416155,"version":"14.0b/19.0a"},{"town":"東一線","koaza":"六号","lat":43.698548,"lng":142.414074,"version":"14.0b/19.0a"},{"town":"基線","koaza":"七号","lat":43.692085,"lng":142.409184,"version":"14.0b/19.0a"},{"town":"東二線","koaza":"四号","lat":43.709175,"lng":142.410663,"version":"14.0b/19.0a"},{"town":"基線","koaza":"九号","lat":43.688584,"lng":142.412392,"version":"14.0b/19.0a"},{"town":"東一線","koaza":"七号","lat":43.69584,"lng":142.415599,"version":"14.0b/19.0a"},{"town":"東二線","koaza":"五号","lat":43.704792,"lng":142.413313,"version":"14.0b/19.0a"},{"town":"東一線","koaza":"八号","lat":43.692528,"lng":142.417727,"version":"14.0b/19.0a"},{"town":"東一線","koaza":"九号","lat":43.689601,"lng":142.417707,"version":"14.0b/19.0a"},{"town":"七号","koaza":"南","lat":43.711304,"lng":142.420433,"version":"14.0b/19.0a"},{"town":"東二線","koaza":"六号","lat":43.699879,"lng":142.417026,"version":"14.0b/19.0a"},{"town":"東二線","koaza":"七号","lat":43.695262,"lng":142.42068,"version":"14.0b/19.0a"},{"town":"東一線","koaza":"十号","lat":43.687009,"lng":142.421342,"version":"14.0b/19.0a"},{"town":"基線","koaza":"十号","lat":43.684734,"lng":142.418408,"version":"14.0b/19.0a"},{"town":"八号","koaza":"南","lat":43.708253,"lng":142.425842,"version":"14.0b/19.0a"},{"town":"東二線","koaza":"八号","lat":43.694398,"lng":142.422759,"version":"14.0b/19.0a"},{"town":"六号","koaza":"北","lat":43.717275,"lng":142.421205,"version":"14.0b/19.0a"},{"town":"基線","koaza":"十一号","lat":43.681326,"lng":142.423427,"version":"14.0b/19.0a"},{"town":"七号","koaza":"北","lat":43.716009,"lng":142.42328,"version":"14.0b/19.0a"},{"town":"東二線","koaza":"九号","lat":43.693278,"lng":142.423339,"version":"14.0b/19.0a"},{"town":"九号","koaza":"南","lat":43.702483,"lng":142.428526,"version":"14.0b/19.0a"},{"town":"東二線","koaza":"十号","lat":43.693512,"lng":142.42572,"version":"14.0b/19.0a"},{"town":"東一線","koaza":"十一号","lat":43.683447,"lng":142.426576,"version":"14.0b/19.0a"},{"town":"東二線","koaza":"十一号","lat":43.688847,"lng":142.429164,"version":"14.0b/19.0a"},{"town":"十号","koaza":"南","lat":43.698305,"lng":142.431892,"version":"14.0b/19.0a"},{"town":"東一線","koaza":"十二号","lat":43.682024,"lng":142.433666,"version":"14.0b/19.0a"},{"town":"八号","koaza":"北","lat":43.714348,"lng":142.432738,"version":"14.0b/19.0a"},{"town":"十一号","koaza":"南","lat":43.69239,"lng":142.434981,"version":"14.0b/19.0a"},{"town":"基線","koaza":"十二号","lat":43.676994,"lng":142.429949,"version":"14.0b/19.0a"},{"town":"九号","koaza":"北","lat":43.711536,"lng":142.438477,"version":"14.0b/19.0a"},{"town":"十号","koaza":"北","lat":43.711393,"lng":142.447311,"version":"14.0b/19.0a"},{"town":"東二線","koaza":"十六号","lat":43.669199,"lng":142.459094,"version":"14.0b/19.0a"},{"town":"基線","koaza":"二号","lat":43.716024,"lng":142.396191,"version":"14.0b/19.0a"}]