[{"town":"字朝日","koaza":"","lat":43.994598,"lng":142.451264,"version":"13.0b/18.0a"},{"town":"字川西","koaza":"","lat":44.001182,"lng":142.37569,"version":"13.0b/18.0a"},{"town":"字菊野","koaza":"","lat":44.037084,"lng":142.344324,"version":"13.0b/18.0a"},{"town":"字北原","koaza":"","lat":44.053116,"lng":142.374509,"version":"13.0b/18.0a"},{"town":"字北町","koaza":"","lat":44.029059,"lng":142.412296,"version":"13.0b/18.0a"},{"town":"字三和","koaza":"","lat":44.010037,"lng":142.354153,"version":"13.0b/18.0a"},{"town":"字塩狩","koaza":"","lat":43.963082,"lng":142.413818,"version":"13.0b/18.0a"},{"town":"字西和","koaza":"","lat":43.998045,"lng":142.286132,"version":"13.0b/18.0a"},{"town":"字大成","koaza":"","lat":44.065508,"lng":142.408839,"version":"13.0b/18.0a"},{"town":"字中和","koaza":"","lat":43.986205,"lng":142.375069,"version":"13.0b/18.0a"},{"town":"字東和","koaza":"","lat":44.078698,"lng":142.444324,"version":"13.0b/18.0a"},{"town":"字西町","koaza":"","lat":44.024237,"lng":142.411825,"version":"13.0b/18.0a"},{"town":"字東丘","koaza":"","lat":44.029512,"lng":142.4481,"version":"13.0b/18.0a"},{"town":"字東町","koaza":"","lat":44.026675,"lng":142.41815,"version":"13.0b/18.0a"},{"town":"字日ノ出","koaza":"","lat":44.048466,"lng":142.416546,"version":"13.0b/18.0a"},{"town":"字福原","koaza":"","lat":43.968409,"lng":142.282399,"version":"13.0b/18.0a"},{"town":"字松岡","koaza":"","lat":44.042515,"lng":142.389848,"version":"13.0b/18.0a"},{"town":"字三笠","koaza":"","lat":44.015641,"lng":142.411836,"version":"13.0b/18.0a"},{"town":"字南丘","koaza":"","lat":43.976946,"lng":142.404538,"version":"13.0b/18.0a"},{"town":"字南町","koaza":"","lat":44.024207,"lng":142.415909,"version":"13.0b/18.0a"},{"town":"字朝日","koaza":"","lat":43.994598,"lng":142.451264,"version":"14.0b/19.0a"},{"town":"字川西","koaza":"","lat":44.001182,"lng":142.37569,"version":"14.0b/19.0a"},{"town":"字菊野","koaza":"","lat":44.037084,"lng":142.344324,"version":"14.0b/19.0a"},{"town":"字北原","koaza":"","lat":44.053116,"lng":142.374509,"version":"14.0b/19.0a"},{"town":"字北町","koaza":"","lat":44.029059,"lng":142.412296,"version":"14.0b/19.0a"},{"town":"字三和","koaza":"","lat":44.010037,"lng":142.354153,"version":"14.0b/19.0a"},{"town":"字塩狩","koaza":"","lat":43.963082,"lng":142.413818,"version":"14.0b/19.0a"},{"town":"字西和","koaza":"","lat":43.998045,"lng":142.286132,"version":"14.0b/19.0a"},{"town":"字大成","koaza":"","lat":44.065508,"lng":142.408839,"version":"14.0b/19.0a"},{"town":"字中和","koaza":"","lat":43.986205,"lng":142.375069,"version":"14.0b/19.0a"},{"town":"字東和","koaza":"","lat":44.078698,"lng":142.444324,"version":"14.0b/19.0a"},{"town":"字西町","koaza":"","lat":44.024237,"lng":142.411825,"version":"14.0b/19.0a"},{"town":"字東丘","koaza":"","lat":44.029512,"lng":142.4481,"version":"14.0b/19.0a"},{"town":"字東町","koaza":"","lat":44.026675,"lng":142.41815,"version":"14.0b/19.0a"},{"town":"字日ノ出","koaza":"","lat":44.048466,"lng":142.416546,"version":"14.0b/19.0a"},{"town":"字福原","koaza":"","lat":43.968409,"lng":142.282399,"version":"14.0b/19.0a"},{"town":"字松岡","koaza":"","lat":44.042515,"lng":142.389848,"version":"14.0b/19.0a"},{"town":"字三笠","koaza":"","lat":44.015641,"lng":142.411836,"version":"14.0b/19.0a"},{"town":"字南丘","koaza":"","lat":43.976946,"lng":142.404538,"version":"14.0b/19.0a"},{"town":"字南町","koaza":"","lat":44.024207,"lng":142.415909,"version":"14.0b/19.0a"}]