[{"town":"字重内","koaza":"","lat":41.614634,"lng":140.383354,"version":"13.0b/18.0a"},{"town":"字小谷石","koaza":"","lat":41.538484,"lng":140.410072,"version":"13.0b/18.0a"},{"town":"字上雷","koaza":"","lat":41.584746,"lng":140.362804,"version":"13.0b/18.0a"},{"town":"字中ノ川","koaza":"","lat":41.651314,"lng":140.401043,"version":"13.0b/18.0a"},{"town":"字元町","koaza":"","lat":41.571497,"lng":140.418316,"version":"13.0b/18.0a"},{"town":"字森越","koaza":"","lat":41.63065,"lng":140.399076,"version":"13.0b/18.0a"},{"town":"字湯ノ里","koaza":"","lat":41.598448,"lng":140.286877,"version":"13.0b/18.0a"},{"town":"字涌元","koaza":"","lat":41.564018,"lng":140.399461,"version":"13.0b/18.0a"},{"town":"字重内","koaza":"","lat":41.614634,"lng":140.383354,"version":"14.0b/19.0a"},{"town":"字小谷石","koaza":"","lat":41.538484,"lng":140.410072,"version":"14.0b/19.0a"},{"town":"字上雷","koaza":"","lat":41.584746,"lng":140.362804,"version":"14.0b/19.0a"},{"town":"字中ノ川","koaza":"","lat":41.651314,"lng":140.401043,"version":"14.0b/19.0a"},{"town":"字元町","koaza":"","lat":41.571497,"lng":140.418316,"version":"14.0b/19.0a"},{"town":"字森越","koaza":"","lat":41.63065,"lng":140.399076,"version":"14.0b/19.0a"},{"town":"字湯ノ里","koaza":"","lat":41.598448,"lng":140.286877,"version":"14.0b/19.0a"},{"town":"字涌元","koaza":"","lat":41.564018,"lng":140.399461,"version":"14.0b/19.0a"}]