[{"town":"字六郷","koaza":"","lat":44.496039,"lng":142.299988,"version":"13.0b/18.0a"},{"town":"字泉","koaza":"","lat":44.421301,"lng":142.274684,"version":"13.0b/18.0a"},{"town":"字大手","koaza":"","lat":44.578051,"lng":142.306198,"version":"13.0b/18.0a"},{"town":"字大通北一丁目","koaza":"","lat":44.482519,"lng":142.346019,"version":"13.0b/18.0a"},{"town":"字大通北二丁目","koaza":"","lat":44.483525,"lng":142.345548,"version":"13.0b/18.0a"},{"town":"字大通北三丁目","koaza":"","lat":44.484417,"lng":142.345135,"version":"13.0b/18.0a"},{"town":"字大通北四丁目","koaza":"","lat":44.485248,"lng":142.34473,"version":"13.0b/18.0a"},{"town":"字大通北五丁目","koaza":"","lat":44.485852,"lng":142.344398,"version":"13.0b/18.0a"},{"town":"字大通北六丁目","koaza":"","lat":44.486312,"lng":142.344012,"version":"13.0b/18.0a"},{"town":"字大通北七丁目","koaza":"","lat":44.486871,"lng":142.343867,"version":"13.0b/18.0a"},{"town":"字大通南一丁目","koaza":"","lat":44.481579,"lng":142.346459,"version":"13.0b/18.0a"},{"town":"字大通南二丁目","koaza":"","lat":44.480885,"lng":142.346761,"version":"13.0b/18.0a"},{"town":"字大通南三丁目","koaza":"","lat":44.480111,"lng":142.347117,"version":"13.0b/18.0a"},{"town":"字大通南四丁目","koaza":"","lat":44.479468,"lng":142.347425,"version":"13.0b/18.0a"},{"town":"字小車","koaza":"","lat":44.601541,"lng":142.240686,"version":"13.0b/18.0a"},{"town":"字恩根内","koaza":"","lat":44.618973,"lng":142.35142,"version":"13.0b/18.0a"},{"town":"字開運町","koaza":"","lat":44.482916,"lng":142.350082,"version":"13.0b/18.0a"},{"town":"字川西","koaza":"","lat":44.468088,"lng":142.31452,"version":"13.0b/18.0a"},{"town":"字北町","koaza":"","lat":44.48873,"lng":142.346537,"version":"13.0b/18.0a"},{"town":"字楠","koaza":"","lat":44.629045,"lng":142.280324,"version":"13.0b/18.0a"},{"town":"字敷島","koaza":"","lat":44.496189,"lng":142.350178,"version":"13.0b/18.0a"},{"town":"字清水","koaza":"","lat":44.647712,"lng":142.300513,"version":"13.0b/18.0a"},{"town":"字玉川","koaza":"","lat":44.486283,"lng":142.246814,"version":"13.0b/18.0a"},{"town":"字富岡","koaza":"","lat":44.51625,"lng":142.32065,"version":"13.0b/18.0a"},{"town":"字西一条北一丁目","koaza":"","lat":44.481984,"lng":142.344029,"version":"13.0b/18.0a"},{"town":"字西一条北二丁目","koaza":"","lat":44.483096,"lng":142.343467,"version":"13.0b/18.0a"},{"town":"字西一条北三丁目","koaza":"","lat":44.484094,"lng":142.343152,"version":"13.0b/18.0a"},{"town":"字西一条北四丁目","koaza":"","lat":44.484743,"lng":142.342098,"version":"13.0b/18.0a"},{"town":"字西一条北五丁目","koaza":"","lat":44.485852,"lng":142.342278,"version":"13.0b/18.0a"},{"town":"字西一条南一丁目","koaza":"","lat":44.481183,"lng":142.344788,"version":"13.0b/18.0a"},{"town":"字西一条南二丁目","koaza":"","lat":44.480491,"lng":142.345023,"version":"13.0b/18.0a"},{"town":"字西一条南三丁目","koaza":"","lat":44.479877,"lng":142.34569,"version":"13.0b/18.0a"},{"town":"字西一条南四丁目","koaza":"","lat":44.479297,"lng":142.345635,"version":"13.0b/18.0a"},{"town":"字西里","koaza":"","lat":44.535486,"lng":142.312421,"version":"13.0b/18.0a"},{"town":"字西町","koaza":"","lat":44.483787,"lng":142.339826,"version":"13.0b/18.0a"},{"town":"字斑溪","koaza":"","lat":44.534671,"lng":142.357333,"version":"13.0b/18.0a"},{"town":"字東一条北一丁目","koaza":"","lat":44.482808,"lng":142.347166,"version":"13.0b/18.0a"},{"town":"字東一条北二丁目","koaza":"","lat":44.483815,"lng":142.346691,"version":"13.0b/18.0a"},{"town":"字東一条北三丁目","koaza":"","lat":44.484702,"lng":142.346277,"version":"13.0b/18.0a"},{"town":"字東一条北四丁目","koaza":"","lat":44.485541,"lng":142.345863,"version":"13.0b/18.0a"},{"town":"字東一条北五丁目","koaza":"","lat":44.486057,"lng":142.345276,"version":"13.0b/18.0a"},{"town":"字東一条北六丁目","koaza":"","lat":44.486625,"lng":142.345271,"version":"13.0b/18.0a"},{"town":"字東一条北七丁目","koaza":"","lat":44.4871,"lng":142.345035,"version":"13.0b/18.0a"},{"town":"字東一条南一丁目","koaza":"","lat":44.481855,"lng":142.347629,"version":"13.0b/18.0a"},{"town":"字東一条南二丁目","koaza":"","lat":44.48113,"lng":142.347982,"version":"13.0b/18.0a"},{"town":"字東一条南三丁目","koaza":"","lat":44.48038,"lng":142.348339,"version":"13.0b/18.0a"},{"town":"字東一条南四丁目","koaza":"","lat":44.479759,"lng":142.348633,"version":"13.0b/18.0a"},{"town":"字東二条北一丁目","koaza":"","lat":44.48305,"lng":142.348127,"version":"13.0b/18.0a"},{"town":"字東二条北二丁目","koaza":"","lat":44.484051,"lng":142.347648,"version":"13.0b/18.0a"},{"town":"字東二条北三丁目","koaza":"","lat":44.484997,"lng":142.347287,"version":"13.0b/18.0a"},{"town":"字東二条北四丁目","koaza":"","lat":44.485822,"lng":142.34681,"version":"13.0b/18.0a"},{"town":"字東二条北五丁目","koaza":"","lat":44.486268,"lng":142.346074,"version":"13.0b/18.0a"},{"town":"字東二条北六丁目","koaza":"","lat":44.486817,"lng":142.346129,"version":"13.0b/18.0a"},{"town":"字東二条北七丁目","koaza":"","lat":44.487309,"lng":142.345886,"version":"13.0b/18.0a"},{"town":"字東二条南一丁目","koaza":"","lat":44.482089,"lng":142.348583,"version":"13.0b/18.0a"},{"town":"字東二条南二丁目","koaza":"","lat":44.481358,"lng":142.348924,"version":"13.0b/18.0a"},{"town":"字東二条南三丁目","koaza":"","lat":44.48068,"lng":142.349348,"version":"13.0b/18.0a"},{"town":"字東二条南四丁目","koaza":"","lat":44.479988,"lng":142.349592,"version":"13.0b/18.0a"},{"town":"字東三条北一丁目","koaza":"","lat":44.483267,"lng":142.349007,"version":"13.0b/18.0a"},{"town":"字東三条北二丁目","koaza":"","lat":44.484265,"lng":142.348528,"version":"13.0b/18.0a"},{"town":"字東三条北三丁目","koaza":"","lat":44.485071,"lng":142.348143,"version":"13.0b/18.0a"},{"town":"字東三条北四丁目","koaza":"","lat":44.485764,"lng":142.347636,"version":"13.0b/18.0a"},{"town":"字東三条北五丁目","koaza":"","lat":44.486457,"lng":142.347158,"version":"13.0b/18.0a"},{"town":"字東三条北六丁目","koaza":"","lat":44.487014,"lng":142.34695,"version":"13.0b/18.0a"},{"town":"字東三条北七丁目","koaza":"","lat":44.487506,"lng":142.346706,"version":"13.0b/18.0a"},{"town":"字東三条南一丁目","koaza":"","lat":44.482305,"lng":142.349466,"version":"13.0b/18.0a"},{"town":"字東三条南二丁目","koaza":"","lat":44.481515,"lng":142.349795,"version":"13.0b/18.0a"},{"town":"字東三条南三丁目","koaza":"","lat":44.480738,"lng":142.350173,"version":"13.0b/18.0a"},{"town":"字東三条南四丁目","koaza":"","lat":44.480189,"lng":142.35044,"version":"13.0b/18.0a"},{"town":"字東四条北四丁目","koaza":"","lat":44.486037,"lng":142.348492,"version":"13.0b/18.0a"},{"town":"字東四条北五丁目","koaza":"","lat":44.48688,"lng":142.34863,"version":"13.0b/18.0a"},{"town":"字東四条北六丁目","koaza":"","lat":44.487379,"lng":142.34839,"version":"13.0b/18.0a"},{"town":"字東四条北七丁目","koaza":"","lat":44.487877,"lng":142.348145,"version":"13.0b/18.0a"},{"town":"字東五条北五丁目","koaza":"","lat":44.48729,"lng":142.350282,"version":"13.0b/18.0a"},{"town":"字東五条北六丁目","koaza":"","lat":44.487793,"lng":142.350038,"version":"13.0b/18.0a"},{"town":"字東五条北七丁目","koaza":"","lat":44.488311,"lng":142.349788,"version":"13.0b/18.0a"},{"town":"字美深","koaza":"","lat":44.471584,"lng":142.360734,"version":"13.0b/18.0a"},{"town":"字菊丘","koaza":"","lat":44.502329,"lng":142.412817,"version":"13.0b/18.0a"},{"town":"字報徳","koaza":"","lat":44.537692,"lng":142.252383,"version":"13.0b/18.0a"},{"town":"字南町","koaza":"","lat":44.478277,"lng":142.354061,"version":"13.0b/18.0a"},{"town":"字紋穂内","koaza":"","lat":44.543653,"lng":142.344631,"version":"13.0b/18.0a"},{"town":"字吉野","koaza":"","lat":44.521484,"lng":142.389553,"version":"13.0b/18.0a"},{"town":"字若松町","koaza":"","lat":44.483093,"lng":142.351742,"version":"13.0b/18.0a"},{"town":"大通南五丁目","koaza":"","lat":44.478788,"lng":142.348159,"version":"13.0b/18.0a"},{"town":"大通南六丁目","koaza":"","lat":44.477596,"lng":142.348795,"version":"13.0b/18.0a"},{"town":"大通南七丁目","koaza":"","lat":44.476358,"lng":142.349331,"version":"13.0b/18.0a"},{"town":"大通南八丁目","koaza":"","lat":44.47523,"lng":142.349766,"version":"13.0b/18.0a"},{"town":"西一条南五丁目","koaza":"","lat":44.478472,"lng":142.34654,"version":"13.0b/18.0a"},{"town":"西一条南六丁目","koaza":"","lat":44.477204,"lng":142.347335,"version":"13.0b/18.0a"},{"town":"西一条南七丁目","koaza":"","lat":44.475914,"lng":142.348365,"version":"13.0b/18.0a"},{"town":"西一条南八丁目","koaza":"","lat":44.474691,"lng":142.348516,"version":"13.0b/18.0a"},{"town":"西二条南四丁目","koaza":"","lat":44.478979,"lng":142.342682,"version":"13.0b/18.0a"},{"town":"西二条南五丁目","koaza":"","lat":44.477591,"lng":142.343344,"version":"13.0b/18.0a"},{"town":"西二条南六丁目","koaza":"","lat":44.476375,"lng":142.344008,"version":"13.0b/18.0a"},{"town":"西二条南七丁目","koaza":"","lat":44.47501,"lng":142.344674,"version":"13.0b/18.0a"},{"town":"西二条南八丁目","koaza":"","lat":44.473877,"lng":142.345217,"version":"13.0b/18.0a"},{"town":"西三条北一丁目","koaza":"","lat":44.480062,"lng":142.338469,"version":"13.0b/18.0a"},{"town":"西三条北二丁目","koaza":"","lat":44.481322,"lng":142.338148,"version":"13.0b/18.0a"},{"town":"西三条北三丁目","koaza":"","lat":44.482506,"lng":142.337574,"version":"13.0b/18.0a"},{"town":"西三条北四丁目","koaza":"","lat":44.483305,"lng":142.337168,"version":"13.0b/18.0a"},{"town":"西三条北五丁目","koaza":"","lat":44.484003,"lng":142.336803,"version":"13.0b/18.0a"},{"town":"西三条北六丁目","koaza":"","lat":44.48482,"lng":142.336372,"version":"13.0b/18.0a"},{"town":"西三条北七丁目","koaza":"","lat":44.486011,"lng":142.335331,"version":"13.0b/18.0a"},{"town":"西三条南一丁目","koaza":"","lat":44.479081,"lng":142.339687,"version":"13.0b/18.0a"},{"town":"西三条南四丁目","koaza":"","lat":44.477837,"lng":142.339092,"version":"13.0b/18.0a"},{"town":"東一条南五丁目","koaza":"","lat":44.478989,"lng":142.349006,"version":"13.0b/18.0a"},{"town":"東一条南六丁目","koaza":"","lat":44.477782,"lng":142.349593,"version":"13.0b/18.0a"},{"town":"東一条南七丁目","koaza":"","lat":44.476562,"lng":142.350161,"version":"13.0b/18.0a"},{"town":"東一条南八丁目","koaza":"","lat":44.475401,"lng":142.350727,"version":"13.0b/18.0a"},{"town":"東二条南五丁目","koaza":"","lat":44.479215,"lng":142.349967,"version":"13.0b/18.0a"},{"town":"東二条南六丁目","koaza":"","lat":44.478023,"lng":142.350547,"version":"13.0b/18.0a"},{"town":"東二条南七丁目","koaza":"","lat":44.476795,"lng":142.351115,"version":"13.0b/18.0a"},{"town":"東二条南八丁目","koaza":"","lat":44.47564,"lng":142.351688,"version":"13.0b/18.0a"},{"town":"東三条南五丁目","koaza":"","lat":44.479418,"lng":142.35081,"version":"13.0b/18.0a"},{"town":"東三条南六丁目","koaza":"","lat":44.47821,"lng":142.351387,"version":"13.0b/18.0a"},{"town":"東三条南七丁目","koaza":"","lat":44.477035,"lng":142.351932,"version":"13.0b/18.0a"},{"town":"東三条南八丁目","koaza":"","lat":44.475848,"lng":142.352528,"version":"13.0b/18.0a"},{"town":"東四条南五丁目","koaza":"","lat":44.479619,"lng":142.351618,"version":"13.0b/18.0a"},{"town":"東四条南六丁目","koaza":"","lat":44.478429,"lng":142.352176,"version":"13.0b/18.0a"},{"town":"東四条南七丁目","koaza":"","lat":44.477289,"lng":142.352722,"version":"13.0b/18.0a"},{"town":"東四条南八丁目","koaza":"","lat":44.4762,"lng":142.353165,"version":"13.0b/18.0a"},{"town":"東五条北三丁目","koaza":"","lat":44.486286,"lng":142.350223,"version":"13.0b/18.0a"},{"town":"東六条北一丁目","koaza":"","lat":44.484107,"lng":142.353831,"version":"13.0b/18.0a"},{"town":"東六条北二丁目","koaza":"","lat":44.485235,"lng":142.353278,"version":"13.0b/18.0a"},{"town":"東六条北三丁目","koaza":"","lat":44.486642,"lng":142.353322,"version":"13.0b/18.0a"},{"town":"東六条南一丁目","koaza":"","lat":44.483005,"lng":142.354407,"version":"13.0b/18.0a"},{"town":"東六条南二丁目","koaza":"","lat":44.482193,"lng":142.354584,"version":"13.0b/18.0a"},{"town":"東六条南三丁目","koaza":"","lat":44.481721,"lng":142.354898,"version":"13.0b/18.0a"},{"town":"東六条南四丁目","koaza":"","lat":44.48139,"lng":142.355667,"version":"13.0b/18.0a"},{"town":"字辺溪","koaza":"","lat":44.488773,"lng":142.453242,"version":"13.0b/18.0a"},{"town":"字仁宇布","koaza":"","lat":44.531017,"lng":142.5486,"version":"13.0b/18.0a"},{"town":"字六郷","koaza":"","lat":44.496039,"lng":142.299988,"version":"14.0b/19.0a"},{"town":"字泉","koaza":"","lat":44.421301,"lng":142.274684,"version":"14.0b/19.0a"},{"town":"字大手","koaza":"","lat":44.578051,"lng":142.306198,"version":"14.0b/19.0a"},{"town":"字大通北一丁目","koaza":"","lat":44.482519,"lng":142.346019,"version":"14.0b/19.0a"},{"town":"字大通北二丁目","koaza":"","lat":44.483525,"lng":142.345548,"version":"14.0b/19.0a"},{"town":"字大通北三丁目","koaza":"","lat":44.484417,"lng":142.345135,"version":"14.0b/19.0a"},{"town":"字大通北四丁目","koaza":"","lat":44.485248,"lng":142.34473,"version":"14.0b/19.0a"},{"town":"字大通北五丁目","koaza":"","lat":44.485852,"lng":142.344398,"version":"14.0b/19.0a"},{"town":"字大通北六丁目","koaza":"","lat":44.486312,"lng":142.344012,"version":"14.0b/19.0a"},{"town":"字大通北七丁目","koaza":"","lat":44.486871,"lng":142.343867,"version":"14.0b/19.0a"},{"town":"字大通南一丁目","koaza":"","lat":44.481579,"lng":142.346459,"version":"14.0b/19.0a"},{"town":"字大通南二丁目","koaza":"","lat":44.480885,"lng":142.346761,"version":"14.0b/19.0a"},{"town":"字大通南三丁目","koaza":"","lat":44.480111,"lng":142.347117,"version":"14.0b/19.0a"},{"town":"字大通南四丁目","koaza":"","lat":44.479468,"lng":142.347425,"version":"14.0b/19.0a"},{"town":"字小車","koaza":"","lat":44.601541,"lng":142.240686,"version":"14.0b/19.0a"},{"town":"字恩根内","koaza":"","lat":44.618973,"lng":142.35142,"version":"14.0b/19.0a"},{"town":"字開運町","koaza":"","lat":44.482916,"lng":142.350082,"version":"14.0b/19.0a"},{"town":"字川西","koaza":"","lat":44.468088,"lng":142.31452,"version":"14.0b/19.0a"},{"town":"字北町","koaza":"","lat":44.48873,"lng":142.346537,"version":"14.0b/19.0a"},{"town":"字楠","koaza":"","lat":44.629045,"lng":142.280324,"version":"14.0b/19.0a"},{"town":"字敷島","koaza":"","lat":44.496189,"lng":142.350178,"version":"14.0b/19.0a"},{"town":"字清水","koaza":"","lat":44.647712,"lng":142.300513,"version":"14.0b/19.0a"},{"town":"字玉川","koaza":"","lat":44.486283,"lng":142.246814,"version":"14.0b/19.0a"},{"town":"字富岡","koaza":"","lat":44.51625,"lng":142.32065,"version":"14.0b/19.0a"},{"town":"字西一条北一丁目","koaza":"","lat":44.481984,"lng":142.344029,"version":"14.0b/19.0a"},{"town":"字西一条北二丁目","koaza":"","lat":44.483096,"lng":142.343467,"version":"14.0b/19.0a"},{"town":"字西一条北三丁目","koaza":"","lat":44.484094,"lng":142.343152,"version":"14.0b/19.0a"},{"town":"字西一条北四丁目","koaza":"","lat":44.484743,"lng":142.342098,"version":"14.0b/19.0a"},{"town":"字西一条北五丁目","koaza":"","lat":44.485852,"lng":142.342278,"version":"14.0b/19.0a"},{"town":"字西一条南一丁目","koaza":"","lat":44.481183,"lng":142.344788,"version":"14.0b/19.0a"},{"town":"字西一条南二丁目","koaza":"","lat":44.480491,"lng":142.345023,"version":"14.0b/19.0a"},{"town":"字西一条南三丁目","koaza":"","lat":44.479877,"lng":142.34569,"version":"14.0b/19.0a"},{"town":"字西一条南四丁目","koaza":"","lat":44.479297,"lng":142.345635,"version":"14.0b/19.0a"},{"town":"字西里","koaza":"","lat":44.535486,"lng":142.312421,"version":"14.0b/19.0a"},{"town":"字西町","koaza":"","lat":44.483787,"lng":142.339826,"version":"14.0b/19.0a"},{"town":"字斑溪","koaza":"","lat":44.534671,"lng":142.357333,"version":"14.0b/19.0a"},{"town":"字東一条北一丁目","koaza":"","lat":44.482808,"lng":142.347166,"version":"14.0b/19.0a"},{"town":"字東一条北二丁目","koaza":"","lat":44.483815,"lng":142.346691,"version":"14.0b/19.0a"},{"town":"字東一条北三丁目","koaza":"","lat":44.484702,"lng":142.346277,"version":"14.0b/19.0a"},{"town":"字東一条北四丁目","koaza":"","lat":44.485541,"lng":142.345863,"version":"14.0b/19.0a"},{"town":"字東一条北五丁目","koaza":"","lat":44.486057,"lng":142.345276,"version":"14.0b/19.0a"},{"town":"字東一条北六丁目","koaza":"","lat":44.486625,"lng":142.345271,"version":"14.0b/19.0a"},{"town":"字東一条北七丁目","koaza":"","lat":44.4871,"lng":142.345035,"version":"14.0b/19.0a"},{"town":"字東一条南一丁目","koaza":"","lat":44.481855,"lng":142.347629,"version":"14.0b/19.0a"},{"town":"字東一条南二丁目","koaza":"","lat":44.48113,"lng":142.347982,"version":"14.0b/19.0a"},{"town":"字東一条南三丁目","koaza":"","lat":44.48038,"lng":142.348339,"version":"14.0b/19.0a"},{"town":"字東一条南四丁目","koaza":"","lat":44.479759,"lng":142.348633,"version":"14.0b/19.0a"},{"town":"字東二条北一丁目","koaza":"","lat":44.48305,"lng":142.348127,"version":"14.0b/19.0a"},{"town":"字東二条北二丁目","koaza":"","lat":44.484051,"lng":142.347648,"version":"14.0b/19.0a"},{"town":"字東二条北三丁目","koaza":"","lat":44.484997,"lng":142.347287,"version":"14.0b/19.0a"},{"town":"字東二条北四丁目","koaza":"","lat":44.485822,"lng":142.34681,"version":"14.0b/19.0a"},{"town":"字東二条北五丁目","koaza":"","lat":44.486268,"lng":142.346074,"version":"14.0b/19.0a"},{"town":"字東二条北六丁目","koaza":"","lat":44.486817,"lng":142.346129,"version":"14.0b/19.0a"},{"town":"字東二条北七丁目","koaza":"","lat":44.487309,"lng":142.345886,"version":"14.0b/19.0a"},{"town":"字東二条南一丁目","koaza":"","lat":44.482089,"lng":142.348583,"version":"14.0b/19.0a"},{"town":"字東二条南二丁目","koaza":"","lat":44.481358,"lng":142.348924,"version":"14.0b/19.0a"},{"town":"字東二条南三丁目","koaza":"","lat":44.48068,"lng":142.349348,"version":"14.0b/19.0a"},{"town":"字東二条南四丁目","koaza":"","lat":44.479988,"lng":142.349592,"version":"14.0b/19.0a"},{"town":"字東三条北一丁目","koaza":"","lat":44.483267,"lng":142.349007,"version":"14.0b/19.0a"},{"town":"字東三条北二丁目","koaza":"","lat":44.484265,"lng":142.348528,"version":"14.0b/19.0a"},{"town":"字東三条北三丁目","koaza":"","lat":44.485071,"lng":142.348143,"version":"14.0b/19.0a"},{"town":"字東三条北四丁目","koaza":"","lat":44.485764,"lng":142.347636,"version":"14.0b/19.0a"},{"town":"字東三条北五丁目","koaza":"","lat":44.486457,"lng":142.347158,"version":"14.0b/19.0a"},{"town":"字東三条北六丁目","koaza":"","lat":44.487014,"lng":142.34695,"version":"14.0b/19.0a"},{"town":"字東三条北七丁目","koaza":"","lat":44.487506,"lng":142.346706,"version":"14.0b/19.0a"},{"town":"字東三条南一丁目","koaza":"","lat":44.482305,"lng":142.349466,"version":"14.0b/19.0a"},{"town":"字東三条南二丁目","koaza":"","lat":44.481515,"lng":142.349795,"version":"14.0b/19.0a"},{"town":"字東三条南三丁目","koaza":"","lat":44.480738,"lng":142.350173,"version":"14.0b/19.0a"},{"town":"字東三条南四丁目","koaza":"","lat":44.480189,"lng":142.35044,"version":"14.0b/19.0a"},{"town":"字東四条北四丁目","koaza":"","lat":44.486037,"lng":142.348492,"version":"14.0b/19.0a"},{"town":"字東四条北五丁目","koaza":"","lat":44.48688,"lng":142.34863,"version":"14.0b/19.0a"},{"town":"字東四条北六丁目","koaza":"","lat":44.487379,"lng":142.34839,"version":"14.0b/19.0a"},{"town":"字東四条北七丁目","koaza":"","lat":44.487877,"lng":142.348145,"version":"14.0b/19.0a"},{"town":"字東五条北五丁目","koaza":"","lat":44.48729,"lng":142.350282,"version":"14.0b/19.0a"},{"town":"字東五条北六丁目","koaza":"","lat":44.487793,"lng":142.350038,"version":"14.0b/19.0a"},{"town":"字東五条北七丁目","koaza":"","lat":44.488311,"lng":142.349788,"version":"14.0b/19.0a"},{"town":"字美深","koaza":"","lat":44.471584,"lng":142.360734,"version":"14.0b/19.0a"},{"town":"字菊丘","koaza":"","lat":44.502329,"lng":142.412817,"version":"14.0b/19.0a"},{"town":"字報徳","koaza":"","lat":44.537692,"lng":142.252383,"version":"14.0b/19.0a"},{"town":"字南町","koaza":"","lat":44.478277,"lng":142.354061,"version":"14.0b/19.0a"},{"town":"字紋穂内","koaza":"","lat":44.543653,"lng":142.344631,"version":"14.0b/19.0a"},{"town":"字吉野","koaza":"","lat":44.521484,"lng":142.389553,"version":"14.0b/19.0a"},{"town":"字若松町","koaza":"","lat":44.483093,"lng":142.351742,"version":"14.0b/19.0a"},{"town":"大通南五丁目","koaza":"","lat":44.478788,"lng":142.348159,"version":"14.0b/19.0a"},{"town":"大通南六丁目","koaza":"","lat":44.477596,"lng":142.348795,"version":"14.0b/19.0a"},{"town":"大通南七丁目","koaza":"","lat":44.476358,"lng":142.349331,"version":"14.0b/19.0a"},{"town":"大通南八丁目","koaza":"","lat":44.47523,"lng":142.349766,"version":"14.0b/19.0a"},{"town":"西一条南五丁目","koaza":"","lat":44.478472,"lng":142.34654,"version":"14.0b/19.0a"},{"town":"西一条南六丁目","koaza":"","lat":44.477204,"lng":142.347335,"version":"14.0b/19.0a"},{"town":"西一条南七丁目","koaza":"","lat":44.475914,"lng":142.348365,"version":"14.0b/19.0a"},{"town":"西一条南八丁目","koaza":"","lat":44.474691,"lng":142.348516,"version":"14.0b/19.0a"},{"town":"西二条南四丁目","koaza":"","lat":44.478979,"lng":142.342682,"version":"14.0b/19.0a"},{"town":"西二条南五丁目","koaza":"","lat":44.477591,"lng":142.343344,"version":"14.0b/19.0a"},{"town":"西二条南六丁目","koaza":"","lat":44.476375,"lng":142.344008,"version":"14.0b/19.0a"},{"town":"西二条南七丁目","koaza":"","lat":44.47501,"lng":142.344674,"version":"14.0b/19.0a"},{"town":"西二条南八丁目","koaza":"","lat":44.473877,"lng":142.345217,"version":"14.0b/19.0a"},{"town":"西三条北一丁目","koaza":"","lat":44.480062,"lng":142.338469,"version":"14.0b/19.0a"},{"town":"西三条北二丁目","koaza":"","lat":44.481322,"lng":142.338148,"version":"14.0b/19.0a"},{"town":"西三条北三丁目","koaza":"","lat":44.482506,"lng":142.337574,"version":"14.0b/19.0a"},{"town":"西三条北四丁目","koaza":"","lat":44.483305,"lng":142.337168,"version":"14.0b/19.0a"},{"town":"西三条北五丁目","koaza":"","lat":44.484003,"lng":142.336803,"version":"14.0b/19.0a"},{"town":"西三条北六丁目","koaza":"","lat":44.48482,"lng":142.336372,"version":"14.0b/19.0a"},{"town":"西三条北七丁目","koaza":"","lat":44.486011,"lng":142.335331,"version":"14.0b/19.0a"},{"town":"西三条南一丁目","koaza":"","lat":44.479081,"lng":142.339687,"version":"14.0b/19.0a"},{"town":"西三条南四丁目","koaza":"","lat":44.477837,"lng":142.339092,"version":"14.0b/19.0a"},{"town":"東一条南五丁目","koaza":"","lat":44.478989,"lng":142.349006,"version":"14.0b/19.0a"},{"town":"東一条南六丁目","koaza":"","lat":44.477782,"lng":142.349593,"version":"14.0b/19.0a"},{"town":"東一条南七丁目","koaza":"","lat":44.476562,"lng":142.350161,"version":"14.0b/19.0a"},{"town":"東一条南八丁目","koaza":"","lat":44.475401,"lng":142.350727,"version":"14.0b/19.0a"},{"town":"東二条南五丁目","koaza":"","lat":44.479215,"lng":142.349967,"version":"14.0b/19.0a"},{"town":"東二条南六丁目","koaza":"","lat":44.478023,"lng":142.350547,"version":"14.0b/19.0a"},{"town":"東二条南七丁目","koaza":"","lat":44.476795,"lng":142.351115,"version":"14.0b/19.0a"},{"town":"東二条南八丁目","koaza":"","lat":44.47564,"lng":142.351688,"version":"14.0b/19.0a"},{"town":"東三条南五丁目","koaza":"","lat":44.479418,"lng":142.35081,"version":"14.0b/19.0a"},{"town":"東三条南六丁目","koaza":"","lat":44.47821,"lng":142.351387,"version":"14.0b/19.0a"},{"town":"東三条南七丁目","koaza":"","lat":44.477035,"lng":142.351932,"version":"14.0b/19.0a"},{"town":"東三条南八丁目","koaza":"","lat":44.475848,"lng":142.352528,"version":"14.0b/19.0a"},{"town":"東四条南五丁目","koaza":"","lat":44.479619,"lng":142.351618,"version":"14.0b/19.0a"},{"town":"東四条南六丁目","koaza":"","lat":44.478429,"lng":142.352176,"version":"14.0b/19.0a"},{"town":"東四条南七丁目","koaza":"","lat":44.477289,"lng":142.352722,"version":"14.0b/19.0a"},{"town":"東四条南八丁目","koaza":"","lat":44.4762,"lng":142.353165,"version":"14.0b/19.0a"},{"town":"東五条北三丁目","koaza":"","lat":44.486286,"lng":142.350223,"version":"14.0b/19.0a"},{"town":"東六条北一丁目","koaza":"","lat":44.484107,"lng":142.353831,"version":"14.0b/19.0a"},{"town":"東六条北二丁目","koaza":"","lat":44.485235,"lng":142.353278,"version":"14.0b/19.0a"},{"town":"東六条北三丁目","koaza":"","lat":44.486642,"lng":142.353322,"version":"14.0b/19.0a"},{"town":"東六条南一丁目","koaza":"","lat":44.483005,"lng":142.354407,"version":"14.0b/19.0a"},{"town":"東六条南二丁目","koaza":"","lat":44.482193,"lng":142.354584,"version":"14.0b/19.0a"},{"town":"東六条南三丁目","koaza":"","lat":44.481721,"lng":142.354898,"version":"14.0b/19.0a"},{"town":"東六条南四丁目","koaza":"","lat":44.48139,"lng":142.355667,"version":"14.0b/19.0a"},{"town":"字辺溪","koaza":"","lat":44.488773,"lng":142.453242,"version":"14.0b/19.0a"},{"town":"字仁宇布","koaza":"","lat":44.531017,"lng":142.5486,"version":"14.0b/19.0a"}]