[{"town":"赤泊","koaza":"","lat":43.142463,"lng":145.184848,"version":"13.0b/18.0a"},{"town":"姉別一丁目","koaza":"","lat":43.194077,"lng":145.194291,"version":"13.0b/18.0a"},{"town":"姉別二丁目","koaza":"","lat":43.195805,"lng":145.19288,"version":"13.0b/18.0a"},{"town":"姉別三丁目","koaza":"","lat":43.197053,"lng":145.195667,"version":"13.0b/18.0a"},{"town":"姉別基線","koaza":"","lat":43.228289,"lng":145.166598,"version":"13.0b/18.0a"},{"town":"姉別北","koaza":"","lat":43.246291,"lng":145.164676,"version":"13.0b/18.0a"},{"town":"姉別北一線","koaza":"","lat":43.230902,"lng":145.162496,"version":"13.0b/18.0a"},{"town":"姉別北二線","koaza":"","lat":43.236395,"lng":145.160995,"version":"13.0b/18.0a"},{"town":"姉別北三線","koaza":"","lat":43.236216,"lng":145.148915,"version":"13.0b/18.0a"},{"town":"姉別南","koaza":"","lat":43.191018,"lng":145.2196,"version":"13.0b/18.0a"},{"town":"姉別南一線","koaza":"","lat":43.223534,"lng":145.172641,"version":"13.0b/18.0a"},{"town":"姉別南二線","koaza":"","lat":43.217199,"lng":145.169189,"version":"13.0b/18.0a"},{"town":"姉別南三線","koaza":"","lat":43.212044,"lng":145.167814,"version":"13.0b/18.0a"},{"town":"姉別南四線","koaza":"","lat":43.20829,"lng":145.170639,"version":"13.0b/18.0a"},{"town":"姉別南五線","koaza":"","lat":43.202727,"lng":145.176165,"version":"13.0b/18.0a"},{"town":"姉別南六線","koaza":"","lat":43.199616,"lng":145.182925,"version":"13.0b/18.0a"},{"town":"姉別南七線","koaza":"","lat":43.202379,"lng":145.207882,"version":"13.0b/18.0a"},{"town":"姉別南八線","koaza":"","lat":43.197941,"lng":145.208412,"version":"13.0b/18.0a"},{"town":"姉別緑栄","koaza":"","lat":43.182382,"lng":145.171492,"version":"13.0b/18.0a"},{"town":"一番沢","koaza":"","lat":43.052713,"lng":145.0403,"version":"13.0b/18.0a"},{"town":"羨古丹","koaza":"","lat":43.157023,"lng":145.188563,"version":"13.0b/18.0a"},{"town":"恵茶人","koaza":"","lat":43.180167,"lng":145.279588,"version":"13.0b/18.0a"},{"town":"円朱別西十線","koaza":"","lat":43.226683,"lng":145.047813,"version":"13.0b/18.0a"},{"town":"円朱別西三線","koaza":"","lat":43.209951,"lng":145.090551,"version":"13.0b/18.0a"},{"town":"円朱別西四線","koaza":"","lat":43.213775,"lng":145.087837,"version":"13.0b/18.0a"},{"town":"円朱別西五線","koaza":"","lat":43.215741,"lng":145.081482,"version":"13.0b/18.0a"},{"town":"円朱別西六線","koaza":"","lat":43.216159,"lng":145.0731,"version":"13.0b/18.0a"},{"town":"円朱別西七線","koaza":"","lat":43.219663,"lng":145.067923,"version":"13.0b/18.0a"},{"town":"円朱別西八線","koaza":"","lat":43.221043,"lng":145.060684,"version":"13.0b/18.0a"},{"town":"円朱別西九線","koaza":"","lat":43.225006,"lng":145.057111,"version":"13.0b/18.0a"},{"town":"大津屋沢","koaza":"","lat":43.134186,"lng":145.098424,"version":"13.0b/18.0a"},{"town":"北の沢","koaza":"","lat":43.065154,"lng":145.008736,"version":"13.0b/18.0a"},{"town":"霧多布湿原","koaza":"","lat":43.084839,"lng":145.079293,"version":"13.0b/18.0a"},{"town":"霧多布西一条一丁目","koaza":"","lat":43.080885,"lng":145.126035,"version":"13.0b/18.0a"},{"town":"霧多布西一条二丁目","koaza":"","lat":43.080769,"lng":145.121521,"version":"13.0b/18.0a"},{"town":"霧多布西二条一丁目","koaza":"","lat":43.079132,"lng":145.127045,"version":"13.0b/18.0a"},{"town":"霧多布西二条二丁目","koaza":"","lat":43.078297,"lng":145.122854,"version":"13.0b/18.0a"},{"town":"霧多布西三条一丁目","koaza":"","lat":43.077892,"lng":145.127104,"version":"13.0b/18.0a"},{"town":"霧多布西三条二丁目","koaza":"","lat":43.077581,"lng":145.124679,"version":"13.0b/18.0a"},{"town":"霧多布西四条一丁目","koaza":"","lat":43.074702,"lng":145.128493,"version":"13.0b/18.0a"},{"town":"霧多布東一条一丁目","koaza":"","lat":43.081076,"lng":145.129698,"version":"13.0b/18.0a"},{"town":"霧多布東一条二丁目","koaza":"","lat":43.082087,"lng":145.13316,"version":"13.0b/18.0a"},{"town":"霧多布東二条一丁目","koaza":"","lat":43.07968,"lng":145.130194,"version":"13.0b/18.0a"},{"town":"霧多布東二条二丁目","koaza":"","lat":43.080473,"lng":145.134296,"version":"13.0b/18.0a"},{"town":"霧多布東三条一丁目","koaza":"","lat":43.078572,"lng":145.130553,"version":"13.0b/18.0a"},{"town":"霧多布東三条二丁目","koaza":"","lat":43.079551,"lng":145.134239,"version":"13.0b/18.0a"},{"town":"霧多布東四条一丁目","koaza":"","lat":43.077263,"lng":145.130874,"version":"13.0b/18.0a"},{"town":"鯨浜","koaza":"","lat":42.995001,"lng":144.998938,"version":"13.0b/18.0a"},{"town":"熊牛基線","koaza":"","lat":43.204644,"lng":145.113533,"version":"13.0b/18.0a"},{"town":"熊牛西一線","koaza":"","lat":43.208815,"lng":145.108566,"version":"13.0b/18.0a"},{"town":"熊牛西二線","koaza":"","lat":43.212183,"lng":145.101223,"version":"13.0b/18.0a"},{"town":"熊牛西三線","koaza":"","lat":43.222193,"lng":145.108641,"version":"13.0b/18.0a"},{"town":"熊牛東一線","koaza":"","lat":43.200008,"lng":145.117219,"version":"13.0b/18.0a"},{"town":"熊牛東二線","koaza":"","lat":43.19686,"lng":145.12336,"version":"13.0b/18.0a"},{"town":"熊牛東三線","koaza":"","lat":43.195012,"lng":145.129921,"version":"13.0b/18.0a"},{"town":"熊牛東四線","koaza":"","lat":43.189601,"lng":145.132574,"version":"13.0b/18.0a"},{"town":"熊牛東五線","koaza":"","lat":43.18646,"lng":145.13786,"version":"13.0b/18.0a"},{"town":"熊牛東六線","koaza":"","lat":43.180681,"lng":145.14322,"version":"13.0b/18.0a"},{"town":"嶮暮帰","koaza":"","lat":43.049186,"lng":145.104688,"version":"13.0b/18.0a"},{"town":"厚陽","koaza":"","lat":43.208107,"lng":145.26818,"version":"13.0b/18.0a"},{"town":"小島","koaza":"","lat":43.063605,"lng":145.122723,"version":"13.0b/18.0a"},{"town":"榊町","koaza":"","lat":43.11314,"lng":145.109224,"version":"13.0b/18.0a"},{"town":"榊町西","koaza":"","lat":43.114743,"lng":145.103336,"version":"13.0b/18.0a"},{"town":"三番沢","koaza":"","lat":43.080042,"lng":145.035358,"version":"13.0b/18.0a"},{"town":"後静","koaza":"","lat":43.136026,"lng":145.120039,"version":"13.0b/18.0a"},{"town":"新川","koaza":"","lat":43.096493,"lng":145.092653,"version":"13.0b/18.0a"},{"town":"新川西一丁目","koaza":"","lat":43.083109,"lng":145.100096,"version":"13.0b/18.0a"},{"town":"新川東一丁目","koaza":"","lat":43.080472,"lng":145.110987,"version":"13.0b/18.0a"},{"town":"新川東二丁目","koaza":"","lat":43.083482,"lng":145.106925,"version":"13.0b/18.0a"},{"town":"仙鳳趾","koaza":"","lat":43.142897,"lng":145.218521,"version":"13.0b/18.0a"},{"town":"茶内旭一丁目","koaza":"","lat":43.131522,"lng":145.034921,"version":"13.0b/18.0a"},{"town":"茶内旭二丁目","koaza":"","lat":43.12831,"lng":145.032467,"version":"13.0b/18.0a"},{"town":"茶内旭三丁目","koaza":"","lat":43.124499,"lng":145.028223,"version":"13.0b/18.0a"},{"town":"茶内基線","koaza":"","lat":43.146349,"lng":145.047883,"version":"13.0b/18.0a"},{"town":"茶内橋北西","koaza":"","lat":43.132237,"lng":145.019223,"version":"13.0b/18.0a"},{"town":"茶内橋北東","koaza":"","lat":43.135421,"lng":145.022218,"version":"13.0b/18.0a"},{"town":"茶内栄","koaza":"","lat":43.132002,"lng":145.028899,"version":"13.0b/18.0a"},{"town":"茶内西","koaza":"","lat":43.153007,"lng":144.95535,"version":"13.0b/18.0a"},{"town":"茶内西十線","koaza":"","lat":43.185534,"lng":145.003989,"version":"13.0b/18.0a"},{"town":"茶内西十一線","koaza":"","lat":43.186134,"lng":144.995121,"version":"13.0b/18.0a"},{"town":"茶内西十二線","koaza":"","lat":43.186913,"lng":144.987799,"version":"13.0b/18.0a"},{"town":"茶内西十三線","koaza":"","lat":43.190638,"lng":144.982858,"version":"13.0b/18.0a"},{"town":"茶内西十四線","koaza":"","lat":43.183373,"lng":144.966373,"version":"13.0b/18.0a"},{"town":"茶内西十五線","koaza":"","lat":43.185276,"lng":144.960437,"version":"13.0b/18.0a"},{"town":"茶内西十六線","koaza":"","lat":43.186827,"lng":144.953203,"version":"13.0b/18.0a"},{"town":"茶内西十七線","koaza":"","lat":43.180491,"lng":144.938755,"version":"13.0b/18.0a"},{"town":"茶内西一線","koaza":"","lat":43.149037,"lng":145.042151,"version":"13.0b/18.0a"},{"town":"茶内西二線","koaza":"","lat":43.151671,"lng":145.03716,"version":"13.0b/18.0a"},{"town":"茶内西三線","koaza":"","lat":43.157494,"lng":145.033773,"version":"13.0b/18.0a"},{"town":"茶内西四線","koaza":"","lat":43.16071,"lng":145.028243,"version":"13.0b/18.0a"},{"town":"茶内西五線","koaza":"","lat":43.162815,"lng":145.023135,"version":"13.0b/18.0a"},{"town":"茶内西六線","koaza":"","lat":43.167066,"lng":145.018952,"version":"13.0b/18.0a"},{"town":"茶内西七線","koaza":"","lat":43.169774,"lng":145.012365,"version":"13.0b/18.0a"},{"town":"茶内西八線","koaza":"","lat":43.17591,"lng":145.010257,"version":"13.0b/18.0a"},{"town":"茶内西九線","koaza":"","lat":43.177317,"lng":145.003649,"version":"13.0b/18.0a"},{"town":"茶内東一線","koaza":"","lat":43.124385,"lng":145.036981,"version":"13.0b/18.0a"},{"town":"茶内東二線","koaza":"","lat":43.108278,"lng":145.025632,"version":"13.0b/18.0a"},{"town":"茶内東三線","koaza":"","lat":43.143464,"lng":145.07037,"version":"13.0b/18.0a"},{"town":"茶内東四線","koaza":"","lat":43.140602,"lng":145.077429,"version":"13.0b/18.0a"},{"town":"茶内東五線","koaza":"","lat":43.137449,"lng":145.080517,"version":"13.0b/18.0a"},{"town":"茶内東六線","koaza":"","lat":43.134779,"lng":145.087201,"version":"13.0b/18.0a"},{"town":"茶内緑","koaza":"","lat":43.128032,"lng":145.023884,"version":"13.0b/18.0a"},{"town":"茶内本町","koaza":"","lat":43.131436,"lng":145.025607,"version":"13.0b/18.0a"},{"town":"茶内若葉一丁目","koaza":"","lat":43.135506,"lng":145.029672,"version":"13.0b/18.0a"},{"town":"茶内若葉二丁目","koaza":"","lat":43.134687,"lng":145.030874,"version":"13.0b/18.0a"},{"town":"茶内若葉三丁目","koaza":"","lat":43.134426,"lng":145.032798,"version":"13.0b/18.0a"},{"town":"湯沸","koaza":"","lat":43.076257,"lng":145.142637,"version":"13.0b/18.0a"},{"town":"道有林","koaza":"","lat":43.07684,"lng":145.021959,"version":"13.0b/18.0a"},{"town":"仲の浜","koaza":"","lat":43.073108,"lng":145.088922,"version":"13.0b/18.0a"},{"town":"西円朱別西十四線","koaza":"","lat":43.212142,"lng":144.997735,"version":"13.0b/18.0a"},{"town":"西円朱別西十五線","koaza":"","lat":43.214035,"lng":144.991833,"version":"13.0b/18.0a"},{"town":"西円朱別西十六線","koaza":"","lat":43.209178,"lng":144.9804,"version":"13.0b/18.0a"},{"town":"西円朱別西十七線","koaza":"","lat":43.210474,"lng":144.969622,"version":"13.0b/18.0a"},{"town":"西円朱別西十八線","koaza":"","lat":43.212514,"lng":144.963216,"version":"13.0b/18.0a"},{"town":"西円朱別西十九線","koaza":"","lat":43.219815,"lng":144.962409,"version":"13.0b/18.0a"},{"town":"西円朱別西二十線","koaza":"","lat":43.224845,"lng":144.958937,"version":"13.0b/18.0a"},{"town":"西円朱別西二十一線","koaza":"","lat":43.22783,"lng":144.950466,"version":"13.0b/18.0a"},{"town":"西円朱別西二十二線","koaza":"","lat":43.232012,"lng":144.948407,"version":"13.0b/18.0a"},{"town":"西円朱別西二十三線","koaza":"","lat":43.234143,"lng":144.942619,"version":"13.0b/18.0a"},{"town":"西円朱別西二十四線","koaza":"","lat":43.237355,"lng":144.937936,"version":"13.0b/18.0a"},{"town":"西円朱別西二十五線","koaza":"","lat":43.242432,"lng":144.93436,"version":"13.0b/18.0a"},{"town":"西円朱別西二十六線","koaza":"","lat":43.242127,"lng":144.925132,"version":"13.0b/18.0a"},{"town":"西円朱別西二十七線","koaza":"","lat":43.243264,"lng":144.91772,"version":"13.0b/18.0a"},{"town":"二番沢","koaza":"","lat":43.069505,"lng":145.032919,"version":"13.0b/18.0a"},{"town":"走古潭","koaza":"","lat":43.121018,"lng":145.082182,"version":"13.0b/18.0a"},{"town":"浜中基線","koaza":"","lat":43.176501,"lng":145.082299,"version":"13.0b/18.0a"},{"town":"浜中桜北","koaza":"","lat":43.158809,"lng":145.101625,"version":"13.0b/18.0a"},{"town":"浜中桜西","koaza":"","lat":43.154148,"lng":145.099741,"version":"13.0b/18.0a"},{"town":"浜中桜東","koaza":"","lat":43.157574,"lng":145.105847,"version":"13.0b/18.0a"},{"town":"浜中桜南","koaza":"","lat":43.153016,"lng":145.102585,"version":"13.0b/18.0a"},{"town":"浜中西一線","koaza":"","lat":43.179566,"lng":145.074098,"version":"13.0b/18.0a"},{"town":"浜中西二線","koaza":"","lat":43.18328,"lng":145.072342,"version":"13.0b/18.0a"},{"town":"浜中西三線","koaza":"","lat":43.179514,"lng":145.061412,"version":"13.0b/18.0a"},{"town":"浜中東","koaza":"","lat":43.156774,"lng":145.127053,"version":"13.0b/18.0a"},{"town":"浜中東一線","koaza":"","lat":43.173661,"lng":145.089306,"version":"13.0b/18.0a"},{"town":"浜中東二線","koaza":"","lat":43.170151,"lng":145.095234,"version":"13.0b/18.0a"},{"town":"浜中東三線","koaza":"","lat":43.167002,"lng":145.098254,"version":"13.0b/18.0a"},{"town":"浜中東四線","koaza":"","lat":43.164008,"lng":145.103171,"version":"13.0b/18.0a"},{"town":"浜中東五線","koaza":"","lat":43.168487,"lng":145.118299,"version":"13.0b/18.0a"},{"town":"浜中東六線","koaza":"","lat":43.158264,"lng":145.113225,"version":"13.0b/18.0a"},{"town":"火散布","koaza":"","lat":43.047785,"lng":145.006756,"version":"13.0b/18.0a"},{"town":"琵琶瀬","koaza":"","lat":43.055007,"lng":145.078316,"version":"13.0b/18.0a"},{"town":"暮帰別西一丁目","koaza":"","lat":43.086879,"lng":145.105958,"version":"13.0b/18.0a"},{"town":"暮帰別西二丁目","koaza":"","lat":43.090939,"lng":145.102474,"version":"13.0b/18.0a"},{"town":"暮帰別西三丁目","koaza":"","lat":43.095022,"lng":145.101554,"version":"13.0b/18.0a"},{"town":"暮帰別東一丁目","koaza":"","lat":43.085075,"lng":145.111973,"version":"13.0b/18.0a"},{"town":"暮帰別東二丁目","koaza":"","lat":43.09154,"lng":145.109561,"version":"13.0b/18.0a"},{"town":"暮帰別東三丁目","koaza":"","lat":43.097734,"lng":145.10808,"version":"13.0b/18.0a"},{"town":"幌戸","koaza":"","lat":43.154027,"lng":145.145633,"version":"13.0b/18.0a"},{"town":"奔幌戸","koaza":"","lat":43.161382,"lng":145.164199,"version":"13.0b/18.0a"},{"town":"丸山散布","koaza":"","lat":43.03182,"lng":145.010955,"version":"13.0b/18.0a"},{"town":"丸山散布一丁目","koaza":"","lat":43.033043,"lng":145.017227,"version":"13.0b/18.0a"},{"town":"丸山散布二丁目","koaza":"","lat":43.034936,"lng":145.012953,"version":"13.0b/18.0a"},{"town":"貰人","koaza":"","lat":43.154326,"lng":145.218927,"version":"13.0b/18.0a"},{"town":"藻散布","koaza":"","lat":43.01792,"lng":145.010258,"version":"13.0b/18.0a"},{"town":"養老散布","koaza":"","lat":43.032147,"lng":145.038005,"version":"13.0b/18.0a"},{"town":"四番沢","koaza":"","lat":43.085565,"lng":145.059243,"version":"13.0b/18.0a"},{"town":"六番沢","koaza":"","lat":43.112818,"lng":145.063116,"version":"13.0b/18.0a"},{"town":"渡散布","koaza":"","lat":43.039139,"lng":145.054941,"version":"13.0b/18.0a"},{"town":"赤泊","koaza":"","lat":43.142463,"lng":145.184848,"version":"14.0b/19.0a"},{"town":"姉別一丁目","koaza":"","lat":43.194077,"lng":145.194291,"version":"14.0b/19.0a"},{"town":"姉別二丁目","koaza":"","lat":43.195805,"lng":145.19288,"version":"14.0b/19.0a"},{"town":"姉別三丁目","koaza":"","lat":43.197053,"lng":145.195667,"version":"14.0b/19.0a"},{"town":"姉別基線","koaza":"","lat":43.228289,"lng":145.166598,"version":"14.0b/19.0a"},{"town":"姉別北","koaza":"","lat":43.246291,"lng":145.164676,"version":"14.0b/19.0a"},{"town":"姉別北一線","koaza":"","lat":43.230902,"lng":145.162496,"version":"14.0b/19.0a"},{"town":"姉別北二線","koaza":"","lat":43.236395,"lng":145.160995,"version":"14.0b/19.0a"},{"town":"姉別北三線","koaza":"","lat":43.236216,"lng":145.148915,"version":"14.0b/19.0a"},{"town":"姉別南","koaza":"","lat":43.191018,"lng":145.2196,"version":"14.0b/19.0a"},{"town":"姉別南一線","koaza":"","lat":43.223534,"lng":145.172641,"version":"14.0b/19.0a"},{"town":"姉別南二線","koaza":"","lat":43.217199,"lng":145.169189,"version":"14.0b/19.0a"},{"town":"姉別南三線","koaza":"","lat":43.212044,"lng":145.167814,"version":"14.0b/19.0a"},{"town":"姉別南四線","koaza":"","lat":43.20829,"lng":145.170639,"version":"14.0b/19.0a"},{"town":"姉別南五線","koaza":"","lat":43.202727,"lng":145.176165,"version":"14.0b/19.0a"},{"town":"姉別南六線","koaza":"","lat":43.199616,"lng":145.182925,"version":"14.0b/19.0a"},{"town":"姉別南七線","koaza":"","lat":43.202379,"lng":145.207882,"version":"14.0b/19.0a"},{"town":"姉別南八線","koaza":"","lat":43.197941,"lng":145.208412,"version":"14.0b/19.0a"},{"town":"姉別緑栄","koaza":"","lat":43.182382,"lng":145.171492,"version":"14.0b/19.0a"},{"town":"一番沢","koaza":"","lat":43.052713,"lng":145.0403,"version":"14.0b/19.0a"},{"town":"羨古丹","koaza":"","lat":43.157023,"lng":145.188563,"version":"14.0b/19.0a"},{"town":"恵茶人","koaza":"","lat":43.180167,"lng":145.279588,"version":"14.0b/19.0a"},{"town":"円朱別西十線","koaza":"","lat":43.226683,"lng":145.047813,"version":"14.0b/19.0a"},{"town":"円朱別西三線","koaza":"","lat":43.209951,"lng":145.090551,"version":"14.0b/19.0a"},{"town":"円朱別西四線","koaza":"","lat":43.213775,"lng":145.087837,"version":"14.0b/19.0a"},{"town":"円朱別西五線","koaza":"","lat":43.215741,"lng":145.081482,"version":"14.0b/19.0a"},{"town":"円朱別西六線","koaza":"","lat":43.216159,"lng":145.0731,"version":"14.0b/19.0a"},{"town":"円朱別西七線","koaza":"","lat":43.219663,"lng":145.067923,"version":"14.0b/19.0a"},{"town":"円朱別西八線","koaza":"","lat":43.221043,"lng":145.060684,"version":"14.0b/19.0a"},{"town":"円朱別西九線","koaza":"","lat":43.225006,"lng":145.057111,"version":"14.0b/19.0a"},{"town":"大津屋沢","koaza":"","lat":43.134186,"lng":145.098424,"version":"14.0b/19.0a"},{"town":"北の沢","koaza":"","lat":43.065154,"lng":145.008736,"version":"14.0b/19.0a"},{"town":"霧多布湿原","koaza":"","lat":43.084839,"lng":145.079293,"version":"14.0b/19.0a"},{"town":"霧多布西一条一丁目","koaza":"","lat":43.080885,"lng":145.126035,"version":"14.0b/19.0a"},{"town":"霧多布西一条二丁目","koaza":"","lat":43.080769,"lng":145.121521,"version":"14.0b/19.0a"},{"town":"霧多布西二条一丁目","koaza":"","lat":43.079132,"lng":145.127045,"version":"14.0b/19.0a"},{"town":"霧多布西二条二丁目","koaza":"","lat":43.078297,"lng":145.122854,"version":"14.0b/19.0a"},{"town":"霧多布西三条一丁目","koaza":"","lat":43.077892,"lng":145.127104,"version":"14.0b/19.0a"},{"town":"霧多布西三条二丁目","koaza":"","lat":43.077581,"lng":145.124679,"version":"14.0b/19.0a"},{"town":"霧多布西四条一丁目","koaza":"","lat":43.074702,"lng":145.128493,"version":"14.0b/19.0a"},{"town":"霧多布東一条一丁目","koaza":"","lat":43.081076,"lng":145.129698,"version":"14.0b/19.0a"},{"town":"霧多布東一条二丁目","koaza":"","lat":43.082087,"lng":145.13316,"version":"14.0b/19.0a"},{"town":"霧多布東二条一丁目","koaza":"","lat":43.07968,"lng":145.130194,"version":"14.0b/19.0a"},{"town":"霧多布東二条二丁目","koaza":"","lat":43.080473,"lng":145.134296,"version":"14.0b/19.0a"},{"town":"霧多布東三条一丁目","koaza":"","lat":43.078572,"lng":145.130553,"version":"14.0b/19.0a"},{"town":"霧多布東三条二丁目","koaza":"","lat":43.079551,"lng":145.134239,"version":"14.0b/19.0a"},{"town":"霧多布東四条一丁目","koaza":"","lat":43.077263,"lng":145.130874,"version":"14.0b/19.0a"},{"town":"鯨浜","koaza":"","lat":42.995001,"lng":144.998938,"version":"14.0b/19.0a"},{"town":"熊牛基線","koaza":"","lat":43.204644,"lng":145.113533,"version":"14.0b/19.0a"},{"town":"熊牛西一線","koaza":"","lat":43.208815,"lng":145.108566,"version":"14.0b/19.0a"},{"town":"熊牛西二線","koaza":"","lat":43.212183,"lng":145.101223,"version":"14.0b/19.0a"},{"town":"熊牛西三線","koaza":"","lat":43.222193,"lng":145.108641,"version":"14.0b/19.0a"},{"town":"熊牛東一線","koaza":"","lat":43.200008,"lng":145.117219,"version":"14.0b/19.0a"},{"town":"熊牛東二線","koaza":"","lat":43.19686,"lng":145.12336,"version":"14.0b/19.0a"},{"town":"熊牛東三線","koaza":"","lat":43.195012,"lng":145.129921,"version":"14.0b/19.0a"},{"town":"熊牛東四線","koaza":"","lat":43.189601,"lng":145.132574,"version":"14.0b/19.0a"},{"town":"熊牛東五線","koaza":"","lat":43.18646,"lng":145.13786,"version":"14.0b/19.0a"},{"town":"熊牛東六線","koaza":"","lat":43.180681,"lng":145.14322,"version":"14.0b/19.0a"},{"town":"嶮暮帰","koaza":"","lat":43.049186,"lng":145.104688,"version":"14.0b/19.0a"},{"town":"厚陽","koaza":"","lat":43.208107,"lng":145.26818,"version":"14.0b/19.0a"},{"town":"小島","koaza":"","lat":43.063605,"lng":145.122723,"version":"14.0b/19.0a"},{"town":"榊町","koaza":"","lat":43.11314,"lng":145.109224,"version":"14.0b/19.0a"},{"town":"榊町西","koaza":"","lat":43.114743,"lng":145.103336,"version":"14.0b/19.0a"},{"town":"三番沢","koaza":"","lat":43.080042,"lng":145.035358,"version":"14.0b/19.0a"},{"town":"後静","koaza":"","lat":43.136026,"lng":145.120039,"version":"14.0b/19.0a"},{"town":"新川","koaza":"","lat":43.096493,"lng":145.092653,"version":"14.0b/19.0a"},{"town":"新川西一丁目","koaza":"","lat":43.083109,"lng":145.100096,"version":"14.0b/19.0a"},{"town":"新川東一丁目","koaza":"","lat":43.080472,"lng":145.110987,"version":"14.0b/19.0a"},{"town":"新川東二丁目","koaza":"","lat":43.083482,"lng":145.106925,"version":"14.0b/19.0a"},{"town":"仙鳳趾","koaza":"","lat":43.142897,"lng":145.218521,"version":"14.0b/19.0a"},{"town":"茶内旭一丁目","koaza":"","lat":43.131522,"lng":145.034921,"version":"14.0b/19.0a"},{"town":"茶内旭二丁目","koaza":"","lat":43.12831,"lng":145.032467,"version":"14.0b/19.0a"},{"town":"茶内旭三丁目","koaza":"","lat":43.124499,"lng":145.028223,"version":"14.0b/19.0a"},{"town":"茶内基線","koaza":"","lat":43.146349,"lng":145.047883,"version":"14.0b/19.0a"},{"town":"茶内橋北西","koaza":"","lat":43.132237,"lng":145.019223,"version":"14.0b/19.0a"},{"town":"茶内橋北東","koaza":"","lat":43.135421,"lng":145.022218,"version":"14.0b/19.0a"},{"town":"茶内栄","koaza":"","lat":43.132002,"lng":145.028899,"version":"14.0b/19.0a"},{"town":"茶内西","koaza":"","lat":43.153007,"lng":144.95535,"version":"14.0b/19.0a"},{"town":"茶内西十線","koaza":"","lat":43.185534,"lng":145.003989,"version":"14.0b/19.0a"},{"town":"茶内西十一線","koaza":"","lat":43.186134,"lng":144.995121,"version":"14.0b/19.0a"},{"town":"茶内西十二線","koaza":"","lat":43.186913,"lng":144.987799,"version":"14.0b/19.0a"},{"town":"茶内西十三線","koaza":"","lat":43.190638,"lng":144.982858,"version":"14.0b/19.0a"},{"town":"茶内西十四線","koaza":"","lat":43.183373,"lng":144.966373,"version":"14.0b/19.0a"},{"town":"茶内西十五線","koaza":"","lat":43.185276,"lng":144.960437,"version":"14.0b/19.0a"},{"town":"茶内西十六線","koaza":"","lat":43.186827,"lng":144.953203,"version":"14.0b/19.0a"},{"town":"茶内西十七線","koaza":"","lat":43.180491,"lng":144.938755,"version":"14.0b/19.0a"},{"town":"茶内西一線","koaza":"","lat":43.149037,"lng":145.042151,"version":"14.0b/19.0a"},{"town":"茶内西二線","koaza":"","lat":43.151671,"lng":145.03716,"version":"14.0b/19.0a"},{"town":"茶内西三線","koaza":"","lat":43.157494,"lng":145.033773,"version":"14.0b/19.0a"},{"town":"茶内西四線","koaza":"","lat":43.16071,"lng":145.028243,"version":"14.0b/19.0a"},{"town":"茶内西五線","koaza":"","lat":43.162815,"lng":145.023135,"version":"14.0b/19.0a"},{"town":"茶内西六線","koaza":"","lat":43.167066,"lng":145.018952,"version":"14.0b/19.0a"},{"town":"茶内西七線","koaza":"","lat":43.169774,"lng":145.012365,"version":"14.0b/19.0a"},{"town":"茶内西八線","koaza":"","lat":43.17591,"lng":145.010257,"version":"14.0b/19.0a"},{"town":"茶内西九線","koaza":"","lat":43.177317,"lng":145.003649,"version":"14.0b/19.0a"},{"town":"茶内東一線","koaza":"","lat":43.124385,"lng":145.036981,"version":"14.0b/19.0a"},{"town":"茶内東二線","koaza":"","lat":43.108278,"lng":145.025632,"version":"14.0b/19.0a"},{"town":"茶内東三線","koaza":"","lat":43.143464,"lng":145.07037,"version":"14.0b/19.0a"},{"town":"茶内東四線","koaza":"","lat":43.140602,"lng":145.077429,"version":"14.0b/19.0a"},{"town":"茶内東五線","koaza":"","lat":43.137449,"lng":145.080517,"version":"14.0b/19.0a"},{"town":"茶内東六線","koaza":"","lat":43.134779,"lng":145.087201,"version":"14.0b/19.0a"},{"town":"茶内緑","koaza":"","lat":43.128032,"lng":145.023884,"version":"14.0b/19.0a"},{"town":"茶内本町","koaza":"","lat":43.131436,"lng":145.025607,"version":"14.0b/19.0a"},{"town":"茶内若葉一丁目","koaza":"","lat":43.135506,"lng":145.029672,"version":"14.0b/19.0a"},{"town":"茶内若葉二丁目","koaza":"","lat":43.134687,"lng":145.030874,"version":"14.0b/19.0a"},{"town":"茶内若葉三丁目","koaza":"","lat":43.134426,"lng":145.032798,"version":"14.0b/19.0a"},{"town":"湯沸","koaza":"","lat":43.076257,"lng":145.142637,"version":"14.0b/19.0a"},{"town":"道有林","koaza":"","lat":43.07684,"lng":145.021959,"version":"14.0b/19.0a"},{"town":"仲の浜","koaza":"","lat":43.073108,"lng":145.088922,"version":"14.0b/19.0a"},{"town":"西円朱別西十四線","koaza":"","lat":43.212142,"lng":144.997735,"version":"14.0b/19.0a"},{"town":"西円朱別西十五線","koaza":"","lat":43.214035,"lng":144.991833,"version":"14.0b/19.0a"},{"town":"西円朱別西十六線","koaza":"","lat":43.209178,"lng":144.9804,"version":"14.0b/19.0a"},{"town":"西円朱別西十七線","koaza":"","lat":43.210474,"lng":144.969622,"version":"14.0b/19.0a"},{"town":"西円朱別西十八線","koaza":"","lat":43.212514,"lng":144.963216,"version":"14.0b/19.0a"},{"town":"西円朱別西十九線","koaza":"","lat":43.219815,"lng":144.962409,"version":"14.0b/19.0a"},{"town":"西円朱別西二十線","koaza":"","lat":43.224845,"lng":144.958937,"version":"14.0b/19.0a"},{"town":"西円朱別西二十一線","koaza":"","lat":43.22783,"lng":144.950466,"version":"14.0b/19.0a"},{"town":"西円朱別西二十二線","koaza":"","lat":43.232012,"lng":144.948407,"version":"14.0b/19.0a"},{"town":"西円朱別西二十三線","koaza":"","lat":43.234143,"lng":144.942619,"version":"14.0b/19.0a"},{"town":"西円朱別西二十四線","koaza":"","lat":43.237355,"lng":144.937936,"version":"14.0b/19.0a"},{"town":"西円朱別西二十五線","koaza":"","lat":43.242432,"lng":144.93436,"version":"14.0b/19.0a"},{"town":"西円朱別西二十六線","koaza":"","lat":43.242127,"lng":144.925132,"version":"14.0b/19.0a"},{"town":"西円朱別西二十七線","koaza":"","lat":43.243264,"lng":144.91772,"version":"14.0b/19.0a"},{"town":"二番沢","koaza":"","lat":43.069505,"lng":145.032919,"version":"14.0b/19.0a"},{"town":"走古潭","koaza":"","lat":43.121018,"lng":145.082182,"version":"14.0b/19.0a"},{"town":"浜中基線","koaza":"","lat":43.176501,"lng":145.082299,"version":"14.0b/19.0a"},{"town":"浜中桜北","koaza":"","lat":43.158809,"lng":145.101625,"version":"14.0b/19.0a"},{"town":"浜中桜西","koaza":"","lat":43.154148,"lng":145.099741,"version":"14.0b/19.0a"},{"town":"浜中桜東","koaza":"","lat":43.157574,"lng":145.105847,"version":"14.0b/19.0a"},{"town":"浜中桜南","koaza":"","lat":43.153016,"lng":145.102585,"version":"14.0b/19.0a"},{"town":"浜中西一線","koaza":"","lat":43.179566,"lng":145.074098,"version":"14.0b/19.0a"},{"town":"浜中西二線","koaza":"","lat":43.18328,"lng":145.072342,"version":"14.0b/19.0a"},{"town":"浜中西三線","koaza":"","lat":43.179514,"lng":145.061412,"version":"14.0b/19.0a"},{"town":"浜中東","koaza":"","lat":43.156774,"lng":145.127053,"version":"14.0b/19.0a"},{"town":"浜中東一線","koaza":"","lat":43.173661,"lng":145.089306,"version":"14.0b/19.0a"},{"town":"浜中東二線","koaza":"","lat":43.170151,"lng":145.095234,"version":"14.0b/19.0a"},{"town":"浜中東三線","koaza":"","lat":43.167002,"lng":145.098254,"version":"14.0b/19.0a"},{"town":"浜中東四線","koaza":"","lat":43.164008,"lng":145.103171,"version":"14.0b/19.0a"},{"town":"浜中東五線","koaza":"","lat":43.168487,"lng":145.118299,"version":"14.0b/19.0a"},{"town":"浜中東六線","koaza":"","lat":43.158264,"lng":145.113225,"version":"14.0b/19.0a"},{"town":"火散布","koaza":"","lat":43.047785,"lng":145.006756,"version":"14.0b/19.0a"},{"town":"琵琶瀬","koaza":"","lat":43.055007,"lng":145.078316,"version":"14.0b/19.0a"},{"town":"暮帰別西一丁目","koaza":"","lat":43.086879,"lng":145.105958,"version":"14.0b/19.0a"},{"town":"暮帰別西二丁目","koaza":"","lat":43.090939,"lng":145.102474,"version":"14.0b/19.0a"},{"town":"暮帰別西三丁目","koaza":"","lat":43.095022,"lng":145.101554,"version":"14.0b/19.0a"},{"town":"暮帰別東一丁目","koaza":"","lat":43.085075,"lng":145.111973,"version":"14.0b/19.0a"},{"town":"暮帰別東二丁目","koaza":"","lat":43.09154,"lng":145.109561,"version":"14.0b/19.0a"},{"town":"暮帰別東三丁目","koaza":"","lat":43.097734,"lng":145.10808,"version":"14.0b/19.0a"},{"town":"幌戸","koaza":"","lat":43.154027,"lng":145.145633,"version":"14.0b/19.0a"},{"town":"奔幌戸","koaza":"","lat":43.161382,"lng":145.164199,"version":"14.0b/19.0a"},{"town":"丸山散布","koaza":"","lat":43.03182,"lng":145.010955,"version":"14.0b/19.0a"},{"town":"丸山散布一丁目","koaza":"","lat":43.033043,"lng":145.017227,"version":"14.0b/19.0a"},{"town":"丸山散布二丁目","koaza":"","lat":43.034936,"lng":145.012953,"version":"14.0b/19.0a"},{"town":"貰人","koaza":"","lat":43.154326,"lng":145.218927,"version":"14.0b/19.0a"},{"town":"藻散布","koaza":"","lat":43.01792,"lng":145.010258,"version":"14.0b/19.0a"},{"town":"養老散布","koaza":"","lat":43.032147,"lng":145.038005,"version":"14.0b/19.0a"},{"town":"四番沢","koaza":"","lat":43.085565,"lng":145.059243,"version":"14.0b/19.0a"},{"town":"六番沢","koaza":"","lat":43.112818,"lng":145.063116,"version":"14.0b/19.0a"},{"town":"渡散布","koaza":"","lat":43.039139,"lng":145.054941,"version":"14.0b/19.0a"}]