[{"town":"字曙","koaza":"","lat":44.339032,"lng":142.416811,"version":"13.0b/18.0a"},{"town":"字朝日","koaza":"","lat":44.312856,"lng":142.528531,"version":"13.0b/18.0a"},{"town":"字大橋","koaza":"","lat":44.377526,"lng":142.452737,"version":"13.0b/18.0a"},{"town":"字共和","koaza":"","lat":44.328884,"lng":142.425271,"version":"13.0b/18.0a"},{"town":"字旭東","koaza":"","lat":44.355673,"lng":142.528087,"version":"13.0b/18.0a"},{"town":"字智恵文","koaza":"","lat":44.4308,"lng":142.357295,"version":"13.0b/18.0a"},{"town":"字徳田","koaza":"","lat":44.331224,"lng":142.457743,"version":"13.0b/18.0a"},{"town":"字砺波","koaza":"","lat":44.365066,"lng":142.43583,"version":"13.0b/18.0a"},{"town":"字内淵","koaza":"","lat":44.409077,"lng":142.436041,"version":"13.0b/18.0a"},{"town":"字日彰","koaza":"","lat":44.322938,"lng":142.496175,"version":"13.0b/18.0a"},{"town":"字日進","koaza":"","lat":44.40383,"lng":142.518355,"version":"13.0b/18.0a"},{"town":"字豊栄","koaza":"","lat":44.331533,"lng":142.444268,"version":"13.0b/18.0a"},{"town":"字瑞穂","koaza":"","lat":44.36948,"lng":142.375951,"version":"13.0b/18.0a"},{"town":"字緑丘","koaza":"","lat":44.333735,"lng":142.472529,"version":"13.0b/18.0a"},{"town":"字弥生","koaza":"","lat":44.342503,"lng":142.359253,"version":"13.0b/18.0a"},{"town":"大通北十丁目","koaza":"","lat":44.367679,"lng":142.464817,"version":"13.0b/18.0a"},{"town":"大通北一丁目","koaza":"","lat":44.356947,"lng":142.463725,"version":"13.0b/18.0a"},{"town":"大通北二丁目","koaza":"","lat":44.358143,"lng":142.463722,"version":"13.0b/18.0a"},{"town":"大通北三丁目","koaza":"","lat":44.359303,"lng":142.463714,"version":"13.0b/18.0a"},{"town":"大通北四丁目","koaza":"","lat":44.360498,"lng":142.463705,"version":"13.0b/18.0a"},{"town":"大通北五丁目","koaza":"","lat":44.361701,"lng":142.463699,"version":"13.0b/18.0a"},{"town":"大通北六丁目","koaza":"","lat":44.362825,"lng":142.46331,"version":"13.0b/18.0a"},{"town":"大通北七丁目","koaza":"","lat":44.363647,"lng":142.463769,"version":"13.0b/18.0a"},{"town":"大通北八丁目","koaza":"","lat":44.36427,"lng":142.464792,"version":"13.0b/18.0a"},{"town":"大通北九丁目","koaza":"","lat":44.365613,"lng":142.464879,"version":"13.0b/18.0a"},{"town":"大通南十丁目","koaza":"","lat":44.34547,"lng":142.464143,"version":"13.0b/18.0a"},{"town":"大通南十一丁目","koaza":"","lat":44.343786,"lng":142.464152,"version":"13.0b/18.0a"},{"town":"大通南十二丁目","koaza":"","lat":44.342213,"lng":142.464446,"version":"13.0b/18.0a"},{"town":"大通南一丁目","koaza":"","lat":44.355719,"lng":142.463731,"version":"13.0b/18.0a"},{"town":"大通南二丁目","koaza":"","lat":44.354542,"lng":142.463739,"version":"13.0b/18.0a"},{"town":"大通南三丁目","koaza":"","lat":44.353391,"lng":142.463744,"version":"13.0b/18.0a"},{"town":"大通南四丁目","koaza":"","lat":44.352227,"lng":142.463751,"version":"13.0b/18.0a"},{"town":"大通南五丁目","koaza":"","lat":44.351071,"lng":142.463757,"version":"13.0b/18.0a"},{"town":"大通南六丁目","koaza":"","lat":44.349866,"lng":142.463764,"version":"13.0b/18.0a"},{"town":"大通南七丁目","koaza":"","lat":44.349103,"lng":142.463307,"version":"13.0b/18.0a"},{"town":"大通南八丁目","koaza":"","lat":44.348254,"lng":142.463321,"version":"13.0b/18.0a"},{"town":"大通南九丁目","koaza":"","lat":44.346986,"lng":142.463341,"version":"13.0b/18.0a"},{"town":"西十条北一丁目","koaza":"","lat":44.357443,"lng":142.448878,"version":"13.0b/18.0a"},{"town":"西十条北二丁目","koaza":"","lat":44.358632,"lng":142.449438,"version":"13.0b/18.0a"},{"town":"西十条北三丁目","koaza":"","lat":44.359881,"lng":142.449425,"version":"13.0b/18.0a"},{"town":"西十条北四丁目","koaza":"","lat":44.360856,"lng":142.449419,"version":"13.0b/18.0a"},{"town":"西十条北五丁目","koaza":"","lat":44.361958,"lng":142.448929,"version":"13.0b/18.0a"},{"town":"西十条北六丁目","koaza":"","lat":44.363066,"lng":142.448935,"version":"13.0b/18.0a"},{"town":"西十条北七丁目","koaza":"","lat":44.363816,"lng":142.449137,"version":"13.0b/18.0a"},{"town":"西十条北八丁目","koaza":"","lat":44.364377,"lng":142.447571,"version":"13.0b/18.0a"},{"town":"西十条北九丁目","koaza":"","lat":44.365727,"lng":142.447994,"version":"13.0b/18.0a"},{"town":"西十条南十丁目","koaza":"","lat":44.345095,"lng":142.449777,"version":"13.0b/18.0a"},{"town":"西十条南十一丁目","koaza":"","lat":44.343341,"lng":142.449885,"version":"13.0b/18.0a"},{"town":"西十条南十二丁目","koaza":"","lat":44.341897,"lng":142.449875,"version":"13.0b/18.0a"},{"town":"西十条南一丁目","koaza":"","lat":44.355549,"lng":142.449519,"version":"13.0b/18.0a"},{"town":"西十条南二丁目","koaza":"","lat":44.354507,"lng":142.449453,"version":"13.0b/18.0a"},{"town":"西十条南三丁目","koaza":"","lat":44.353244,"lng":142.44951,"version":"13.0b/18.0a"},{"town":"西十条南四丁目","koaza":"","lat":44.351968,"lng":142.449537,"version":"13.0b/18.0a"},{"town":"西十条南五丁目","koaza":"","lat":44.350776,"lng":142.44969,"version":"13.0b/18.0a"},{"town":"西十条南六丁目","koaza":"","lat":44.35001,"lng":142.449252,"version":"13.0b/18.0a"},{"town":"西十条南七丁目","koaza":"","lat":44.349318,"lng":142.449252,"version":"13.0b/18.0a"},{"town":"西十条南八丁目","koaza":"","lat":44.34822,"lng":142.449694,"version":"13.0b/18.0a"},{"town":"西十条南九丁目","koaza":"","lat":44.346877,"lng":142.44949,"version":"13.0b/18.0a"},{"town":"西十一条北一丁目","koaza":"","lat":44.357294,"lng":142.447323,"version":"13.0b/18.0a"},{"town":"西十一条北二丁目","koaza":"","lat":44.358803,"lng":142.447935,"version":"13.0b/18.0a"},{"town":"西十一条北三丁目","koaza":"","lat":44.359893,"lng":142.447924,"version":"13.0b/18.0a"},{"town":"西十一条北四丁目","koaza":"","lat":44.360878,"lng":142.447922,"version":"13.0b/18.0a"},{"town":"西十一条北五丁目","koaza":"","lat":44.361991,"lng":142.447359,"version":"13.0b/18.0a"},{"town":"西十一条南十丁目","koaza":"","lat":44.345525,"lng":142.448738,"version":"13.0b/18.0a"},{"town":"西十一条南十一丁目","koaza":"","lat":44.343561,"lng":142.448829,"version":"13.0b/18.0a"},{"town":"西十一条南十二丁目","koaza":"","lat":44.34202,"lng":142.448741,"version":"13.0b/18.0a"},{"town":"西十一条南一丁目","koaza":"","lat":44.355314,"lng":142.448105,"version":"13.0b/18.0a"},{"town":"西十一条南三丁目","koaza":"","lat":44.353596,"lng":142.447842,"version":"13.0b/18.0a"},{"town":"西十一条南四丁目","koaza":"","lat":44.352212,"lng":142.44793,"version":"13.0b/18.0a"},{"town":"西十一条南五丁目","koaza":"","lat":44.35084,"lng":142.448161,"version":"13.0b/18.0a"},{"town":"西十一条南六丁目","koaza":"","lat":44.350001,"lng":142.447904,"version":"13.0b/18.0a"},{"town":"西十一条南七丁目","koaza":"","lat":44.3493,"lng":142.447953,"version":"13.0b/18.0a"},{"town":"西十一条南八丁目","koaza":"","lat":44.348271,"lng":142.448152,"version":"13.0b/18.0a"},{"town":"西十一条南九丁目","koaza":"","lat":44.34687,"lng":142.44816,"version":"13.0b/18.0a"},{"town":"西十二条北一丁目","koaza":"","lat":44.357558,"lng":142.446326,"version":"13.0b/18.0a"},{"town":"西十二条北二丁目","koaza":"","lat":44.358835,"lng":142.446359,"version":"13.0b/18.0a"},{"town":"西十二条北三丁目","koaza":"","lat":44.359929,"lng":142.445661,"version":"13.0b/18.0a"},{"town":"西十二条北四丁目","koaza":"","lat":44.360861,"lng":142.446027,"version":"13.0b/18.0a"},{"town":"西十二条北五丁目","koaza":"","lat":44.362456,"lng":142.44538,"version":"13.0b/18.0a"},{"town":"西十二条南十丁目","koaza":"","lat":44.345527,"lng":142.44749,"version":"13.0b/18.0a"},{"town":"西十二条南十一丁目","koaza":"","lat":44.343388,"lng":142.447355,"version":"13.0b/18.0a"},{"town":"西十二条南十二丁目","koaza":"","lat":44.342014,"lng":142.447546,"version":"13.0b/18.0a"},{"town":"西十二条南一丁目","koaza":"","lat":44.355159,"lng":142.446798,"version":"13.0b/18.0a"},{"town":"西十二条南三丁目","koaza":"","lat":44.353173,"lng":142.446751,"version":"13.0b/18.0a"},{"town":"西十二条南四丁目","koaza":"","lat":44.3519,"lng":142.446717,"version":"13.0b/18.0a"},{"town":"西十二条南五丁目","koaza":"","lat":44.350805,"lng":142.446919,"version":"13.0b/18.0a"},{"town":"西十二条南六丁目","koaza":"","lat":44.350037,"lng":142.4465,"version":"13.0b/18.0a"},{"town":"西十二条南七丁目","koaza":"","lat":44.349273,"lng":142.446531,"version":"13.0b/18.0a"},{"town":"西十二条南八丁目","koaza":"","lat":44.348271,"lng":142.446705,"version":"13.0b/18.0a"},{"town":"西十二条南九丁目","koaza":"","lat":44.347008,"lng":142.446667,"version":"13.0b/18.0a"},{"town":"西十三条北一丁目","koaza":"","lat":44.357824,"lng":142.444332,"version":"13.0b/18.0a"},{"town":"西十三条南十丁目","koaza":"","lat":44.345293,"lng":142.446185,"version":"13.0b/18.0a"},{"town":"西十三条南十一丁目","koaza":"","lat":44.343641,"lng":142.44626,"version":"13.0b/18.0a"},{"town":"西十三条南十二丁目","koaza":"","lat":44.342122,"lng":142.44627,"version":"13.0b/18.0a"},{"town":"西十三条南一丁目","koaza":"","lat":44.355654,"lng":142.444691,"version":"13.0b/18.0a"},{"town":"西十三条南二丁目","koaza":"","lat":44.354092,"lng":142.445015,"version":"13.0b/18.0a"},{"town":"西十三条南四丁目","koaza":"","lat":44.35178,"lng":142.44478,"version":"13.0b/18.0a"},{"town":"西十三条南五丁目","koaza":"","lat":44.350483,"lng":142.445373,"version":"13.0b/18.0a"},{"town":"西十三条南六丁目","koaza":"","lat":44.350095,"lng":142.444974,"version":"13.0b/18.0a"},{"town":"西十三条南七丁目","koaza":"","lat":44.349354,"lng":142.445259,"version":"13.0b/18.0a"},{"town":"西十三条南八丁目","koaza":"","lat":44.34826,"lng":142.445239,"version":"13.0b/18.0a"},{"town":"西十三条南九丁目","koaza":"","lat":44.34703,"lng":142.445203,"version":"13.0b/18.0a"},{"town":"西十四条南十丁目","koaza":"","lat":44.345476,"lng":142.444025,"version":"13.0b/18.0a"},{"town":"西十四条南十一丁目","koaza":"","lat":44.344017,"lng":142.444039,"version":"13.0b/18.0a"},{"town":"西十四条南十二丁目","koaza":"","lat":44.34225,"lng":142.443892,"version":"13.0b/18.0a"},{"town":"西十四条南五丁目","koaza":"","lat":44.350846,"lng":142.443915,"version":"13.0b/18.0a"},{"town":"西十四条南六丁目","koaza":"","lat":44.349939,"lng":142.444054,"version":"13.0b/18.0a"},{"town":"西十四条南七丁目","koaza":"","lat":44.349224,"lng":142.443815,"version":"13.0b/18.0a"},{"town":"西十四条南八丁目","koaza":"","lat":44.348235,"lng":142.444014,"version":"13.0b/18.0a"},{"town":"西十四条南九丁目","koaza":"","lat":44.347182,"lng":142.444334,"version":"13.0b/18.0a"},{"town":"西十五条南一丁目","koaza":"","lat":44.355192,"lng":142.442543,"version":"13.0b/18.0a"},{"town":"西十五条南四丁目","koaza":"","lat":44.352689,"lng":142.442164,"version":"13.0b/18.0a"},{"town":"西十五条南五丁目","koaza":"","lat":44.350869,"lng":142.442264,"version":"13.0b/18.0a"},{"town":"西十五条南六丁目","koaza":"","lat":44.349747,"lng":142.442615,"version":"13.0b/18.0a"},{"town":"西十五条南七丁目","koaza":"","lat":44.348837,"lng":142.443027,"version":"13.0b/18.0a"},{"town":"西十五条南九丁目","koaza":"","lat":44.347199,"lng":142.443674,"version":"13.0b/18.0a"},{"town":"西十六条南九丁目","koaza":"","lat":44.347674,"lng":142.442527,"version":"13.0b/18.0a"},{"town":"西一条北一丁目","koaza":"","lat":44.356943,"lng":142.462024,"version":"13.0b/18.0a"},{"town":"西一条北二丁目","koaza":"","lat":44.358137,"lng":142.462017,"version":"13.0b/18.0a"},{"town":"西一条北三丁目","koaza":"","lat":44.359299,"lng":142.462006,"version":"13.0b/18.0a"},{"town":"西一条北四丁目","koaza":"","lat":44.360496,"lng":142.461998,"version":"13.0b/18.0a"},{"town":"西一条北五丁目","koaza":"","lat":44.361697,"lng":142.461994,"version":"13.0b/18.0a"},{"town":"西一条北六丁目","koaza":"","lat":44.362794,"lng":142.461988,"version":"13.0b/18.0a"},{"town":"西一条北七丁目","koaza":"","lat":44.363582,"lng":142.461984,"version":"13.0b/18.0a"},{"town":"西一条南十丁目","koaza":"","lat":44.345497,"lng":142.462082,"version":"13.0b/18.0a"},{"town":"西一条南十一丁目","koaza":"","lat":44.343806,"lng":142.462092,"version":"13.0b/18.0a"},{"town":"西一条南十二丁目","koaza":"","lat":44.342213,"lng":142.462386,"version":"13.0b/18.0a"},{"town":"西一条南一丁目","koaza":"","lat":44.355708,"lng":142.462029,"version":"13.0b/18.0a"},{"town":"西一条南二丁目","koaza":"","lat":44.354527,"lng":142.462034,"version":"13.0b/18.0a"},{"town":"西一条南三丁目","koaza":"","lat":44.353384,"lng":142.462039,"version":"13.0b/18.0a"},{"town":"西一条南四丁目","koaza":"","lat":44.352218,"lng":142.462046,"version":"13.0b/18.0a"},{"town":"西一条南五丁目","koaza":"","lat":44.351062,"lng":142.462052,"version":"13.0b/18.0a"},{"town":"西一条南六丁目","koaza":"","lat":44.349887,"lng":142.462058,"version":"13.0b/18.0a"},{"town":"西一条南七丁目","koaza":"","lat":44.349101,"lng":142.462063,"version":"13.0b/18.0a"},{"town":"西一条南八丁目","koaza":"","lat":44.34825,"lng":142.462067,"version":"13.0b/18.0a"},{"town":"西一条南九丁目","koaza":"","lat":44.346982,"lng":142.462074,"version":"13.0b/18.0a"},{"town":"西二条北一丁目","koaza":"","lat":44.356942,"lng":142.460467,"version":"13.0b/18.0a"},{"town":"西二条北二丁目","koaza":"","lat":44.358135,"lng":142.460457,"version":"13.0b/18.0a"},{"town":"西二条北三丁目","koaza":"","lat":44.359295,"lng":142.46045,"version":"13.0b/18.0a"},{"town":"西二条北四丁目","koaza":"","lat":44.36049,"lng":142.460446,"version":"13.0b/18.0a"},{"town":"西二条北五丁目","koaza":"","lat":44.361692,"lng":142.46044,"version":"13.0b/18.0a"},{"town":"西二条北六丁目","koaza":"","lat":44.362785,"lng":142.460434,"version":"13.0b/18.0a"},{"town":"西二条北七丁目","koaza":"","lat":44.363628,"lng":142.460408,"version":"13.0b/18.0a"},{"town":"西二条北八丁目","koaza":"","lat":44.365163,"lng":142.462223,"version":"13.0b/18.0a"},{"town":"西二条南十丁目","koaza":"","lat":44.345533,"lng":142.460659,"version":"13.0b/18.0a"},{"town":"西二条南十一丁目","koaza":"","lat":44.343816,"lng":142.460538,"version":"13.0b/18.0a"},{"town":"西二条南十二丁目","koaza":"","lat":44.342209,"lng":142.460547,"version":"13.0b/18.0a"},{"town":"西二条南一丁目","koaza":"","lat":44.355889,"lng":142.460047,"version":"13.0b/18.0a"},{"town":"西二条南二丁目","koaza":"","lat":44.354529,"lng":142.46048,"version":"13.0b/18.0a"},{"town":"西二条南三丁目","koaza":"","lat":44.35339,"lng":142.460485,"version":"13.0b/18.0a"},{"town":"西二条南四丁目","koaza":"","lat":44.35222,"lng":142.460492,"version":"13.0b/18.0a"},{"town":"西二条南五丁目","koaza":"","lat":44.351063,"lng":142.460498,"version":"13.0b/18.0a"},{"town":"西二条南六丁目","koaza":"","lat":44.349885,"lng":142.460504,"version":"13.0b/18.0a"},{"town":"西二条南七丁目","koaza":"","lat":44.349091,"lng":142.460509,"version":"13.0b/18.0a"},{"town":"西二条南八丁目","koaza":"","lat":44.34824,"lng":142.460513,"version":"13.0b/18.0a"},{"town":"西二条南九丁目","koaza":"","lat":44.346961,"lng":142.460174,"version":"13.0b/18.0a"},{"town":"西三条北一丁目","koaza":"","lat":44.356939,"lng":142.458852,"version":"13.0b/18.0a"},{"town":"西三条北二丁目","koaza":"","lat":44.358137,"lng":142.45884,"version":"13.0b/18.0a"},{"town":"西三条北三丁目","koaza":"","lat":44.359293,"lng":142.458834,"version":"13.0b/18.0a"},{"town":"西三条北四丁目","koaza":"","lat":44.360481,"lng":142.458829,"version":"13.0b/18.0a"},{"town":"西三条北五丁目","koaza":"","lat":44.361679,"lng":142.458825,"version":"13.0b/18.0a"},{"town":"西三条北六丁目","koaza":"","lat":44.362774,"lng":142.458819,"version":"13.0b/18.0a"},{"town":"西三条北七丁目","koaza":"","lat":44.363558,"lng":142.458816,"version":"13.0b/18.0a"},{"town":"西三条南十丁目","koaza":"","lat":44.345535,"lng":142.459044,"version":"13.0b/18.0a"},{"town":"西三条南十一丁目","koaza":"","lat":44.343828,"lng":142.458922,"version":"13.0b/18.0a"},{"town":"西三条南十二丁目","koaza":"","lat":44.34219,"lng":142.458933,"version":"13.0b/18.0a"},{"town":"西三条南一丁目","koaza":"","lat":44.355702,"lng":142.45886,"version":"13.0b/18.0a"},{"town":"西三条南二丁目","koaza":"","lat":44.354526,"lng":142.458863,"version":"13.0b/18.0a"},{"town":"西三条南三丁目","koaza":"","lat":44.353388,"lng":142.45887,"version":"13.0b/18.0a"},{"town":"西三条南四丁目","koaza":"","lat":44.352222,"lng":142.458876,"version":"13.0b/18.0a"},{"town":"西三条南五丁目","koaza":"","lat":44.351061,"lng":142.458883,"version":"13.0b/18.0a"},{"town":"西三条南六丁目","koaza":"","lat":44.349878,"lng":142.458889,"version":"13.0b/18.0a"},{"town":"西三条南七丁目","koaza":"","lat":44.349076,"lng":142.458894,"version":"13.0b/18.0a"},{"town":"西三条南八丁目","koaza":"","lat":44.348233,"lng":142.459331,"version":"13.0b/18.0a"},{"town":"西四条北十丁目","koaza":"","lat":44.367684,"lng":142.45758,"version":"13.0b/18.0a"},{"town":"西四条北十一丁目","koaza":"","lat":44.36878,"lng":142.457531,"version":"13.0b/18.0a"},{"town":"西四条北一丁目","koaza":"","lat":44.356927,"lng":142.457186,"version":"13.0b/18.0a"},{"town":"西四条北二丁目","koaza":"","lat":44.358138,"lng":142.457174,"version":"13.0b/18.0a"},{"town":"西四条北三丁目","koaza":"","lat":44.359294,"lng":142.457173,"version":"13.0b/18.0a"},{"town":"西四条北四丁目","koaza":"","lat":44.360578,"lng":142.457175,"version":"13.0b/18.0a"},{"town":"西四条北五丁目","koaza":"","lat":44.361896,"lng":142.457177,"version":"13.0b/18.0a"},{"town":"西四条北六丁目","koaza":"","lat":44.362746,"lng":142.457522,"version":"13.0b/18.0a"},{"town":"西四条北七丁目","koaza":"","lat":44.363536,"lng":142.45746,"version":"13.0b/18.0a"},{"town":"西四条北八丁目","koaza":"","lat":44.365123,"lng":142.458687,"version":"13.0b/18.0a"},{"town":"西四条南十丁目","koaza":"","lat":44.345074,"lng":142.457291,"version":"13.0b/18.0a"},{"town":"西四条南十一丁目","koaza":"","lat":44.343822,"lng":142.457707,"version":"13.0b/18.0a"},{"town":"西四条南十二丁目","koaza":"","lat":44.342213,"lng":142.457302,"version":"13.0b/18.0a"},{"town":"西四条南一丁目","koaza":"","lat":44.355694,"lng":142.45721,"version":"13.0b/18.0a"},{"town":"西四条南二丁目","koaza":"","lat":44.354523,"lng":142.457233,"version":"13.0b/18.0a"},{"town":"西四条南三丁目","koaza":"","lat":44.353392,"lng":142.457247,"version":"13.0b/18.0a"},{"town":"西四条南四丁目","koaza":"","lat":44.352066,"lng":142.457256,"version":"13.0b/18.0a"},{"town":"西四条南五丁目","koaza":"","lat":44.351092,"lng":142.457263,"version":"13.0b/18.0a"},{"town":"西四条南六丁目","koaza":"","lat":44.349895,"lng":142.457279,"version":"13.0b/18.0a"},{"town":"西四条南七丁目","koaza":"","lat":44.349281,"lng":142.456879,"version":"13.0b/18.0a"},{"town":"西四条南八丁目","koaza":"","lat":44.348246,"lng":142.457725,"version":"13.0b/18.0a"},{"town":"西四条南九丁目","koaza":"","lat":44.34719,"lng":142.45725,"version":"13.0b/18.0a"},{"town":"西五条北十丁目","koaza":"","lat":44.367102,"lng":142.455833,"version":"13.0b/18.0a"},{"town":"西五条北十一丁目","koaza":"","lat":44.368583,"lng":142.456139,"version":"13.0b/18.0a"},{"town":"西五条北一丁目","koaza":"","lat":44.356914,"lng":142.455394,"version":"13.0b/18.0a"},{"town":"西五条北二丁目","koaza":"","lat":44.358135,"lng":142.455392,"version":"13.0b/18.0a"},{"town":"西五条北三丁目","koaza":"","lat":44.359292,"lng":142.455392,"version":"13.0b/18.0a"},{"town":"西五条北四丁目","koaza":"","lat":44.360593,"lng":142.455383,"version":"13.0b/18.0a"},{"town":"西五条北五丁目","koaza":"","lat":44.361984,"lng":142.454777,"version":"13.0b/18.0a"},{"town":"西五条北六丁目","koaza":"","lat":44.363034,"lng":142.456433,"version":"13.0b/18.0a"},{"town":"西五条北七丁目","koaza":"","lat":44.363704,"lng":142.456397,"version":"13.0b/18.0a"},{"town":"西五条北八丁目","koaza":"","lat":44.364284,"lng":142.456242,"version":"13.0b/18.0a"},{"town":"西五条北九丁目","koaza":"","lat":44.365688,"lng":142.456421,"version":"13.0b/18.0a"},{"town":"西五条南十丁目","koaza":"","lat":44.34574,"lng":142.455682,"version":"13.0b/18.0a"},{"town":"西五条南十一丁目","koaza":"","lat":44.343839,"lng":142.455732,"version":"13.0b/18.0a"},{"town":"西五条南十二丁目","koaza":"","lat":44.342223,"lng":142.455739,"version":"13.0b/18.0a"},{"town":"西五条南一丁目","koaza":"","lat":44.355678,"lng":142.455321,"version":"13.0b/18.0a"},{"town":"西五条南二丁目","koaza":"","lat":44.354419,"lng":142.455178,"version":"13.0b/18.0a"},{"town":"西五条南三丁目","koaza":"","lat":44.353245,"lng":142.455472,"version":"13.0b/18.0a"},{"town":"西五条南四丁目","koaza":"","lat":44.352091,"lng":142.455479,"version":"13.0b/18.0a"},{"town":"西五条南五丁目","koaza":"","lat":44.350849,"lng":142.455492,"version":"13.0b/18.0a"},{"town":"西五条南六丁目","koaza":"","lat":44.349901,"lng":142.455506,"version":"13.0b/18.0a"},{"town":"西五条南七丁目","koaza":"","lat":44.349142,"lng":142.455157,"version":"13.0b/18.0a"},{"town":"西五条南八丁目","koaza":"","lat":44.348376,"lng":142.45534,"version":"13.0b/18.0a"},{"town":"西六条北十丁目","koaza":"","lat":44.367261,"lng":142.453636,"version":"13.0b/18.0a"},{"town":"西六条北十一丁目","koaza":"","lat":44.368573,"lng":142.453312,"version":"13.0b/18.0a"},{"town":"西六条北一丁目","koaza":"","lat":44.356784,"lng":142.453958,"version":"13.0b/18.0a"},{"town":"西六条北二丁目","koaza":"","lat":44.358134,"lng":142.453863,"version":"13.0b/18.0a"},{"town":"西六条北三丁目","koaza":"","lat":44.35929,"lng":142.453862,"version":"13.0b/18.0a"},{"town":"西六条北四丁目","koaza":"","lat":44.360592,"lng":142.45385,"version":"13.0b/18.0a"},{"town":"西六条北六丁目","koaza":"","lat":44.363413,"lng":142.454416,"version":"13.0b/18.0a"},{"town":"西六条北八丁目","koaza":"","lat":44.364329,"lng":142.454727,"version":"13.0b/18.0a"},{"town":"西六条北九丁目","koaza":"","lat":44.365746,"lng":142.454744,"version":"13.0b/18.0a"},{"town":"西六条南十丁目","koaza":"","lat":44.345578,"lng":142.454248,"version":"13.0b/18.0a"},{"town":"西六条南十一丁目","koaza":"","lat":44.344224,"lng":142.454249,"version":"13.0b/18.0a"},{"town":"西六条南十二丁目","koaza":"","lat":44.342532,"lng":142.454086,"version":"13.0b/18.0a"},{"town":"西六条南一丁目","koaza":"","lat":44.355802,"lng":142.453608,"version":"13.0b/18.0a"},{"town":"西六条南二丁目","koaza":"","lat":44.354555,"lng":142.453565,"version":"13.0b/18.0a"},{"town":"西六条南三丁目","koaza":"","lat":44.35353,"lng":142.453906,"version":"13.0b/18.0a"},{"town":"西六条南四丁目","koaza":"","lat":44.352111,"lng":142.453719,"version":"13.0b/18.0a"},{"town":"西六条南五丁目","koaza":"","lat":44.350839,"lng":142.454099,"version":"13.0b/18.0a"},{"town":"西六条南六丁目","koaza":"","lat":44.349711,"lng":142.454102,"version":"13.0b/18.0a"},{"town":"西六条南七丁目","koaza":"","lat":44.349135,"lng":142.453322,"version":"13.0b/18.0a"},{"town":"西六条南八丁目","koaza":"","lat":44.348456,"lng":142.453241,"version":"13.0b/18.0a"},{"town":"西六条南九丁目","koaza":"","lat":44.347176,"lng":142.453938,"version":"13.0b/18.0a"},{"town":"西七条北一丁目","koaza":"","lat":44.356787,"lng":142.45278,"version":"13.0b/18.0a"},{"town":"西七条北二丁目","koaza":"","lat":44.358138,"lng":142.452689,"version":"13.0b/18.0a"},{"town":"西七条北三丁目","koaza":"","lat":44.359294,"lng":142.452686,"version":"13.0b/18.0a"},{"town":"西七条北四丁目","koaza":"","lat":44.360586,"lng":142.452677,"version":"13.0b/18.0a"},{"town":"西七条北五丁目","koaza":"","lat":44.361987,"lng":142.452893,"version":"13.0b/18.0a"},{"town":"西七条北六丁目","koaza":"","lat":44.362986,"lng":142.453086,"version":"13.0b/18.0a"},{"town":"西七条北七丁目","koaza":"","lat":44.363677,"lng":142.453035,"version":"13.0b/18.0a"},{"town":"西七条北八丁目","koaza":"","lat":44.364274,"lng":142.453321,"version":"13.0b/18.0a"},{"town":"西七条北九丁目","koaza":"","lat":44.365632,"lng":142.453246,"version":"13.0b/18.0a"},{"town":"西七条南十丁目","koaza":"","lat":44.345574,"lng":142.452702,"version":"13.0b/18.0a"},{"town":"西七条南十一丁目","koaza":"","lat":44.344103,"lng":142.452813,"version":"13.0b/18.0a"},{"town":"西七条南十二丁目","koaza":"","lat":44.342739,"lng":142.452106,"version":"13.0b/18.0a"},{"town":"西七条南一丁目","koaza":"","lat":44.35543,"lng":142.452396,"version":"13.0b/18.0a"},{"town":"西七条南二丁目","koaza":"","lat":44.3543,"lng":142.45241,"version":"13.0b/18.0a"},{"town":"西七条南三丁目","koaza":"","lat":44.35338,"lng":142.452271,"version":"13.0b/18.0a"},{"town":"西七条南四丁目","koaza":"","lat":44.352118,"lng":142.452424,"version":"13.0b/18.0a"},{"town":"西七条南五丁目","koaza":"","lat":44.350838,"lng":142.452943,"version":"13.0b/18.0a"},{"town":"西七条南六丁目","koaza":"","lat":44.349779,"lng":142.452826,"version":"13.0b/18.0a"},{"town":"西七条南七丁目","koaza":"","lat":44.349269,"lng":142.451303,"version":"13.0b/18.0a"},{"town":"西七条南八丁目","koaza":"","lat":44.348445,"lng":142.451315,"version":"13.0b/18.0a"},{"town":"西七条南九丁目","koaza":"","lat":44.347142,"lng":142.451327,"version":"13.0b/18.0a"},{"town":"西八条北一丁目","koaza":"","lat":44.356908,"lng":142.45155,"version":"13.0b/18.0a"},{"town":"西八条北二丁目","koaza":"","lat":44.358135,"lng":142.451541,"version":"13.0b/18.0a"},{"town":"西八条北三丁目","koaza":"","lat":44.35929,"lng":142.451537,"version":"13.0b/18.0a"},{"town":"西八条北四丁目","koaza":"","lat":44.360593,"lng":142.451524,"version":"13.0b/18.0a"},{"town":"西八条北五丁目","koaza":"","lat":44.361973,"lng":142.452194,"version":"13.0b/18.0a"},{"town":"西八条北六丁目","koaza":"","lat":44.363066,"lng":142.452047,"version":"13.0b/18.0a"},{"town":"西八条北七丁目","koaza":"","lat":44.363683,"lng":142.45205,"version":"13.0b/18.0a"},{"town":"西八条北八丁目","koaza":"","lat":44.364384,"lng":142.452042,"version":"13.0b/18.0a"},{"town":"西八条北九丁目","koaza":"","lat":44.365641,"lng":142.452017,"version":"13.0b/18.0a"},{"town":"西八条南十丁目","koaza":"","lat":44.345578,"lng":142.451089,"version":"13.0b/18.0a"},{"town":"西八条南十一丁目","koaza":"","lat":44.344165,"lng":142.451108,"version":"13.0b/18.0a"},{"town":"西八条南十二丁目","koaza":"","lat":44.342533,"lng":142.450707,"version":"13.0b/18.0a"},{"town":"西八条南一丁目","koaza":"","lat":44.355811,"lng":142.450988,"version":"13.0b/18.0a"},{"town":"西八条南二丁目","koaza":"","lat":44.354521,"lng":142.450959,"version":"13.0b/18.0a"},{"town":"西八条南三丁目","koaza":"","lat":44.353023,"lng":142.451018,"version":"13.0b/18.0a"},{"town":"西八条南四丁目","koaza":"","lat":44.351836,"lng":142.451632,"version":"13.0b/18.0a"},{"town":"西八条南五丁目","koaza":"","lat":44.350799,"lng":142.451665,"version":"13.0b/18.0a"},{"town":"西八条南六丁目","koaza":"","lat":44.349979,"lng":142.45169,"version":"13.0b/18.0a"},{"town":"西九条北十丁目","koaza":"","lat":44.367546,"lng":142.449604,"version":"13.0b/18.0a"},{"town":"西九条北一丁目","koaza":"","lat":44.357003,"lng":142.450626,"version":"13.0b/18.0a"},{"town":"西九条北二丁目","koaza":"","lat":44.358063,"lng":142.450595,"version":"13.0b/18.0a"},{"town":"西九条北三丁目","koaza":"","lat":44.359568,"lng":142.450557,"version":"13.0b/18.0a"},{"town":"西九条北四丁目","koaza":"","lat":44.360846,"lng":142.450547,"version":"13.0b/18.0a"},{"town":"西九条北五丁目","koaza":"","lat":44.361965,"lng":142.450996,"version":"13.0b/18.0a"},{"town":"西九条北六丁目","koaza":"","lat":44.363074,"lng":142.450864,"version":"13.0b/18.0a"},{"town":"西九条北七丁目","koaza":"","lat":44.363688,"lng":142.450871,"version":"13.0b/18.0a"},{"town":"西九条北八丁目","koaza":"","lat":44.364392,"lng":142.450865,"version":"13.0b/18.0a"},{"town":"西九条北九丁目","koaza":"","lat":44.365513,"lng":142.450715,"version":"13.0b/18.0a"},{"town":"西九条南四丁目","koaza":"","lat":44.352005,"lng":142.450692,"version":"13.0b/18.0a"},{"town":"西九条南五丁目","koaza":"","lat":44.35093,"lng":142.45068,"version":"13.0b/18.0a"},{"town":"西九条南六丁目","koaza":"","lat":44.350094,"lng":142.450689,"version":"13.0b/18.0a"},{"town":"東一条北一丁目","koaza":"","lat":44.35695,"lng":142.465525,"version":"13.0b/18.0a"},{"town":"東一条北二丁目","koaza":"","lat":44.358149,"lng":142.46552,"version":"13.0b/18.0a"},{"town":"東一条北三丁目","koaza":"","lat":44.359307,"lng":142.465518,"version":"13.0b/18.0a"},{"town":"東一条北四丁目","koaza":"","lat":44.360501,"lng":142.465512,"version":"13.0b/18.0a"},{"town":"東一条北五丁目","koaza":"","lat":44.361706,"lng":142.465509,"version":"13.0b/18.0a"},{"town":"東一条北六丁目","koaza":"","lat":44.362891,"lng":142.464892,"version":"13.0b/18.0a"},{"town":"東一条北七丁目","koaza":"","lat":44.363649,"lng":142.465517,"version":"13.0b/18.0a"},{"town":"東一条北八丁目","koaza":"","lat":44.364276,"lng":142.466073,"version":"13.0b/18.0a"},{"town":"東一条北九丁目","koaza":"","lat":44.366633,"lng":142.466034,"version":"13.0b/18.0a"},{"town":"東一条南一丁目","koaza":"","lat":44.355726,"lng":142.465531,"version":"13.0b/18.0a"},{"town":"東一条南二丁目","koaza":"","lat":44.354552,"lng":142.465537,"version":"13.0b/18.0a"},{"town":"東一条南三丁目","koaza":"","lat":44.353275,"lng":142.4656,"version":"13.0b/18.0a"},{"town":"東一条南四丁目","koaza":"","lat":44.35224,"lng":142.465402,"version":"13.0b/18.0a"},{"town":"東一条南五丁目","koaza":"","lat":44.350973,"lng":142.465736,"version":"13.0b/18.0a"},{"town":"東一条南六丁目","koaza":"","lat":44.349912,"lng":142.465938,"version":"13.0b/18.0a"},{"town":"東一条南七丁目","koaza":"","lat":44.349098,"lng":142.465489,"version":"13.0b/18.0a"},{"town":"東一条南八丁目","koaza":"","lat":44.348343,"lng":142.46597,"version":"13.0b/18.0a"},{"town":"東一条南九丁目","koaza":"","lat":44.346852,"lng":142.466158,"version":"13.0b/18.0a"},{"town":"東二条北一丁目","koaza":"","lat":44.356956,"lng":142.467161,"version":"13.0b/18.0a"},{"town":"東二条北二丁目","koaza":"","lat":44.35816,"lng":142.467157,"version":"13.0b/18.0a"},{"town":"東二条北三丁目","koaza":"","lat":44.359314,"lng":142.46715,"version":"13.0b/18.0a"},{"town":"東二条北四丁目","koaza":"","lat":44.360498,"lng":142.467144,"version":"13.0b/18.0a"},{"town":"東二条北五丁目","koaza":"","lat":44.361692,"lng":142.467141,"version":"13.0b/18.0a"},{"town":"東二条北六丁目","koaza":"","lat":44.362796,"lng":142.467136,"version":"13.0b/18.0a"},{"town":"東二条北七丁目","koaza":"","lat":44.36358,"lng":142.467133,"version":"13.0b/18.0a"},{"town":"東二条北八丁目","koaza":"","lat":44.364372,"lng":142.467516,"version":"13.0b/18.0a"},{"town":"東二条北九丁目","koaza":"","lat":44.366428,"lng":142.467489,"version":"13.0b/18.0a"},{"town":"東二条南十丁目","koaza":"","lat":44.345472,"lng":142.467162,"version":"13.0b/18.0a"},{"town":"東二条南十一丁目","koaza":"","lat":44.343766,"lng":142.466597,"version":"13.0b/18.0a"},{"town":"東二条南十二丁目","koaza":"","lat":44.342203,"lng":142.466217,"version":"13.0b/18.0a"},{"town":"東二条南一丁目","koaza":"","lat":44.355721,"lng":142.467164,"version":"13.0b/18.0a"},{"town":"東二条南二丁目","koaza":"","lat":44.354546,"lng":142.467169,"version":"13.0b/18.0a"},{"town":"東二条南三丁目","koaza":"","lat":44.35339,"lng":142.467177,"version":"13.0b/18.0a"},{"town":"東二条南四丁目","koaza":"","lat":44.35235,"lng":142.466902,"version":"13.0b/18.0a"},{"town":"東二条南五丁目","koaza":"","lat":44.351096,"lng":142.467252,"version":"13.0b/18.0a"},{"town":"東二条南六丁目","koaza":"","lat":44.3499,"lng":142.46757,"version":"13.0b/18.0a"},{"town":"東二条南七丁目","koaza":"","lat":44.349111,"lng":142.46758,"version":"13.0b/18.0a"},{"town":"東二条南九丁目","koaza":"","lat":44.347671,"lng":142.467554,"version":"13.0b/18.0a"},{"town":"東三条北一丁目","koaza":"","lat":44.356957,"lng":142.468747,"version":"13.0b/18.0a"},{"town":"東三条北二丁目","koaza":"","lat":44.358278,"lng":142.468728,"version":"13.0b/18.0a"},{"town":"東三条北三丁目","koaza":"","lat":44.359277,"lng":142.468728,"version":"13.0b/18.0a"},{"town":"東三条北四丁目","koaza":"","lat":44.360495,"lng":142.468727,"version":"13.0b/18.0a"},{"town":"東三条北五丁目","koaza":"","lat":44.361677,"lng":142.468727,"version":"13.0b/18.0a"},{"town":"東三条北六丁目","koaza":"","lat":44.36279,"lng":142.468717,"version":"13.0b/18.0a"},{"town":"東三条北七丁目","koaza":"","lat":44.363586,"lng":142.46871,"version":"13.0b/18.0a"},{"town":"東三条北八丁目","koaza":"","lat":44.365525,"lng":142.469377,"version":"13.0b/18.0a"},{"town":"東三条南一丁目","koaza":"","lat":44.35572,"lng":142.468745,"version":"13.0b/18.0a"},{"town":"東三条南二丁目","koaza":"","lat":44.354537,"lng":142.46875,"version":"13.0b/18.0a"},{"town":"東三条南三丁目","koaza":"","lat":44.353391,"lng":142.468767,"version":"13.0b/18.0a"},{"town":"東三条南四丁目","koaza":"","lat":44.352242,"lng":142.468769,"version":"13.0b/18.0a"},{"town":"東三条南五丁目","koaza":"","lat":44.351079,"lng":142.468762,"version":"13.0b/18.0a"},{"town":"東三条南六丁目","koaza":"","lat":44.349894,"lng":142.468768,"version":"13.0b/18.0a"},{"town":"東三条南七丁目","koaza":"","lat":44.349077,"lng":142.468684,"version":"13.0b/18.0a"},{"town":"東三条南九丁目","koaza":"","lat":44.347616,"lng":142.468941,"version":"13.0b/18.0a"},{"town":"東四条北一丁目","koaza":"","lat":44.35695,"lng":142.470339,"version":"13.0b/18.0a"},{"town":"東四条北二丁目","koaza":"","lat":44.358144,"lng":142.470336,"version":"13.0b/18.0a"},{"town":"東四条北三丁目","koaza":"","lat":44.359312,"lng":142.470331,"version":"13.0b/18.0a"},{"town":"東四条北四丁目","koaza":"","lat":44.3605,"lng":142.47036,"version":"13.0b/18.0a"},{"town":"東四条北五丁目","koaza":"","lat":44.361677,"lng":142.470398,"version":"13.0b/18.0a"},{"town":"東四条北六丁目","koaza":"","lat":44.362791,"lng":142.47039,"version":"13.0b/18.0a"},{"town":"東四条北七丁目","koaza":"","lat":44.363706,"lng":142.470579,"version":"13.0b/18.0a"},{"town":"東四条北八丁目","koaza":"","lat":44.365259,"lng":142.470619,"version":"13.0b/18.0a"},{"town":"東四条南一丁目","koaza":"","lat":44.355719,"lng":142.470341,"version":"13.0b/18.0a"},{"town":"東四条南二丁目","koaza":"","lat":44.354522,"lng":142.470374,"version":"13.0b/18.0a"},{"town":"東四条南三丁目","koaza":"","lat":44.353387,"lng":142.470401,"version":"13.0b/18.0a"},{"town":"東四条南四丁目","koaza":"","lat":44.352251,"lng":142.470381,"version":"13.0b/18.0a"},{"town":"東四条南五丁目","koaza":"","lat":44.351118,"lng":142.470368,"version":"13.0b/18.0a"},{"town":"東四条南六丁目","koaza":"","lat":44.349918,"lng":142.470385,"version":"13.0b/18.0a"},{"town":"東四条南七丁目","koaza":"","lat":44.349164,"lng":142.470416,"version":"13.0b/18.0a"},{"town":"東四条南九丁目","koaza":"","lat":44.347678,"lng":142.470426,"version":"13.0b/18.0a"},{"town":"東五条北一丁目","koaza":"","lat":44.356962,"lng":142.472286,"version":"13.0b/18.0a"},{"town":"東五条北二丁目","koaza":"","lat":44.358164,"lng":142.472292,"version":"13.0b/18.0a"},{"town":"東五条北三丁目","koaza":"","lat":44.35939,"lng":142.472525,"version":"13.0b/18.0a"},{"town":"東五条北四丁目","koaza":"","lat":44.360721,"lng":142.472162,"version":"13.0b/18.0a"},{"town":"東五条北五丁目","koaza":"","lat":44.361863,"lng":142.473011,"version":"13.0b/18.0a"},{"town":"東五条北六丁目","koaza":"","lat":44.363122,"lng":142.472232,"version":"13.0b/18.0a"},{"town":"東五条北八丁目","koaza":"","lat":44.365052,"lng":142.472348,"version":"13.0b/18.0a"},{"town":"東五条南一丁目","koaza":"","lat":44.355723,"lng":142.472289,"version":"13.0b/18.0a"},{"town":"東五条南二丁目","koaza":"","lat":44.354509,"lng":142.472321,"version":"13.0b/18.0a"},{"town":"東五条南三丁目","koaza":"","lat":44.353431,"lng":142.472525,"version":"13.0b/18.0a"},{"town":"東五条南四丁目","koaza":"","lat":44.35207,"lng":142.472244,"version":"13.0b/18.0a"},{"town":"東五条南五丁目","koaza":"","lat":44.350776,"lng":142.472265,"version":"13.0b/18.0a"},{"town":"東五条南六丁目","koaza":"","lat":44.349557,"lng":142.472517,"version":"13.0b/18.0a"},{"town":"東五条南九丁目","koaza":"","lat":44.347782,"lng":142.471928,"version":"13.0b/18.0a"},{"town":"東六条北一丁目","koaza":"","lat":44.357178,"lng":142.4755,"version":"13.0b/18.0a"},{"town":"東六条北二丁目","koaza":"","lat":44.35821,"lng":142.475295,"version":"13.0b/18.0a"},{"town":"東六条北三丁目","koaza":"","lat":44.359164,"lng":142.47503,"version":"13.0b/18.0a"},{"town":"東六条北四丁目","koaza":"","lat":44.360311,"lng":142.474708,"version":"13.0b/18.0a"},{"town":"東六条北五丁目","koaza":"","lat":44.362897,"lng":142.474416,"version":"13.0b/18.0a"},{"town":"東六条南一丁目","koaza":"","lat":44.355737,"lng":142.4746,"version":"13.0b/18.0a"},{"town":"東六条南二丁目","koaza":"","lat":44.354451,"lng":142.474647,"version":"13.0b/18.0a"},{"town":"東六条南三丁目","koaza":"","lat":44.353083,"lng":142.474349,"version":"13.0b/18.0a"},{"town":"東六条南四丁目","koaza":"","lat":44.352087,"lng":142.474883,"version":"13.0b/18.0a"},{"town":"東六条南五丁目","koaza":"","lat":44.350043,"lng":142.474905,"version":"13.0b/18.0a"},{"town":"東六条南八丁目","koaza":"","lat":44.348379,"lng":142.47313,"version":"13.0b/18.0a"},{"town":"東六条南九丁目","koaza":"","lat":44.347243,"lng":142.473643,"version":"13.0b/18.0a"},{"town":"東七条南一丁目","koaza":"","lat":44.355026,"lng":142.476701,"version":"13.0b/18.0a"},{"town":"東七条南三丁目","koaza":"","lat":44.352388,"lng":142.477025,"version":"13.0b/18.0a"},{"town":"東七条南四丁目","koaza":"","lat":44.351696,"lng":142.476648,"version":"13.0b/18.0a"},{"town":"東七条南八丁目","koaza":"","lat":44.348355,"lng":142.475114,"version":"13.0b/18.0a"},{"town":"東七条南九丁目","koaza":"","lat":44.34708,"lng":142.47532,"version":"13.0b/18.0a"},{"town":"東八条南五丁目","koaza":"","lat":44.350198,"lng":142.477255,"version":"13.0b/18.0a"},{"town":"東八条南八丁目","koaza":"","lat":44.348236,"lng":142.477073,"version":"13.0b/18.0a"},{"town":"東八条南九丁目","koaza":"","lat":44.346905,"lng":142.477094,"version":"13.0b/18.0a"},{"town":"東九条南五丁目","koaza":"","lat":44.350247,"lng":142.478844,"version":"13.0b/18.0a"},{"town":"風連町字旭","koaza":"","lat":44.265259,"lng":142.462594,"version":"13.0b/18.0a"},{"town":"風連町字池の上","koaza":"","lat":44.281303,"lng":142.547102,"version":"13.0b/18.0a"},{"town":"風連町字瑞生","koaza":"","lat":44.301479,"lng":142.388,"version":"13.0b/18.0a"},{"town":"風連町字中央","koaza":"","lat":44.279708,"lng":142.425924,"version":"13.0b/18.0a"},{"town":"風連町字東生","koaza":"","lat":44.216944,"lng":142.575617,"version":"13.0b/18.0a"},{"town":"風連町字豊里","koaza":"","lat":44.315127,"lng":142.425878,"version":"13.0b/18.0a"},{"town":"風連町字西風連","koaza":"","lat":44.314202,"lng":142.331105,"version":"13.0b/18.0a"},{"town":"風連町字日進","koaza":"","lat":44.227934,"lng":142.50732,"version":"13.0b/18.0a"},{"town":"風連町字東風連","koaza":"","lat":44.295561,"lng":142.469998,"version":"13.0b/18.0a"},{"town":"風連町大町","koaza":"","lat":44.294446,"lng":142.422007,"version":"13.0b/18.0a"},{"town":"風連町新生町","koaza":"","lat":44.295157,"lng":142.427138,"version":"13.0b/18.0a"},{"town":"風連町仲町","koaza":"","lat":44.293591,"lng":142.417222,"version":"13.0b/18.0a"},{"town":"風連町西町","koaza":"","lat":44.293529,"lng":142.412833,"version":"13.0b/18.0a"},{"town":"風連町北栄町","koaza":"","lat":44.29873,"lng":142.422214,"version":"13.0b/18.0a"},{"town":"風連町緑町","koaza":"","lat":44.287474,"lng":142.419201,"version":"13.0b/18.0a"},{"town":"風連町南町","koaza":"","lat":44.290238,"lng":142.417294,"version":"13.0b/18.0a"},{"town":"風連町本町","koaza":"","lat":44.2929,"lng":142.420237,"version":"13.0b/18.0a"},{"town":"字曙","koaza":"","lat":44.339032,"lng":142.416811,"version":"14.0b/19.0a"},{"town":"字朝日","koaza":"","lat":44.312856,"lng":142.528531,"version":"14.0b/19.0a"},{"town":"字大橋","koaza":"","lat":44.377526,"lng":142.452737,"version":"14.0b/19.0a"},{"town":"字共和","koaza":"","lat":44.328884,"lng":142.425271,"version":"14.0b/19.0a"},{"town":"字旭東","koaza":"","lat":44.355673,"lng":142.528087,"version":"14.0b/19.0a"},{"town":"字智恵文","koaza":"","lat":44.4308,"lng":142.357295,"version":"14.0b/19.0a"},{"town":"字徳田","koaza":"","lat":44.331224,"lng":142.457743,"version":"14.0b/19.0a"},{"town":"字砺波","koaza":"","lat":44.365066,"lng":142.43583,"version":"14.0b/19.0a"},{"town":"字内淵","koaza":"","lat":44.409077,"lng":142.436041,"version":"14.0b/19.0a"},{"town":"字日彰","koaza":"","lat":44.322938,"lng":142.496175,"version":"14.0b/19.0a"},{"town":"字日進","koaza":"","lat":44.40383,"lng":142.518355,"version":"14.0b/19.0a"},{"town":"字豊栄","koaza":"","lat":44.331533,"lng":142.444268,"version":"14.0b/19.0a"},{"town":"字瑞穂","koaza":"","lat":44.36948,"lng":142.375951,"version":"14.0b/19.0a"},{"town":"字緑丘","koaza":"","lat":44.333735,"lng":142.472529,"version":"14.0b/19.0a"},{"town":"字弥生","koaza":"","lat":44.342503,"lng":142.359253,"version":"14.0b/19.0a"},{"town":"大通北十丁目","koaza":"","lat":44.367679,"lng":142.464817,"version":"14.0b/19.0a"},{"town":"大通北一丁目","koaza":"","lat":44.356947,"lng":142.463725,"version":"14.0b/19.0a"},{"town":"大通北二丁目","koaza":"","lat":44.358143,"lng":142.463722,"version":"14.0b/19.0a"},{"town":"大通北三丁目","koaza":"","lat":44.359303,"lng":142.463714,"version":"14.0b/19.0a"},{"town":"大通北四丁目","koaza":"","lat":44.360498,"lng":142.463705,"version":"14.0b/19.0a"},{"town":"大通北五丁目","koaza":"","lat":44.361701,"lng":142.463699,"version":"14.0b/19.0a"},{"town":"大通北六丁目","koaza":"","lat":44.362825,"lng":142.46331,"version":"14.0b/19.0a"},{"town":"大通北七丁目","koaza":"","lat":44.363647,"lng":142.463769,"version":"14.0b/19.0a"},{"town":"大通北八丁目","koaza":"","lat":44.36427,"lng":142.464792,"version":"14.0b/19.0a"},{"town":"大通北九丁目","koaza":"","lat":44.365613,"lng":142.464879,"version":"14.0b/19.0a"},{"town":"大通南十丁目","koaza":"","lat":44.34547,"lng":142.464143,"version":"14.0b/19.0a"},{"town":"大通南十一丁目","koaza":"","lat":44.343786,"lng":142.464152,"version":"14.0b/19.0a"},{"town":"大通南十二丁目","koaza":"","lat":44.342213,"lng":142.464446,"version":"14.0b/19.0a"},{"town":"大通南一丁目","koaza":"","lat":44.355719,"lng":142.463731,"version":"14.0b/19.0a"},{"town":"大通南二丁目","koaza":"","lat":44.354542,"lng":142.463739,"version":"14.0b/19.0a"},{"town":"大通南三丁目","koaza":"","lat":44.353391,"lng":142.463744,"version":"14.0b/19.0a"},{"town":"大通南四丁目","koaza":"","lat":44.352227,"lng":142.463751,"version":"14.0b/19.0a"},{"town":"大通南五丁目","koaza":"","lat":44.351071,"lng":142.463757,"version":"14.0b/19.0a"},{"town":"大通南六丁目","koaza":"","lat":44.349866,"lng":142.463764,"version":"14.0b/19.0a"},{"town":"大通南七丁目","koaza":"","lat":44.349103,"lng":142.463307,"version":"14.0b/19.0a"},{"town":"大通南八丁目","koaza":"","lat":44.348254,"lng":142.463321,"version":"14.0b/19.0a"},{"town":"大通南九丁目","koaza":"","lat":44.346986,"lng":142.463341,"version":"14.0b/19.0a"},{"town":"西十条北一丁目","koaza":"","lat":44.357443,"lng":142.448878,"version":"14.0b/19.0a"},{"town":"西十条北二丁目","koaza":"","lat":44.358632,"lng":142.449438,"version":"14.0b/19.0a"},{"town":"西十条北三丁目","koaza":"","lat":44.359881,"lng":142.449425,"version":"14.0b/19.0a"},{"town":"西十条北四丁目","koaza":"","lat":44.360856,"lng":142.449419,"version":"14.0b/19.0a"},{"town":"西十条北五丁目","koaza":"","lat":44.361958,"lng":142.448929,"version":"14.0b/19.0a"},{"town":"西十条北六丁目","koaza":"","lat":44.363066,"lng":142.448935,"version":"14.0b/19.0a"},{"town":"西十条北七丁目","koaza":"","lat":44.363816,"lng":142.449137,"version":"14.0b/19.0a"},{"town":"西十条北八丁目","koaza":"","lat":44.364377,"lng":142.447571,"version":"14.0b/19.0a"},{"town":"西十条北九丁目","koaza":"","lat":44.365727,"lng":142.447994,"version":"14.0b/19.0a"},{"town":"西十条南十丁目","koaza":"","lat":44.345095,"lng":142.449777,"version":"14.0b/19.0a"},{"town":"西十条南十一丁目","koaza":"","lat":44.343341,"lng":142.449885,"version":"14.0b/19.0a"},{"town":"西十条南十二丁目","koaza":"","lat":44.341897,"lng":142.449875,"version":"14.0b/19.0a"},{"town":"西十条南一丁目","koaza":"","lat":44.355549,"lng":142.449519,"version":"14.0b/19.0a"},{"town":"西十条南二丁目","koaza":"","lat":44.354507,"lng":142.449453,"version":"14.0b/19.0a"},{"town":"西十条南三丁目","koaza":"","lat":44.353244,"lng":142.44951,"version":"14.0b/19.0a"},{"town":"西十条南四丁目","koaza":"","lat":44.351968,"lng":142.449537,"version":"14.0b/19.0a"},{"town":"西十条南五丁目","koaza":"","lat":44.350776,"lng":142.44969,"version":"14.0b/19.0a"},{"town":"西十条南六丁目","koaza":"","lat":44.35001,"lng":142.449252,"version":"14.0b/19.0a"},{"town":"西十条南七丁目","koaza":"","lat":44.349318,"lng":142.449252,"version":"14.0b/19.0a"},{"town":"西十条南八丁目","koaza":"","lat":44.34822,"lng":142.449694,"version":"14.0b/19.0a"},{"town":"西十条南九丁目","koaza":"","lat":44.346877,"lng":142.44949,"version":"14.0b/19.0a"},{"town":"西十一条北一丁目","koaza":"","lat":44.357294,"lng":142.447323,"version":"14.0b/19.0a"},{"town":"西十一条北二丁目","koaza":"","lat":44.358803,"lng":142.447935,"version":"14.0b/19.0a"},{"town":"西十一条北三丁目","koaza":"","lat":44.359893,"lng":142.447924,"version":"14.0b/19.0a"},{"town":"西十一条北四丁目","koaza":"","lat":44.360878,"lng":142.447922,"version":"14.0b/19.0a"},{"town":"西十一条北五丁目","koaza":"","lat":44.361991,"lng":142.447359,"version":"14.0b/19.0a"},{"town":"西十一条南十丁目","koaza":"","lat":44.345525,"lng":142.448738,"version":"14.0b/19.0a"},{"town":"西十一条南十一丁目","koaza":"","lat":44.343561,"lng":142.448829,"version":"14.0b/19.0a"},{"town":"西十一条南十二丁目","koaza":"","lat":44.34202,"lng":142.448741,"version":"14.0b/19.0a"},{"town":"西十一条南一丁目","koaza":"","lat":44.355314,"lng":142.448105,"version":"14.0b/19.0a"},{"town":"西十一条南三丁目","koaza":"","lat":44.353596,"lng":142.447842,"version":"14.0b/19.0a"},{"town":"西十一条南四丁目","koaza":"","lat":44.352212,"lng":142.44793,"version":"14.0b/19.0a"},{"town":"西十一条南五丁目","koaza":"","lat":44.35084,"lng":142.448161,"version":"14.0b/19.0a"},{"town":"西十一条南六丁目","koaza":"","lat":44.350001,"lng":142.447904,"version":"14.0b/19.0a"},{"town":"西十一条南七丁目","koaza":"","lat":44.3493,"lng":142.447953,"version":"14.0b/19.0a"},{"town":"西十一条南八丁目","koaza":"","lat":44.348271,"lng":142.448152,"version":"14.0b/19.0a"},{"town":"西十一条南九丁目","koaza":"","lat":44.34687,"lng":142.44816,"version":"14.0b/19.0a"},{"town":"西十二条北一丁目","koaza":"","lat":44.357558,"lng":142.446326,"version":"14.0b/19.0a"},{"town":"西十二条北二丁目","koaza":"","lat":44.358835,"lng":142.446359,"version":"14.0b/19.0a"},{"town":"西十二条北三丁目","koaza":"","lat":44.359929,"lng":142.445661,"version":"14.0b/19.0a"},{"town":"西十二条北四丁目","koaza":"","lat":44.360861,"lng":142.446027,"version":"14.0b/19.0a"},{"town":"西十二条北五丁目","koaza":"","lat":44.362456,"lng":142.44538,"version":"14.0b/19.0a"},{"town":"西十二条南十丁目","koaza":"","lat":44.345527,"lng":142.44749,"version":"14.0b/19.0a"},{"town":"西十二条南十一丁目","koaza":"","lat":44.343388,"lng":142.447355,"version":"14.0b/19.0a"},{"town":"西十二条南十二丁目","koaza":"","lat":44.342014,"lng":142.447546,"version":"14.0b/19.0a"},{"town":"西十二条南一丁目","koaza":"","lat":44.355159,"lng":142.446798,"version":"14.0b/19.0a"},{"town":"西十二条南三丁目","koaza":"","lat":44.353173,"lng":142.446751,"version":"14.0b/19.0a"},{"town":"西十二条南四丁目","koaza":"","lat":44.3519,"lng":142.446717,"version":"14.0b/19.0a"},{"town":"西十二条南五丁目","koaza":"","lat":44.350805,"lng":142.446919,"version":"14.0b/19.0a"},{"town":"西十二条南六丁目","koaza":"","lat":44.350037,"lng":142.4465,"version":"14.0b/19.0a"},{"town":"西十二条南七丁目","koaza":"","lat":44.349273,"lng":142.446531,"version":"14.0b/19.0a"},{"town":"西十二条南八丁目","koaza":"","lat":44.348271,"lng":142.446705,"version":"14.0b/19.0a"},{"town":"西十二条南九丁目","koaza":"","lat":44.347008,"lng":142.446667,"version":"14.0b/19.0a"},{"town":"西十三条北一丁目","koaza":"","lat":44.357824,"lng":142.444332,"version":"14.0b/19.0a"},{"town":"西十三条南十丁目","koaza":"","lat":44.345293,"lng":142.446185,"version":"14.0b/19.0a"},{"town":"西十三条南十一丁目","koaza":"","lat":44.343641,"lng":142.44626,"version":"14.0b/19.0a"},{"town":"西十三条南十二丁目","koaza":"","lat":44.342122,"lng":142.44627,"version":"14.0b/19.0a"},{"town":"西十三条南一丁目","koaza":"","lat":44.355654,"lng":142.444691,"version":"14.0b/19.0a"},{"town":"西十三条南二丁目","koaza":"","lat":44.354092,"lng":142.445015,"version":"14.0b/19.0a"},{"town":"西十三条南四丁目","koaza":"","lat":44.35178,"lng":142.44478,"version":"14.0b/19.0a"},{"town":"西十三条南五丁目","koaza":"","lat":44.350483,"lng":142.445373,"version":"14.0b/19.0a"},{"town":"西十三条南六丁目","koaza":"","lat":44.350095,"lng":142.444974,"version":"14.0b/19.0a"},{"town":"西十三条南七丁目","koaza":"","lat":44.349354,"lng":142.445259,"version":"14.0b/19.0a"},{"town":"西十三条南八丁目","koaza":"","lat":44.34826,"lng":142.445239,"version":"14.0b/19.0a"},{"town":"西十三条南九丁目","koaza":"","lat":44.34703,"lng":142.445203,"version":"14.0b/19.0a"},{"town":"西十四条南十丁目","koaza":"","lat":44.345476,"lng":142.444025,"version":"14.0b/19.0a"},{"town":"西十四条南十一丁目","koaza":"","lat":44.344017,"lng":142.444039,"version":"14.0b/19.0a"},{"town":"西十四条南十二丁目","koaza":"","lat":44.34225,"lng":142.443892,"version":"14.0b/19.0a"},{"town":"西十四条南五丁目","koaza":"","lat":44.350846,"lng":142.443915,"version":"14.0b/19.0a"},{"town":"西十四条南六丁目","koaza":"","lat":44.349939,"lng":142.444054,"version":"14.0b/19.0a"},{"town":"西十四条南七丁目","koaza":"","lat":44.349224,"lng":142.443815,"version":"14.0b/19.0a"},{"town":"西十四条南八丁目","koaza":"","lat":44.348235,"lng":142.444014,"version":"14.0b/19.0a"},{"town":"西十四条南九丁目","koaza":"","lat":44.347182,"lng":142.444334,"version":"14.0b/19.0a"},{"town":"西十五条南一丁目","koaza":"","lat":44.355192,"lng":142.442543,"version":"14.0b/19.0a"},{"town":"西十五条南四丁目","koaza":"","lat":44.352689,"lng":142.442164,"version":"14.0b/19.0a"},{"town":"西十五条南五丁目","koaza":"","lat":44.350869,"lng":142.442264,"version":"14.0b/19.0a"},{"town":"西十五条南六丁目","koaza":"","lat":44.349747,"lng":142.442615,"version":"14.0b/19.0a"},{"town":"西十五条南七丁目","koaza":"","lat":44.348837,"lng":142.443027,"version":"14.0b/19.0a"},{"town":"西十五条南九丁目","koaza":"","lat":44.347199,"lng":142.443674,"version":"14.0b/19.0a"},{"town":"西十六条南九丁目","koaza":"","lat":44.347674,"lng":142.442527,"version":"14.0b/19.0a"},{"town":"西一条北一丁目","koaza":"","lat":44.356943,"lng":142.462024,"version":"14.0b/19.0a"},{"town":"西一条北二丁目","koaza":"","lat":44.358137,"lng":142.462017,"version":"14.0b/19.0a"},{"town":"西一条北三丁目","koaza":"","lat":44.359299,"lng":142.462006,"version":"14.0b/19.0a"},{"town":"西一条北四丁目","koaza":"","lat":44.360496,"lng":142.461998,"version":"14.0b/19.0a"},{"town":"西一条北五丁目","koaza":"","lat":44.361697,"lng":142.461994,"version":"14.0b/19.0a"},{"town":"西一条北六丁目","koaza":"","lat":44.362794,"lng":142.461988,"version":"14.0b/19.0a"},{"town":"西一条北七丁目","koaza":"","lat":44.363582,"lng":142.461984,"version":"14.0b/19.0a"},{"town":"西一条南十丁目","koaza":"","lat":44.345497,"lng":142.462082,"version":"14.0b/19.0a"},{"town":"西一条南十一丁目","koaza":"","lat":44.343806,"lng":142.462092,"version":"14.0b/19.0a"},{"town":"西一条南十二丁目","koaza":"","lat":44.342213,"lng":142.462386,"version":"14.0b/19.0a"},{"town":"西一条南一丁目","koaza":"","lat":44.355708,"lng":142.462029,"version":"14.0b/19.0a"},{"town":"西一条南二丁目","koaza":"","lat":44.354527,"lng":142.462034,"version":"14.0b/19.0a"},{"town":"西一条南三丁目","koaza":"","lat":44.353384,"lng":142.462039,"version":"14.0b/19.0a"},{"town":"西一条南四丁目","koaza":"","lat":44.352218,"lng":142.462046,"version":"14.0b/19.0a"},{"town":"西一条南五丁目","koaza":"","lat":44.351062,"lng":142.462052,"version":"14.0b/19.0a"},{"town":"西一条南六丁目","koaza":"","lat":44.349887,"lng":142.462058,"version":"14.0b/19.0a"},{"town":"西一条南七丁目","koaza":"","lat":44.349101,"lng":142.462063,"version":"14.0b/19.0a"},{"town":"西一条南八丁目","koaza":"","lat":44.34825,"lng":142.462067,"version":"14.0b/19.0a"},{"town":"西一条南九丁目","koaza":"","lat":44.346982,"lng":142.462074,"version":"14.0b/19.0a"},{"town":"西二条北一丁目","koaza":"","lat":44.356942,"lng":142.460467,"version":"14.0b/19.0a"},{"town":"西二条北二丁目","koaza":"","lat":44.358135,"lng":142.460457,"version":"14.0b/19.0a"},{"town":"西二条北三丁目","koaza":"","lat":44.359295,"lng":142.46045,"version":"14.0b/19.0a"},{"town":"西二条北四丁目","koaza":"","lat":44.36049,"lng":142.460446,"version":"14.0b/19.0a"},{"town":"西二条北五丁目","koaza":"","lat":44.361692,"lng":142.46044,"version":"14.0b/19.0a"},{"town":"西二条北六丁目","koaza":"","lat":44.362785,"lng":142.460434,"version":"14.0b/19.0a"},{"town":"西二条北七丁目","koaza":"","lat":44.363628,"lng":142.460408,"version":"14.0b/19.0a"},{"town":"西二条北八丁目","koaza":"","lat":44.365163,"lng":142.462223,"version":"14.0b/19.0a"},{"town":"西二条南十丁目","koaza":"","lat":44.345533,"lng":142.460659,"version":"14.0b/19.0a"},{"town":"西二条南十一丁目","koaza":"","lat":44.343816,"lng":142.460538,"version":"14.0b/19.0a"},{"town":"西二条南十二丁目","koaza":"","lat":44.342209,"lng":142.460547,"version":"14.0b/19.0a"},{"town":"西二条南一丁目","koaza":"","lat":44.355889,"lng":142.460047,"version":"14.0b/19.0a"},{"town":"西二条南二丁目","koaza":"","lat":44.354529,"lng":142.46048,"version":"14.0b/19.0a"},{"town":"西二条南三丁目","koaza":"","lat":44.35339,"lng":142.460485,"version":"14.0b/19.0a"},{"town":"西二条南四丁目","koaza":"","lat":44.35222,"lng":142.460492,"version":"14.0b/19.0a"},{"town":"西二条南五丁目","koaza":"","lat":44.351063,"lng":142.460498,"version":"14.0b/19.0a"},{"town":"西二条南六丁目","koaza":"","lat":44.349885,"lng":142.460504,"version":"14.0b/19.0a"},{"town":"西二条南七丁目","koaza":"","lat":44.349091,"lng":142.460509,"version":"14.0b/19.0a"},{"town":"西二条南八丁目","koaza":"","lat":44.34824,"lng":142.460513,"version":"14.0b/19.0a"},{"town":"西二条南九丁目","koaza":"","lat":44.346961,"lng":142.460174,"version":"14.0b/19.0a"},{"town":"西三条北一丁目","koaza":"","lat":44.356939,"lng":142.458852,"version":"14.0b/19.0a"},{"town":"西三条北二丁目","koaza":"","lat":44.358137,"lng":142.45884,"version":"14.0b/19.0a"},{"town":"西三条北三丁目","koaza":"","lat":44.359293,"lng":142.458834,"version":"14.0b/19.0a"},{"town":"西三条北四丁目","koaza":"","lat":44.360481,"lng":142.458829,"version":"14.0b/19.0a"},{"town":"西三条北五丁目","koaza":"","lat":44.361679,"lng":142.458825,"version":"14.0b/19.0a"},{"town":"西三条北六丁目","koaza":"","lat":44.362774,"lng":142.458819,"version":"14.0b/19.0a"},{"town":"西三条北七丁目","koaza":"","lat":44.363558,"lng":142.458816,"version":"14.0b/19.0a"},{"town":"西三条南十丁目","koaza":"","lat":44.345535,"lng":142.459044,"version":"14.0b/19.0a"},{"town":"西三条南十一丁目","koaza":"","lat":44.343828,"lng":142.458922,"version":"14.0b/19.0a"},{"town":"西三条南十二丁目","koaza":"","lat":44.34219,"lng":142.458933,"version":"14.0b/19.0a"},{"town":"西三条南一丁目","koaza":"","lat":44.355702,"lng":142.45886,"version":"14.0b/19.0a"},{"town":"西三条南二丁目","koaza":"","lat":44.354526,"lng":142.458863,"version":"14.0b/19.0a"},{"town":"西三条南三丁目","koaza":"","lat":44.353388,"lng":142.45887,"version":"14.0b/19.0a"},{"town":"西三条南四丁目","koaza":"","lat":44.352222,"lng":142.458876,"version":"14.0b/19.0a"},{"town":"西三条南五丁目","koaza":"","lat":44.351061,"lng":142.458883,"version":"14.0b/19.0a"},{"town":"西三条南六丁目","koaza":"","lat":44.349878,"lng":142.458889,"version":"14.0b/19.0a"},{"town":"西三条南七丁目","koaza":"","lat":44.349076,"lng":142.458894,"version":"14.0b/19.0a"},{"town":"西三条南八丁目","koaza":"","lat":44.348233,"lng":142.459331,"version":"14.0b/19.0a"},{"town":"西四条北十丁目","koaza":"","lat":44.367684,"lng":142.45758,"version":"14.0b/19.0a"},{"town":"西四条北十一丁目","koaza":"","lat":44.36878,"lng":142.457531,"version":"14.0b/19.0a"},{"town":"西四条北一丁目","koaza":"","lat":44.356927,"lng":142.457186,"version":"14.0b/19.0a"},{"town":"西四条北二丁目","koaza":"","lat":44.358138,"lng":142.457174,"version":"14.0b/19.0a"},{"town":"西四条北三丁目","koaza":"","lat":44.359294,"lng":142.457173,"version":"14.0b/19.0a"},{"town":"西四条北四丁目","koaza":"","lat":44.360578,"lng":142.457175,"version":"14.0b/19.0a"},{"town":"西四条北五丁目","koaza":"","lat":44.361896,"lng":142.457177,"version":"14.0b/19.0a"},{"town":"西四条北六丁目","koaza":"","lat":44.362746,"lng":142.457522,"version":"14.0b/19.0a"},{"town":"西四条北七丁目","koaza":"","lat":44.363536,"lng":142.45746,"version":"14.0b/19.0a"},{"town":"西四条北八丁目","koaza":"","lat":44.365123,"lng":142.458687,"version":"14.0b/19.0a"},{"town":"西四条南十丁目","koaza":"","lat":44.345074,"lng":142.457291,"version":"14.0b/19.0a"},{"town":"西四条南十一丁目","koaza":"","lat":44.343822,"lng":142.457707,"version":"14.0b/19.0a"},{"town":"西四条南十二丁目","koaza":"","lat":44.342213,"lng":142.457302,"version":"14.0b/19.0a"},{"town":"西四条南一丁目","koaza":"","lat":44.355694,"lng":142.45721,"version":"14.0b/19.0a"},{"town":"西四条南二丁目","koaza":"","lat":44.354523,"lng":142.457233,"version":"14.0b/19.0a"},{"town":"西四条南三丁目","koaza":"","lat":44.353392,"lng":142.457247,"version":"14.0b/19.0a"},{"town":"西四条南四丁目","koaza":"","lat":44.352066,"lng":142.457256,"version":"14.0b/19.0a"},{"town":"西四条南五丁目","koaza":"","lat":44.351092,"lng":142.457263,"version":"14.0b/19.0a"},{"town":"西四条南六丁目","koaza":"","lat":44.349895,"lng":142.457279,"version":"14.0b/19.0a"},{"town":"西四条南七丁目","koaza":"","lat":44.349281,"lng":142.456879,"version":"14.0b/19.0a"},{"town":"西四条南八丁目","koaza":"","lat":44.348246,"lng":142.457725,"version":"14.0b/19.0a"},{"town":"西四条南九丁目","koaza":"","lat":44.34719,"lng":142.45725,"version":"14.0b/19.0a"},{"town":"西五条北十丁目","koaza":"","lat":44.367102,"lng":142.455833,"version":"14.0b/19.0a"},{"town":"西五条北十一丁目","koaza":"","lat":44.368583,"lng":142.456139,"version":"14.0b/19.0a"},{"town":"西五条北一丁目","koaza":"","lat":44.356914,"lng":142.455394,"version":"14.0b/19.0a"},{"town":"西五条北二丁目","koaza":"","lat":44.358135,"lng":142.455392,"version":"14.0b/19.0a"},{"town":"西五条北三丁目","koaza":"","lat":44.359292,"lng":142.455392,"version":"14.0b/19.0a"},{"town":"西五条北四丁目","koaza":"","lat":44.360593,"lng":142.455383,"version":"14.0b/19.0a"},{"town":"西五条北五丁目","koaza":"","lat":44.361984,"lng":142.454777,"version":"14.0b/19.0a"},{"town":"西五条北六丁目","koaza":"","lat":44.363034,"lng":142.456433,"version":"14.0b/19.0a"},{"town":"西五条北七丁目","koaza":"","lat":44.363704,"lng":142.456397,"version":"14.0b/19.0a"},{"town":"西五条北八丁目","koaza":"","lat":44.364284,"lng":142.456242,"version":"14.0b/19.0a"},{"town":"西五条北九丁目","koaza":"","lat":44.365688,"lng":142.456421,"version":"14.0b/19.0a"},{"town":"西五条南十丁目","koaza":"","lat":44.34574,"lng":142.455682,"version":"14.0b/19.0a"},{"town":"西五条南十一丁目","koaza":"","lat":44.343839,"lng":142.455732,"version":"14.0b/19.0a"},{"town":"西五条南十二丁目","koaza":"","lat":44.342223,"lng":142.455739,"version":"14.0b/19.0a"},{"town":"西五条南一丁目","koaza":"","lat":44.355678,"lng":142.455321,"version":"14.0b/19.0a"},{"town":"西五条南二丁目","koaza":"","lat":44.354419,"lng":142.455178,"version":"14.0b/19.0a"},{"town":"西五条南三丁目","koaza":"","lat":44.353245,"lng":142.455472,"version":"14.0b/19.0a"},{"town":"西五条南四丁目","koaza":"","lat":44.352091,"lng":142.455479,"version":"14.0b/19.0a"},{"town":"西五条南五丁目","koaza":"","lat":44.350849,"lng":142.455492,"version":"14.0b/19.0a"},{"town":"西五条南六丁目","koaza":"","lat":44.349901,"lng":142.455506,"version":"14.0b/19.0a"},{"town":"西五条南七丁目","koaza":"","lat":44.349142,"lng":142.455157,"version":"14.0b/19.0a"},{"town":"西五条南八丁目","koaza":"","lat":44.348376,"lng":142.45534,"version":"14.0b/19.0a"},{"town":"西六条北十丁目","koaza":"","lat":44.367261,"lng":142.453636,"version":"14.0b/19.0a"},{"town":"西六条北十一丁目","koaza":"","lat":44.368573,"lng":142.453312,"version":"14.0b/19.0a"},{"town":"西六条北一丁目","koaza":"","lat":44.356784,"lng":142.453958,"version":"14.0b/19.0a"},{"town":"西六条北二丁目","koaza":"","lat":44.358134,"lng":142.453863,"version":"14.0b/19.0a"},{"town":"西六条北三丁目","koaza":"","lat":44.35929,"lng":142.453862,"version":"14.0b/19.0a"},{"town":"西六条北四丁目","koaza":"","lat":44.360592,"lng":142.45385,"version":"14.0b/19.0a"},{"town":"西六条北六丁目","koaza":"","lat":44.363413,"lng":142.454416,"version":"14.0b/19.0a"},{"town":"西六条北八丁目","koaza":"","lat":44.364329,"lng":142.454727,"version":"14.0b/19.0a"},{"town":"西六条北九丁目","koaza":"","lat":44.365746,"lng":142.454744,"version":"14.0b/19.0a"},{"town":"西六条南十丁目","koaza":"","lat":44.345578,"lng":142.454248,"version":"14.0b/19.0a"},{"town":"西六条南十一丁目","koaza":"","lat":44.344224,"lng":142.454249,"version":"14.0b/19.0a"},{"town":"西六条南十二丁目","koaza":"","lat":44.342532,"lng":142.454086,"version":"14.0b/19.0a"},{"town":"西六条南一丁目","koaza":"","lat":44.355802,"lng":142.453608,"version":"14.0b/19.0a"},{"town":"西六条南二丁目","koaza":"","lat":44.354555,"lng":142.453565,"version":"14.0b/19.0a"},{"town":"西六条南三丁目","koaza":"","lat":44.35353,"lng":142.453906,"version":"14.0b/19.0a"},{"town":"西六条南四丁目","koaza":"","lat":44.352111,"lng":142.453719,"version":"14.0b/19.0a"},{"town":"西六条南五丁目","koaza":"","lat":44.350839,"lng":142.454099,"version":"14.0b/19.0a"},{"town":"西六条南六丁目","koaza":"","lat":44.349711,"lng":142.454102,"version":"14.0b/19.0a"},{"town":"西六条南七丁目","koaza":"","lat":44.349135,"lng":142.453322,"version":"14.0b/19.0a"},{"town":"西六条南八丁目","koaza":"","lat":44.348456,"lng":142.453241,"version":"14.0b/19.0a"},{"town":"西六条南九丁目","koaza":"","lat":44.347176,"lng":142.453938,"version":"14.0b/19.0a"},{"town":"西七条北一丁目","koaza":"","lat":44.356787,"lng":142.45278,"version":"14.0b/19.0a"},{"town":"西七条北二丁目","koaza":"","lat":44.358138,"lng":142.452689,"version":"14.0b/19.0a"},{"town":"西七条北三丁目","koaza":"","lat":44.359294,"lng":142.452686,"version":"14.0b/19.0a"},{"town":"西七条北四丁目","koaza":"","lat":44.360586,"lng":142.452677,"version":"14.0b/19.0a"},{"town":"西七条北五丁目","koaza":"","lat":44.361987,"lng":142.452893,"version":"14.0b/19.0a"},{"town":"西七条北六丁目","koaza":"","lat":44.362986,"lng":142.453086,"version":"14.0b/19.0a"},{"town":"西七条北七丁目","koaza":"","lat":44.363677,"lng":142.453035,"version":"14.0b/19.0a"},{"town":"西七条北八丁目","koaza":"","lat":44.364274,"lng":142.453321,"version":"14.0b/19.0a"},{"town":"西七条北九丁目","koaza":"","lat":44.365632,"lng":142.453246,"version":"14.0b/19.0a"},{"town":"西七条南十丁目","koaza":"","lat":44.345574,"lng":142.452702,"version":"14.0b/19.0a"},{"town":"西七条南十一丁目","koaza":"","lat":44.344103,"lng":142.452813,"version":"14.0b/19.0a"},{"town":"西七条南十二丁目","koaza":"","lat":44.342739,"lng":142.452106,"version":"14.0b/19.0a"},{"town":"西七条南一丁目","koaza":"","lat":44.35543,"lng":142.452396,"version":"14.0b/19.0a"},{"town":"西七条南二丁目","koaza":"","lat":44.3543,"lng":142.45241,"version":"14.0b/19.0a"},{"town":"西七条南三丁目","koaza":"","lat":44.35338,"lng":142.452271,"version":"14.0b/19.0a"},{"town":"西七条南四丁目","koaza":"","lat":44.352118,"lng":142.452424,"version":"14.0b/19.0a"},{"town":"西七条南五丁目","koaza":"","lat":44.350838,"lng":142.452943,"version":"14.0b/19.0a"},{"town":"西七条南六丁目","koaza":"","lat":44.349779,"lng":142.452826,"version":"14.0b/19.0a"},{"town":"西七条南七丁目","koaza":"","lat":44.349269,"lng":142.451303,"version":"14.0b/19.0a"},{"town":"西七条南八丁目","koaza":"","lat":44.348445,"lng":142.451315,"version":"14.0b/19.0a"},{"town":"西七条南九丁目","koaza":"","lat":44.347142,"lng":142.451327,"version":"14.0b/19.0a"},{"town":"西八条北一丁目","koaza":"","lat":44.356908,"lng":142.45155,"version":"14.0b/19.0a"},{"town":"西八条北二丁目","koaza":"","lat":44.358135,"lng":142.451541,"version":"14.0b/19.0a"},{"town":"西八条北三丁目","koaza":"","lat":44.35929,"lng":142.451537,"version":"14.0b/19.0a"},{"town":"西八条北四丁目","koaza":"","lat":44.360593,"lng":142.451524,"version":"14.0b/19.0a"},{"town":"西八条北五丁目","koaza":"","lat":44.361973,"lng":142.452194,"version":"14.0b/19.0a"},{"town":"西八条北六丁目","koaza":"","lat":44.363066,"lng":142.452047,"version":"14.0b/19.0a"},{"town":"西八条北七丁目","koaza":"","lat":44.363683,"lng":142.45205,"version":"14.0b/19.0a"},{"town":"西八条北八丁目","koaza":"","lat":44.364384,"lng":142.452042,"version":"14.0b/19.0a"},{"town":"西八条北九丁目","koaza":"","lat":44.365641,"lng":142.452017,"version":"14.0b/19.0a"},{"town":"西八条南十丁目","koaza":"","lat":44.345578,"lng":142.451089,"version":"14.0b/19.0a"},{"town":"西八条南十一丁目","koaza":"","lat":44.344165,"lng":142.451108,"version":"14.0b/19.0a"},{"town":"西八条南十二丁目","koaza":"","lat":44.342533,"lng":142.450707,"version":"14.0b/19.0a"},{"town":"西八条南一丁目","koaza":"","lat":44.355811,"lng":142.450988,"version":"14.0b/19.0a"},{"town":"西八条南二丁目","koaza":"","lat":44.354521,"lng":142.450959,"version":"14.0b/19.0a"},{"town":"西八条南三丁目","koaza":"","lat":44.353023,"lng":142.451018,"version":"14.0b/19.0a"},{"town":"西八条南四丁目","koaza":"","lat":44.351836,"lng":142.451632,"version":"14.0b/19.0a"},{"town":"西八条南五丁目","koaza":"","lat":44.350799,"lng":142.451665,"version":"14.0b/19.0a"},{"town":"西八条南六丁目","koaza":"","lat":44.349979,"lng":142.45169,"version":"14.0b/19.0a"},{"town":"西九条北十丁目","koaza":"","lat":44.367546,"lng":142.449604,"version":"14.0b/19.0a"},{"town":"西九条北一丁目","koaza":"","lat":44.357003,"lng":142.450626,"version":"14.0b/19.0a"},{"town":"西九条北二丁目","koaza":"","lat":44.358063,"lng":142.450595,"version":"14.0b/19.0a"},{"town":"西九条北三丁目","koaza":"","lat":44.359568,"lng":142.450557,"version":"14.0b/19.0a"},{"town":"西九条北四丁目","koaza":"","lat":44.360846,"lng":142.450547,"version":"14.0b/19.0a"},{"town":"西九条北五丁目","koaza":"","lat":44.361965,"lng":142.450996,"version":"14.0b/19.0a"},{"town":"西九条北六丁目","koaza":"","lat":44.363074,"lng":142.450864,"version":"14.0b/19.0a"},{"town":"西九条北七丁目","koaza":"","lat":44.363688,"lng":142.450871,"version":"14.0b/19.0a"},{"town":"西九条北八丁目","koaza":"","lat":44.364392,"lng":142.450865,"version":"14.0b/19.0a"},{"town":"西九条北九丁目","koaza":"","lat":44.365513,"lng":142.450715,"version":"14.0b/19.0a"},{"town":"西九条南四丁目","koaza":"","lat":44.352005,"lng":142.450692,"version":"14.0b/19.0a"},{"town":"西九条南五丁目","koaza":"","lat":44.35093,"lng":142.45068,"version":"14.0b/19.0a"},{"town":"西九条南六丁目","koaza":"","lat":44.350094,"lng":142.450689,"version":"14.0b/19.0a"},{"town":"東一条北一丁目","koaza":"","lat":44.35695,"lng":142.465525,"version":"14.0b/19.0a"},{"town":"東一条北二丁目","koaza":"","lat":44.358149,"lng":142.46552,"version":"14.0b/19.0a"},{"town":"東一条北三丁目","koaza":"","lat":44.359307,"lng":142.465518,"version":"14.0b/19.0a"},{"town":"東一条北四丁目","koaza":"","lat":44.360501,"lng":142.465512,"version":"14.0b/19.0a"},{"town":"東一条北五丁目","koaza":"","lat":44.361706,"lng":142.465509,"version":"14.0b/19.0a"},{"town":"東一条北六丁目","koaza":"","lat":44.362891,"lng":142.464892,"version":"14.0b/19.0a"},{"town":"東一条北七丁目","koaza":"","lat":44.363649,"lng":142.465517,"version":"14.0b/19.0a"},{"town":"東一条北八丁目","koaza":"","lat":44.364276,"lng":142.466073,"version":"14.0b/19.0a"},{"town":"東一条北九丁目","koaza":"","lat":44.366633,"lng":142.466034,"version":"14.0b/19.0a"},{"town":"東一条南一丁目","koaza":"","lat":44.355726,"lng":142.465531,"version":"14.0b/19.0a"},{"town":"東一条南二丁目","koaza":"","lat":44.354552,"lng":142.465537,"version":"14.0b/19.0a"},{"town":"東一条南三丁目","koaza":"","lat":44.353275,"lng":142.4656,"version":"14.0b/19.0a"},{"town":"東一条南四丁目","koaza":"","lat":44.35224,"lng":142.465402,"version":"14.0b/19.0a"},{"town":"東一条南五丁目","koaza":"","lat":44.350973,"lng":142.465736,"version":"14.0b/19.0a"},{"town":"東一条南六丁目","koaza":"","lat":44.349912,"lng":142.465938,"version":"14.0b/19.0a"},{"town":"東一条南七丁目","koaza":"","lat":44.349098,"lng":142.465489,"version":"14.0b/19.0a"},{"town":"東一条南八丁目","koaza":"","lat":44.348343,"lng":142.46597,"version":"14.0b/19.0a"},{"town":"東一条南九丁目","koaza":"","lat":44.346852,"lng":142.466158,"version":"14.0b/19.0a"},{"town":"東二条北一丁目","koaza":"","lat":44.356956,"lng":142.467161,"version":"14.0b/19.0a"},{"town":"東二条北二丁目","koaza":"","lat":44.35816,"lng":142.467157,"version":"14.0b/19.0a"},{"town":"東二条北三丁目","koaza":"","lat":44.359314,"lng":142.46715,"version":"14.0b/19.0a"},{"town":"東二条北四丁目","koaza":"","lat":44.360498,"lng":142.467144,"version":"14.0b/19.0a"},{"town":"東二条北五丁目","koaza":"","lat":44.361692,"lng":142.467141,"version":"14.0b/19.0a"},{"town":"東二条北六丁目","koaza":"","lat":44.362796,"lng":142.467136,"version":"14.0b/19.0a"},{"town":"東二条北七丁目","koaza":"","lat":44.36358,"lng":142.467133,"version":"14.0b/19.0a"},{"town":"東二条北八丁目","koaza":"","lat":44.364372,"lng":142.467516,"version":"14.0b/19.0a"},{"town":"東二条北九丁目","koaza":"","lat":44.366428,"lng":142.467489,"version":"14.0b/19.0a"},{"town":"東二条南十丁目","koaza":"","lat":44.345472,"lng":142.467162,"version":"14.0b/19.0a"},{"town":"東二条南十一丁目","koaza":"","lat":44.343766,"lng":142.466597,"version":"14.0b/19.0a"},{"town":"東二条南十二丁目","koaza":"","lat":44.342203,"lng":142.466217,"version":"14.0b/19.0a"},{"town":"東二条南一丁目","koaza":"","lat":44.355721,"lng":142.467164,"version":"14.0b/19.0a"},{"town":"東二条南二丁目","koaza":"","lat":44.354546,"lng":142.467169,"version":"14.0b/19.0a"},{"town":"東二条南三丁目","koaza":"","lat":44.35339,"lng":142.467177,"version":"14.0b/19.0a"},{"town":"東二条南四丁目","koaza":"","lat":44.35235,"lng":142.466902,"version":"14.0b/19.0a"},{"town":"東二条南五丁目","koaza":"","lat":44.351096,"lng":142.467252,"version":"14.0b/19.0a"},{"town":"東二条南六丁目","koaza":"","lat":44.3499,"lng":142.46757,"version":"14.0b/19.0a"},{"town":"東二条南七丁目","koaza":"","lat":44.349111,"lng":142.46758,"version":"14.0b/19.0a"},{"town":"東二条南九丁目","koaza":"","lat":44.347671,"lng":142.467554,"version":"14.0b/19.0a"},{"town":"東三条北一丁目","koaza":"","lat":44.356957,"lng":142.468747,"version":"14.0b/19.0a"},{"town":"東三条北二丁目","koaza":"","lat":44.358278,"lng":142.468728,"version":"14.0b/19.0a"},{"town":"東三条北三丁目","koaza":"","lat":44.359277,"lng":142.468728,"version":"14.0b/19.0a"},{"town":"東三条北四丁目","koaza":"","lat":44.360495,"lng":142.468727,"version":"14.0b/19.0a"},{"town":"東三条北五丁目","koaza":"","lat":44.361677,"lng":142.468727,"version":"14.0b/19.0a"},{"town":"東三条北六丁目","koaza":"","lat":44.36279,"lng":142.468717,"version":"14.0b/19.0a"},{"town":"東三条北七丁目","koaza":"","lat":44.363586,"lng":142.46871,"version":"14.0b/19.0a"},{"town":"東三条北八丁目","koaza":"","lat":44.365525,"lng":142.469377,"version":"14.0b/19.0a"},{"town":"東三条南一丁目","koaza":"","lat":44.35572,"lng":142.468745,"version":"14.0b/19.0a"},{"town":"東三条南二丁目","koaza":"","lat":44.354537,"lng":142.46875,"version":"14.0b/19.0a"},{"town":"東三条南三丁目","koaza":"","lat":44.353391,"lng":142.468767,"version":"14.0b/19.0a"},{"town":"東三条南四丁目","koaza":"","lat":44.352242,"lng":142.468769,"version":"14.0b/19.0a"},{"town":"東三条南五丁目","koaza":"","lat":44.351079,"lng":142.468762,"version":"14.0b/19.0a"},{"town":"東三条南六丁目","koaza":"","lat":44.349894,"lng":142.468768,"version":"14.0b/19.0a"},{"town":"東三条南七丁目","koaza":"","lat":44.349077,"lng":142.468684,"version":"14.0b/19.0a"},{"town":"東三条南九丁目","koaza":"","lat":44.347616,"lng":142.468941,"version":"14.0b/19.0a"},{"town":"東四条北一丁目","koaza":"","lat":44.35695,"lng":142.470339,"version":"14.0b/19.0a"},{"town":"東四条北二丁目","koaza":"","lat":44.358144,"lng":142.470336,"version":"14.0b/19.0a"},{"town":"東四条北三丁目","koaza":"","lat":44.359312,"lng":142.470331,"version":"14.0b/19.0a"},{"town":"東四条北四丁目","koaza":"","lat":44.3605,"lng":142.47036,"version":"14.0b/19.0a"},{"town":"東四条北五丁目","koaza":"","lat":44.361677,"lng":142.470398,"version":"14.0b/19.0a"},{"town":"東四条北六丁目","koaza":"","lat":44.362791,"lng":142.47039,"version":"14.0b/19.0a"},{"town":"東四条北七丁目","koaza":"","lat":44.363706,"lng":142.470579,"version":"14.0b/19.0a"},{"town":"東四条北八丁目","koaza":"","lat":44.365259,"lng":142.470619,"version":"14.0b/19.0a"},{"town":"東四条南一丁目","koaza":"","lat":44.355719,"lng":142.470341,"version":"14.0b/19.0a"},{"town":"東四条南二丁目","koaza":"","lat":44.354522,"lng":142.470374,"version":"14.0b/19.0a"},{"town":"東四条南三丁目","koaza":"","lat":44.353387,"lng":142.470401,"version":"14.0b/19.0a"},{"town":"東四条南四丁目","koaza":"","lat":44.352251,"lng":142.470381,"version":"14.0b/19.0a"},{"town":"東四条南五丁目","koaza":"","lat":44.351118,"lng":142.470368,"version":"14.0b/19.0a"},{"town":"東四条南六丁目","koaza":"","lat":44.349918,"lng":142.470385,"version":"14.0b/19.0a"},{"town":"東四条南七丁目","koaza":"","lat":44.349164,"lng":142.470416,"version":"14.0b/19.0a"},{"town":"東四条南九丁目","koaza":"","lat":44.347678,"lng":142.470426,"version":"14.0b/19.0a"},{"town":"東五条北一丁目","koaza":"","lat":44.356962,"lng":142.472286,"version":"14.0b/19.0a"},{"town":"東五条北二丁目","koaza":"","lat":44.358164,"lng":142.472292,"version":"14.0b/19.0a"},{"town":"東五条北三丁目","koaza":"","lat":44.35939,"lng":142.472525,"version":"14.0b/19.0a"},{"town":"東五条北四丁目","koaza":"","lat":44.360721,"lng":142.472162,"version":"14.0b/19.0a"},{"town":"東五条北五丁目","koaza":"","lat":44.361863,"lng":142.473011,"version":"14.0b/19.0a"},{"town":"東五条北六丁目","koaza":"","lat":44.363122,"lng":142.472232,"version":"14.0b/19.0a"},{"town":"東五条北八丁目","koaza":"","lat":44.365052,"lng":142.472348,"version":"14.0b/19.0a"},{"town":"東五条南一丁目","koaza":"","lat":44.355723,"lng":142.472289,"version":"14.0b/19.0a"},{"town":"東五条南二丁目","koaza":"","lat":44.354509,"lng":142.472321,"version":"14.0b/19.0a"},{"town":"東五条南三丁目","koaza":"","lat":44.353431,"lng":142.472525,"version":"14.0b/19.0a"},{"town":"東五条南四丁目","koaza":"","lat":44.35207,"lng":142.472244,"version":"14.0b/19.0a"},{"town":"東五条南五丁目","koaza":"","lat":44.350776,"lng":142.472265,"version":"14.0b/19.0a"},{"town":"東五条南六丁目","koaza":"","lat":44.349557,"lng":142.472517,"version":"14.0b/19.0a"},{"town":"東五条南九丁目","koaza":"","lat":44.347782,"lng":142.471928,"version":"14.0b/19.0a"},{"town":"東六条北一丁目","koaza":"","lat":44.357178,"lng":142.4755,"version":"14.0b/19.0a"},{"town":"東六条北二丁目","koaza":"","lat":44.35821,"lng":142.475295,"version":"14.0b/19.0a"},{"town":"東六条北三丁目","koaza":"","lat":44.359164,"lng":142.47503,"version":"14.0b/19.0a"},{"town":"東六条北四丁目","koaza":"","lat":44.360311,"lng":142.474708,"version":"14.0b/19.0a"},{"town":"東六条北五丁目","koaza":"","lat":44.362897,"lng":142.474416,"version":"14.0b/19.0a"},{"town":"東六条南一丁目","koaza":"","lat":44.355737,"lng":142.4746,"version":"14.0b/19.0a"},{"town":"東六条南二丁目","koaza":"","lat":44.354451,"lng":142.474647,"version":"14.0b/19.0a"},{"town":"東六条南三丁目","koaza":"","lat":44.353083,"lng":142.474349,"version":"14.0b/19.0a"},{"town":"東六条南四丁目","koaza":"","lat":44.352087,"lng":142.474883,"version":"14.0b/19.0a"},{"town":"東六条南五丁目","koaza":"","lat":44.350043,"lng":142.474905,"version":"14.0b/19.0a"},{"town":"東六条南八丁目","koaza":"","lat":44.348379,"lng":142.47313,"version":"14.0b/19.0a"},{"town":"東六条南九丁目","koaza":"","lat":44.347243,"lng":142.473643,"version":"14.0b/19.0a"},{"town":"東七条南一丁目","koaza":"","lat":44.355026,"lng":142.476701,"version":"14.0b/19.0a"},{"town":"東七条南三丁目","koaza":"","lat":44.352388,"lng":142.477025,"version":"14.0b/19.0a"},{"town":"東七条南四丁目","koaza":"","lat":44.351696,"lng":142.476648,"version":"14.0b/19.0a"},{"town":"東七条南八丁目","koaza":"","lat":44.348355,"lng":142.475114,"version":"14.0b/19.0a"},{"town":"東七条南九丁目","koaza":"","lat":44.34708,"lng":142.47532,"version":"14.0b/19.0a"},{"town":"東八条南五丁目","koaza":"","lat":44.350198,"lng":142.477255,"version":"14.0b/19.0a"},{"town":"東八条南八丁目","koaza":"","lat":44.348236,"lng":142.477073,"version":"14.0b/19.0a"},{"town":"東八条南九丁目","koaza":"","lat":44.346905,"lng":142.477094,"version":"14.0b/19.0a"},{"town":"東九条南五丁目","koaza":"","lat":44.350247,"lng":142.478844,"version":"14.0b/19.0a"},{"town":"風連町字旭","koaza":"","lat":44.265259,"lng":142.462594,"version":"14.0b/19.0a"},{"town":"風連町字池の上","koaza":"","lat":44.281303,"lng":142.547102,"version":"14.0b/19.0a"},{"town":"風連町字瑞生","koaza":"","lat":44.301479,"lng":142.388,"version":"14.0b/19.0a"},{"town":"風連町字中央","koaza":"","lat":44.279708,"lng":142.425924,"version":"14.0b/19.0a"},{"town":"風連町字東生","koaza":"","lat":44.216944,"lng":142.575617,"version":"14.0b/19.0a"},{"town":"風連町字豊里","koaza":"","lat":44.315127,"lng":142.425878,"version":"14.0b/19.0a"},{"town":"風連町字西風連","koaza":"","lat":44.314202,"lng":142.331105,"version":"14.0b/19.0a"},{"town":"風連町字日進","koaza":"","lat":44.227934,"lng":142.50732,"version":"14.0b/19.0a"},{"town":"風連町字東風連","koaza":"","lat":44.295561,"lng":142.469998,"version":"14.0b/19.0a"},{"town":"風連町大町","koaza":"","lat":44.294446,"lng":142.422007,"version":"14.0b/19.0a"},{"town":"風連町新生町","koaza":"","lat":44.295157,"lng":142.427138,"version":"14.0b/19.0a"},{"town":"風連町仲町","koaza":"","lat":44.293591,"lng":142.417222,"version":"14.0b/19.0a"},{"town":"風連町西町","koaza":"","lat":44.293529,"lng":142.412833,"version":"14.0b/19.0a"},{"town":"風連町北栄町","koaza":"","lat":44.29873,"lng":142.422214,"version":"14.0b/19.0a"},{"town":"風連町緑町","koaza":"","lat":44.287474,"lng":142.419201,"version":"14.0b/19.0a"},{"town":"風連町南町","koaza":"","lat":44.290238,"lng":142.417294,"version":"14.0b/19.0a"},{"town":"風連町本町","koaza":"","lat":44.2929,"lng":142.420237,"version":"14.0b/19.0a"}]