[{"town":"阿分","koaza":"","lat":43.871273,"lng":141.630987,"version":"13.0b/18.0a"},{"town":"稲葉海岸町","koaza":"","lat":43.858628,"lng":141.522866,"version":"13.0b/18.0a"},{"town":"稲葉町一丁目","koaza":"","lat":43.857811,"lng":141.523807,"version":"13.0b/18.0a"},{"town":"稲葉町二丁目","koaza":"","lat":43.85713,"lng":141.523972,"version":"13.0b/18.0a"},{"town":"稲葉町三丁目","koaza":"","lat":43.856534,"lng":141.524124,"version":"13.0b/18.0a"},{"town":"稲葉町四丁目","koaza":"","lat":43.855604,"lng":141.52428,"version":"13.0b/18.0a"},{"town":"岩尾","koaza":"","lat":43.78098,"lng":141.398556,"version":"13.0b/18.0a"},{"town":"岩老","koaza":"","lat":43.773619,"lng":141.372618,"version":"13.0b/18.0a"},{"town":"永寿町一丁目","koaza":"","lat":43.857348,"lng":141.522142,"version":"13.0b/18.0a"},{"town":"永寿町二丁目","koaza":"","lat":43.856787,"lng":141.522456,"version":"13.0b/18.0a"},{"town":"永寿町三丁目","koaza":"","lat":43.856232,"lng":141.522777,"version":"13.0b/18.0a"},{"town":"永寿町四丁目","koaza":"","lat":43.855493,"lng":141.523045,"version":"13.0b/18.0a"},{"town":"永寿町五丁目","koaza":"","lat":43.855232,"lng":141.523638,"version":"13.0b/18.0a"},{"town":"雄冬","koaza":"","lat":43.747385,"lng":141.349353,"version":"13.0b/18.0a"},{"town":"御料","koaza":"","lat":43.800777,"lng":141.685748,"version":"13.0b/18.0a"},{"town":"栄町","koaza":"","lat":43.858284,"lng":141.518557,"version":"13.0b/18.0a"},{"town":"七源町","koaza":"","lat":43.857778,"lng":141.51955,"version":"13.0b/18.0a"},{"town":"舎熊","koaza":"","lat":43.79493,"lng":141.585612,"version":"13.0b/18.0a"},{"town":"暑寒海岸町","koaza":"","lat":43.8563,"lng":141.514692,"version":"13.0b/18.0a"},{"town":"暑寒沢","koaza":"","lat":43.7679,"lng":141.489376,"version":"13.0b/18.0a"},{"town":"暑寒町一丁目","koaza":"","lat":43.853453,"lng":141.513244,"version":"13.0b/18.0a"},{"town":"暑寒町二丁目","koaza":"","lat":43.855016,"lng":141.515752,"version":"13.0b/18.0a"},{"town":"暑寒町三丁目","koaza":"","lat":43.854443,"lng":141.516027,"version":"13.0b/18.0a"},{"town":"暑寒町四丁目","koaza":"","lat":43.853766,"lng":141.515788,"version":"13.0b/18.0a"},{"town":"暑寒町五丁目","koaza":"","lat":43.85244,"lng":141.515066,"version":"13.0b/18.0a"},{"town":"中歌","koaza":"","lat":43.8547,"lng":141.544771,"version":"13.0b/18.0a"},{"town":"野塚町","koaza":"","lat":43.858047,"lng":141.521872,"version":"13.0b/18.0a"},{"town":"信砂","koaza":"","lat":43.792508,"lng":141.636412,"version":"13.0b/18.0a"},{"town":"箸別","koaza":"","lat":43.85353,"lng":141.553029,"version":"13.0b/18.0a"},{"town":"畠中北町","koaza":"","lat":43.857258,"lng":141.519642,"version":"13.0b/18.0a"},{"town":"畠中町一丁目","koaza":"","lat":43.856692,"lng":141.519726,"version":"13.0b/18.0a"},{"town":"畠中町二丁目","koaza":"","lat":43.856059,"lng":141.519806,"version":"13.0b/18.0a"},{"town":"畠中町三丁目","koaza":"","lat":43.855489,"lng":141.520082,"version":"13.0b/18.0a"},{"town":"畠中町四丁目","koaza":"","lat":43.8549,"lng":141.520376,"version":"13.0b/18.0a"},{"town":"畠中町五丁目","koaza":"","lat":43.85437,"lng":141.521064,"version":"13.0b/18.0a"},{"town":"別苅","koaza":"","lat":43.782648,"lng":141.449355,"version":"13.0b/18.0a"},{"town":"弁天町一丁目","koaza":"","lat":43.857642,"lng":141.526632,"version":"13.0b/18.0a"},{"town":"弁天町二丁目","koaza":"","lat":43.856914,"lng":141.5267,"version":"13.0b/18.0a"},{"town":"弁天町三丁目","koaza":"","lat":43.856297,"lng":141.525768,"version":"13.0b/18.0a"},{"town":"弁天町四丁目","koaza":"","lat":43.85564,"lng":141.525903,"version":"13.0b/18.0a"},{"town":"弁天町五丁目","koaza":"","lat":43.854971,"lng":141.526018,"version":"13.0b/18.0a"},{"town":"港町","koaza":"","lat":43.85675,"lng":141.528436,"version":"13.0b/18.0a"},{"town":"南永寿町一丁目","koaza":"","lat":43.8545,"lng":141.523723,"version":"13.0b/18.0a"},{"town":"南永寿町二丁目","koaza":"","lat":43.852869,"lng":141.524359,"version":"13.0b/18.0a"},{"town":"南永寿町三丁目","koaza":"","lat":43.85059,"lng":141.525345,"version":"13.0b/18.0a"},{"town":"南暑寒町一丁目","koaza":"","lat":43.852728,"lng":141.517632,"version":"13.0b/18.0a"},{"town":"南暑寒町二丁目","koaza":"","lat":43.85199,"lng":141.517692,"version":"13.0b/18.0a"},{"town":"南暑寒町三丁目","koaza":"","lat":43.851536,"lng":141.518838,"version":"13.0b/18.0a"},{"town":"南暑寒町四丁目","koaza":"","lat":43.850997,"lng":141.51862,"version":"13.0b/18.0a"},{"town":"南暑寒町五丁目","koaza":"","lat":43.850166,"lng":141.516095,"version":"13.0b/18.0a"},{"town":"南暑寒町六丁目","koaza":"","lat":43.848767,"lng":141.516287,"version":"13.0b/18.0a"},{"town":"南暑寒町七丁目","koaza":"","lat":43.849372,"lng":141.519252,"version":"13.0b/18.0a"},{"town":"南暑寒町八丁目","koaza":"","lat":43.848668,"lng":141.519006,"version":"13.0b/18.0a"},{"town":"南暑寒町九丁目","koaza":"","lat":43.848123,"lng":141.519374,"version":"13.0b/18.0a"},{"town":"南畠中町一丁目","koaza":"","lat":43.85357,"lng":141.521013,"version":"13.0b/18.0a"},{"town":"南畠中町二丁目","koaza":"","lat":43.852921,"lng":141.521324,"version":"13.0b/18.0a"},{"town":"南畠中町三丁目","koaza":"","lat":43.852336,"lng":141.521606,"version":"13.0b/18.0a"},{"town":"南畠中町四丁目","koaza":"","lat":43.851823,"lng":141.521852,"version":"13.0b/18.0a"},{"town":"南畠中町五丁目","koaza":"","lat":43.85135,"lng":141.522078,"version":"13.0b/18.0a"},{"town":"南畠中町六丁目","koaza":"","lat":43.850833,"lng":141.522353,"version":"13.0b/18.0a"},{"town":"南畠中町七丁目","koaza":"","lat":43.850272,"lng":141.52265,"version":"13.0b/18.0a"},{"town":"南畠中町八丁目","koaza":"","lat":43.849678,"lng":141.522941,"version":"13.0b/18.0a"},{"town":"南畠中町九丁目","koaza":"","lat":43.849103,"lng":141.523214,"version":"13.0b/18.0a"},{"town":"見晴町","koaza":"","lat":43.851786,"lng":141.545372,"version":"13.0b/18.0a"},{"town":"湯の沢","koaza":"","lat":43.783132,"lng":141.553672,"version":"13.0b/18.0a"},{"town":"阿分","koaza":"","lat":43.871273,"lng":141.630987,"version":"14.0b/19.0a"},{"town":"稲葉海岸町","koaza":"","lat":43.858628,"lng":141.522866,"version":"14.0b/19.0a"},{"town":"稲葉町一丁目","koaza":"","lat":43.857811,"lng":141.523807,"version":"14.0b/19.0a"},{"town":"稲葉町二丁目","koaza":"","lat":43.85713,"lng":141.523972,"version":"14.0b/19.0a"},{"town":"稲葉町三丁目","koaza":"","lat":43.856534,"lng":141.524124,"version":"14.0b/19.0a"},{"town":"稲葉町四丁目","koaza":"","lat":43.855604,"lng":141.52428,"version":"14.0b/19.0a"},{"town":"岩尾","koaza":"","lat":43.78098,"lng":141.398556,"version":"14.0b/19.0a"},{"town":"岩老","koaza":"","lat":43.773619,"lng":141.372618,"version":"14.0b/19.0a"},{"town":"永寿町一丁目","koaza":"","lat":43.857348,"lng":141.522142,"version":"14.0b/19.0a"},{"town":"永寿町二丁目","koaza":"","lat":43.856787,"lng":141.522456,"version":"14.0b/19.0a"},{"town":"永寿町三丁目","koaza":"","lat":43.856232,"lng":141.522777,"version":"14.0b/19.0a"},{"town":"永寿町四丁目","koaza":"","lat":43.855493,"lng":141.523045,"version":"14.0b/19.0a"},{"town":"永寿町五丁目","koaza":"","lat":43.855232,"lng":141.523638,"version":"14.0b/19.0a"},{"town":"雄冬","koaza":"","lat":43.747385,"lng":141.349353,"version":"14.0b/19.0a"},{"town":"御料","koaza":"","lat":43.800777,"lng":141.685748,"version":"14.0b/19.0a"},{"town":"栄町","koaza":"","lat":43.858284,"lng":141.518557,"version":"14.0b/19.0a"},{"town":"七源町","koaza":"","lat":43.857778,"lng":141.51955,"version":"14.0b/19.0a"},{"town":"舎熊","koaza":"","lat":43.79493,"lng":141.585612,"version":"14.0b/19.0a"},{"town":"暑寒海岸町","koaza":"","lat":43.8563,"lng":141.514692,"version":"14.0b/19.0a"},{"town":"暑寒沢","koaza":"","lat":43.7679,"lng":141.489376,"version":"14.0b/19.0a"},{"town":"暑寒町一丁目","koaza":"","lat":43.853453,"lng":141.513244,"version":"14.0b/19.0a"},{"town":"暑寒町二丁目","koaza":"","lat":43.855016,"lng":141.515752,"version":"14.0b/19.0a"},{"town":"暑寒町三丁目","koaza":"","lat":43.854443,"lng":141.516027,"version":"14.0b/19.0a"},{"town":"暑寒町四丁目","koaza":"","lat":43.853766,"lng":141.515788,"version":"14.0b/19.0a"},{"town":"暑寒町五丁目","koaza":"","lat":43.85244,"lng":141.515066,"version":"14.0b/19.0a"},{"town":"中歌","koaza":"","lat":43.8547,"lng":141.544771,"version":"14.0b/19.0a"},{"town":"野塚町","koaza":"","lat":43.858047,"lng":141.521872,"version":"14.0b/19.0a"},{"town":"信砂","koaza":"","lat":43.792508,"lng":141.636412,"version":"14.0b/19.0a"},{"town":"箸別","koaza":"","lat":43.85353,"lng":141.553029,"version":"14.0b/19.0a"},{"town":"畠中北町","koaza":"","lat":43.857258,"lng":141.519642,"version":"14.0b/19.0a"},{"town":"畠中町一丁目","koaza":"","lat":43.856692,"lng":141.519726,"version":"14.0b/19.0a"},{"town":"畠中町二丁目","koaza":"","lat":43.856059,"lng":141.519806,"version":"14.0b/19.0a"},{"town":"畠中町三丁目","koaza":"","lat":43.855489,"lng":141.520082,"version":"14.0b/19.0a"},{"town":"畠中町四丁目","koaza":"","lat":43.8549,"lng":141.520376,"version":"14.0b/19.0a"},{"town":"畠中町五丁目","koaza":"","lat":43.85437,"lng":141.521064,"version":"14.0b/19.0a"},{"town":"別苅","koaza":"","lat":43.782648,"lng":141.449355,"version":"14.0b/19.0a"},{"town":"弁天町一丁目","koaza":"","lat":43.857642,"lng":141.526632,"version":"14.0b/19.0a"},{"town":"弁天町二丁目","koaza":"","lat":43.856914,"lng":141.5267,"version":"14.0b/19.0a"},{"town":"弁天町三丁目","koaza":"","lat":43.856297,"lng":141.525768,"version":"14.0b/19.0a"},{"town":"弁天町四丁目","koaza":"","lat":43.85564,"lng":141.525903,"version":"14.0b/19.0a"},{"town":"弁天町五丁目","koaza":"","lat":43.854971,"lng":141.526018,"version":"14.0b/19.0a"},{"town":"港町","koaza":"","lat":43.85675,"lng":141.528436,"version":"14.0b/19.0a"},{"town":"南永寿町一丁目","koaza":"","lat":43.8545,"lng":141.523723,"version":"14.0b/19.0a"},{"town":"南永寿町二丁目","koaza":"","lat":43.852869,"lng":141.524359,"version":"14.0b/19.0a"},{"town":"南永寿町三丁目","koaza":"","lat":43.85059,"lng":141.525345,"version":"14.0b/19.0a"},{"town":"南暑寒町一丁目","koaza":"","lat":43.852728,"lng":141.517632,"version":"14.0b/19.0a"},{"town":"南暑寒町二丁目","koaza":"","lat":43.85199,"lng":141.517692,"version":"14.0b/19.0a"},{"town":"南暑寒町三丁目","koaza":"","lat":43.851536,"lng":141.518838,"version":"14.0b/19.0a"},{"town":"南暑寒町四丁目","koaza":"","lat":43.850997,"lng":141.51862,"version":"14.0b/19.0a"},{"town":"南暑寒町五丁目","koaza":"","lat":43.850166,"lng":141.516095,"version":"14.0b/19.0a"},{"town":"南暑寒町六丁目","koaza":"","lat":43.848767,"lng":141.516287,"version":"14.0b/19.0a"},{"town":"南暑寒町七丁目","koaza":"","lat":43.849372,"lng":141.519252,"version":"14.0b/19.0a"},{"town":"南暑寒町八丁目","koaza":"","lat":43.848668,"lng":141.519006,"version":"14.0b/19.0a"},{"town":"南暑寒町九丁目","koaza":"","lat":43.848123,"lng":141.519374,"version":"14.0b/19.0a"},{"town":"南畠中町一丁目","koaza":"","lat":43.85357,"lng":141.521013,"version":"14.0b/19.0a"},{"town":"南畠中町二丁目","koaza":"","lat":43.852921,"lng":141.521324,"version":"14.0b/19.0a"},{"town":"南畠中町三丁目","koaza":"","lat":43.852336,"lng":141.521606,"version":"14.0b/19.0a"},{"town":"南畠中町四丁目","koaza":"","lat":43.851823,"lng":141.521852,"version":"14.0b/19.0a"},{"town":"南畠中町五丁目","koaza":"","lat":43.85135,"lng":141.522078,"version":"14.0b/19.0a"},{"town":"南畠中町六丁目","koaza":"","lat":43.850833,"lng":141.522353,"version":"14.0b/19.0a"},{"town":"南畠中町七丁目","koaza":"","lat":43.850272,"lng":141.52265,"version":"14.0b/19.0a"},{"town":"南畠中町八丁目","koaza":"","lat":43.849678,"lng":141.522941,"version":"14.0b/19.0a"},{"town":"南畠中町九丁目","koaza":"","lat":43.849103,"lng":141.523214,"version":"14.0b/19.0a"},{"town":"見晴町","koaza":"","lat":43.851786,"lng":141.545372,"version":"14.0b/19.0a"},{"town":"湯の沢","koaza":"","lat":43.783132,"lng":141.553672,"version":"14.0b/19.0a"}]