[{"town":"字旭","koaza":"","lat":44.659457,"lng":141.855077,"version":"13.0b/18.0a"},{"town":"字歌越","koaza":"","lat":44.62233,"lng":141.858119,"version":"13.0b/18.0a"},{"town":"字金浦","koaza":"","lat":44.675206,"lng":141.82786,"version":"13.0b/18.0a"},{"town":"字北里","koaza":"","lat":44.800833,"lng":141.804775,"version":"13.0b/18.0a"},{"town":"字北浜","koaza":"","lat":44.732485,"lng":141.793567,"version":"13.0b/18.0a"},{"town":"字久光","koaza":"","lat":44.713558,"lng":141.855974,"version":"13.0b/18.0a"},{"town":"字共栄","koaza":"","lat":44.659516,"lng":141.946543,"version":"13.0b/18.0a"},{"town":"字清川","koaza":"","lat":44.736773,"lng":141.920234,"version":"13.0b/18.0a"},{"town":"字啓明","koaza":"","lat":44.7544,"lng":141.814667,"version":"13.0b/18.0a"},{"town":"字幸和","koaza":"","lat":44.728455,"lng":141.821093,"version":"13.0b/18.0a"},{"town":"字正修","koaza":"","lat":44.444163,"lng":142.040521,"version":"13.0b/18.0a"},{"town":"字大成","koaza":"","lat":44.540516,"lng":141.989112,"version":"13.0b/18.0a"},{"town":"字中央","koaza":"","lat":44.687299,"lng":141.926429,"version":"13.0b/18.0a"},{"town":"字東野","koaza":"","lat":44.608215,"lng":141.966306,"version":"13.0b/18.0a"},{"town":"字富士見","koaza":"","lat":44.700282,"lng":141.810932,"version":"13.0b/18.0a"},{"town":"字本町一丁目","koaza":"","lat":44.718985,"lng":141.791208,"version":"13.0b/18.0a"},{"town":"字本町二丁目","koaza":"","lat":44.720729,"lng":141.792123,"version":"13.0b/18.0a"},{"town":"字本町三丁目","koaza":"","lat":44.722261,"lng":141.790862,"version":"13.0b/18.0a"},{"town":"字本町四丁目","koaza":"","lat":44.723061,"lng":141.790137,"version":"13.0b/18.0a"},{"town":"字本町五丁目","koaza":"","lat":44.7246,"lng":141.793778,"version":"13.0b/18.0a"},{"town":"字本町六丁目","koaza":"","lat":44.722507,"lng":141.798535,"version":"13.0b/18.0a"},{"town":"字丸松","koaza":"","lat":44.80213,"lng":141.86348,"version":"13.0b/18.0a"},{"town":"字旭","koaza":"","lat":44.659457,"lng":141.855077,"version":"14.0b/19.0a"},{"town":"字歌越","koaza":"","lat":44.62233,"lng":141.858119,"version":"14.0b/19.0a"},{"town":"字金浦","koaza":"","lat":44.675206,"lng":141.82786,"version":"14.0b/19.0a"},{"town":"字北里","koaza":"","lat":44.800833,"lng":141.804775,"version":"14.0b/19.0a"},{"town":"字北浜","koaza":"","lat":44.732485,"lng":141.793567,"version":"14.0b/19.0a"},{"town":"字久光","koaza":"","lat":44.713558,"lng":141.855974,"version":"14.0b/19.0a"},{"town":"字共栄","koaza":"","lat":44.659516,"lng":141.946543,"version":"14.0b/19.0a"},{"town":"字清川","koaza":"","lat":44.736773,"lng":141.920234,"version":"14.0b/19.0a"},{"town":"字啓明","koaza":"","lat":44.7544,"lng":141.814667,"version":"14.0b/19.0a"},{"town":"字幸和","koaza":"","lat":44.728455,"lng":141.821093,"version":"14.0b/19.0a"},{"town":"字正修","koaza":"","lat":44.444163,"lng":142.040521,"version":"14.0b/19.0a"},{"town":"字大成","koaza":"","lat":44.540516,"lng":141.989112,"version":"14.0b/19.0a"},{"town":"字中央","koaza":"","lat":44.687299,"lng":141.926429,"version":"14.0b/19.0a"},{"town":"字東野","koaza":"","lat":44.608215,"lng":141.966306,"version":"14.0b/19.0a"},{"town":"字富士見","koaza":"","lat":44.700282,"lng":141.810932,"version":"14.0b/19.0a"},{"town":"字本町一丁目","koaza":"","lat":44.718985,"lng":141.791208,"version":"14.0b/19.0a"},{"town":"字本町二丁目","koaza":"","lat":44.720729,"lng":141.792123,"version":"14.0b/19.0a"},{"town":"字本町三丁目","koaza":"","lat":44.722261,"lng":141.790862,"version":"14.0b/19.0a"},{"town":"字本町四丁目","koaza":"","lat":44.723061,"lng":141.790137,"version":"14.0b/19.0a"},{"town":"字本町五丁目","koaza":"","lat":44.7246,"lng":141.793778,"version":"14.0b/19.0a"},{"town":"字本町六丁目","koaza":"","lat":44.722507,"lng":141.798535,"version":"14.0b/19.0a"},{"town":"字丸松","koaza":"","lat":44.80213,"lng":141.86348,"version":"14.0b/19.0a"}]