[{"town":"十条西十八丁目","koaza":"","lat":43.188931,"lng":141.755694,"version":"13.0b/18.0a"},{"town":"十条西十九丁目","koaza":"","lat":43.188323,"lng":141.754857,"version":"13.0b/18.0a"},{"town":"十条西一丁目","koaza":"","lat":43.197341,"lng":141.772115,"version":"13.0b/18.0a"},{"town":"十条西二十丁目","koaza":"","lat":43.188273,"lng":141.753778,"version":"13.0b/18.0a"},{"town":"十条西二十一丁目","koaza":"","lat":43.187694,"lng":141.753057,"version":"13.0b/18.0a"},{"town":"十条西二十二丁目","koaza":"","lat":43.187522,"lng":141.751914,"version":"13.0b/18.0a"},{"town":"十条西二十三丁目","koaza":"","lat":43.186334,"lng":141.749971,"version":"13.0b/18.0a"},{"town":"十条西二丁目","koaza":"","lat":43.196894,"lng":141.771126,"version":"13.0b/18.0a"},{"town":"十条西三丁目","koaza":"","lat":43.196335,"lng":141.770123,"version":"13.0b/18.0a"},{"town":"十条西四丁目","koaza":"","lat":43.195859,"lng":141.769175,"version":"13.0b/18.0a"},{"town":"十条西五丁目","koaza":"","lat":43.195361,"lng":141.768175,"version":"13.0b/18.0a"},{"town":"十条東一丁目","koaza":"","lat":43.197871,"lng":141.772934,"version":"13.0b/18.0a"},{"town":"十条東二丁目","koaza":"","lat":43.197932,"lng":141.774231,"version":"13.0b/18.0a"},{"town":"十条東三丁目","koaza":"","lat":43.198374,"lng":141.775065,"version":"13.0b/18.0a"},{"town":"十条東四丁目","koaza":"","lat":43.199103,"lng":141.775566,"version":"13.0b/18.0a"},{"town":"十条東五丁目","koaza":"","lat":43.199833,"lng":141.776477,"version":"13.0b/18.0a"},{"town":"十条東六丁目","koaza":"","lat":43.200367,"lng":141.777462,"version":"13.0b/18.0a"},{"town":"十条東七丁目","koaza":"","lat":43.200903,"lng":141.778272,"version":"13.0b/18.0a"},{"town":"十一条西一丁目","koaza":"","lat":43.196656,"lng":141.77266,"version":"13.0b/18.0a"},{"town":"十一条西二丁目","koaza":"","lat":43.196071,"lng":141.771742,"version":"13.0b/18.0a"},{"town":"十一条西三丁目","koaza":"","lat":43.195607,"lng":141.770805,"version":"13.0b/18.0a"},{"town":"十一条西四丁目","koaza":"","lat":43.19513,"lng":141.769861,"version":"13.0b/18.0a"},{"town":"十一条西五丁目","koaza":"","lat":43.194626,"lng":141.768854,"version":"13.0b/18.0a"},{"town":"十一条東一丁目","koaza":"","lat":43.197056,"lng":141.773698,"version":"13.0b/18.0a"},{"town":"十二条西一丁目","koaza":"","lat":43.19579,"lng":141.77354,"version":"13.0b/18.0a"},{"town":"十二条西二丁目","koaza":"","lat":43.195119,"lng":141.77272,"version":"13.0b/18.0a"},{"town":"十二条西三丁目","koaza":"","lat":43.194844,"lng":141.771383,"version":"13.0b/18.0a"},{"town":"十二条西四丁目","koaza":"","lat":43.194543,"lng":141.770412,"version":"13.0b/18.0a"},{"town":"十二条西五丁目","koaza":"","lat":43.194012,"lng":141.769595,"version":"13.0b/18.0a"},{"town":"十二条東一丁目","koaza":"","lat":43.196322,"lng":141.774207,"version":"13.0b/18.0a"},{"town":"十三条西一丁目","koaza":"","lat":43.195139,"lng":141.774054,"version":"13.0b/18.0a"},{"town":"十三条西三丁目","koaza":"","lat":43.194237,"lng":141.772078,"version":"13.0b/18.0a"},{"town":"十三条西四丁目","koaza":"","lat":43.193962,"lng":141.770961,"version":"13.0b/18.0a"},{"town":"十三条西五丁目","koaza":"","lat":43.193321,"lng":141.770123,"version":"13.0b/18.0a"},{"town":"一条西十丁目","koaza":"","lat":43.20116,"lng":141.755958,"version":"13.0b/18.0a"},{"town":"一条西十一丁目","koaza":"","lat":43.200869,"lng":141.754589,"version":"13.0b/18.0a"},{"town":"一条西十二丁目","koaza":"","lat":43.200427,"lng":141.753657,"version":"13.0b/18.0a"},{"town":"一条西十三丁目","koaza":"","lat":43.200102,"lng":141.752691,"version":"13.0b/18.0a"},{"town":"一条西十四丁目","koaza":"","lat":43.199498,"lng":141.751783,"version":"13.0b/18.0a"},{"town":"一条西一丁目","koaza":"","lat":43.205339,"lng":141.764365,"version":"13.0b/18.0a"},{"town":"一条西二丁目","koaza":"","lat":43.204868,"lng":141.763302,"version":"13.0b/18.0a"},{"town":"一条西三丁目","koaza":"","lat":43.204382,"lng":141.762359,"version":"13.0b/18.0a"},{"town":"一条西四丁目","koaza":"","lat":43.203917,"lng":141.761441,"version":"13.0b/18.0a"},{"town":"一条西五丁目","koaza":"","lat":43.203451,"lng":141.760508,"version":"13.0b/18.0a"},{"town":"一条西六丁目","koaza":"","lat":43.202992,"lng":141.759588,"version":"13.0b/18.0a"},{"town":"一条西七丁目","koaza":"","lat":43.202569,"lng":141.758818,"version":"13.0b/18.0a"},{"town":"一条西八丁目","koaza":"","lat":43.202052,"lng":141.757812,"version":"13.0b/18.0a"},{"town":"一条西九丁目","koaza":"","lat":43.201563,"lng":141.756822,"version":"13.0b/18.0a"},{"town":"一条東十丁目","koaza":"","lat":43.21066,"lng":141.773203,"version":"13.0b/18.0a"},{"town":"一条東十一丁目","koaza":"","lat":43.211346,"lng":141.774708,"version":"13.0b/18.0a"},{"town":"一条東十二丁目","koaza":"","lat":43.212429,"lng":141.777111,"version":"13.0b/18.0a"},{"town":"一条東十三丁目","koaza":"","lat":43.213316,"lng":141.778422,"version":"13.0b/18.0a"},{"town":"一条東十四丁目","koaza":"","lat":43.214371,"lng":141.780151,"version":"13.0b/18.0a"},{"town":"一条東十五丁目","koaza":"","lat":43.215811,"lng":141.781807,"version":"13.0b/18.0a"},{"town":"一条東十六丁目","koaza":"","lat":43.217104,"lng":141.783336,"version":"13.0b/18.0a"},{"town":"一条東十七丁目","koaza":"","lat":43.218375,"lng":141.784513,"version":"13.0b/18.0a"},{"town":"一条東一丁目","koaza":"","lat":43.206219,"lng":141.764852,"version":"13.0b/18.0a"},{"town":"一条東二丁目","koaza":"","lat":43.20665,"lng":141.76605,"version":"13.0b/18.0a"},{"town":"一条東三丁目","koaza":"","lat":43.207101,"lng":141.766949,"version":"13.0b/18.0a"},{"town":"一条東四丁目","koaza":"","lat":43.207548,"lng":141.767829,"version":"13.0b/18.0a"},{"town":"一条東五丁目","koaza":"","lat":43.208073,"lng":141.768536,"version":"13.0b/18.0a"},{"town":"一条東六丁目","koaza":"","lat":43.208509,"lng":141.769663,"version":"13.0b/18.0a"},{"town":"一条東七丁目","koaza":"","lat":43.209194,"lng":141.770325,"version":"13.0b/18.0a"},{"town":"一条東八丁目","koaza":"","lat":43.209603,"lng":141.771386,"version":"13.0b/18.0a"},{"town":"一条東九丁目","koaza":"","lat":43.210071,"lng":141.772381,"version":"13.0b/18.0a"},{"town":"二条西十丁目","koaza":"","lat":43.200511,"lng":141.75653,"version":"13.0b/18.0a"},{"town":"二条西十一丁目","koaza":"","lat":43.199994,"lng":141.755515,"version":"13.0b/18.0a"},{"town":"二条西十二丁目","koaza":"","lat":43.199499,"lng":141.754556,"version":"13.0b/18.0a"},{"town":"二条西十三丁目","koaza":"","lat":43.19938,"lng":141.753287,"version":"13.0b/18.0a"},{"town":"二条西十四丁目","koaza":"","lat":43.198887,"lng":141.752402,"version":"13.0b/18.0a"},{"town":"二条西十五丁目","koaza":"","lat":43.198736,"lng":141.751177,"version":"13.0b/18.0a"},{"town":"二条西十六丁目","koaza":"","lat":43.198137,"lng":141.75037,"version":"13.0b/18.0a"},{"town":"二条西一丁目","koaza":"","lat":43.204641,"lng":141.765014,"version":"13.0b/18.0a"},{"town":"二条西二丁目","koaza":"","lat":43.204269,"lng":141.763885,"version":"13.0b/18.0a"},{"town":"二条西三丁目","koaza":"","lat":43.203792,"lng":141.762936,"version":"13.0b/18.0a"},{"town":"二条西四丁目","koaza":"","lat":43.203292,"lng":141.76205,"version":"13.0b/18.0a"},{"town":"二条西五丁目","koaza":"","lat":43.202857,"lng":141.761081,"version":"13.0b/18.0a"},{"town":"二条西六丁目","koaza":"","lat":43.20243,"lng":141.760167,"version":"13.0b/18.0a"},{"town":"二条西七丁目","koaza":"","lat":43.201972,"lng":141.759283,"version":"13.0b/18.0a"},{"town":"二条西八丁目","koaza":"","lat":43.201453,"lng":141.758418,"version":"13.0b/18.0a"},{"town":"二条西九丁目","koaza":"","lat":43.200994,"lng":141.757503,"version":"13.0b/18.0a"},{"town":"二条東十丁目","koaza":"","lat":43.209905,"lng":141.774042,"version":"13.0b/18.0a"},{"town":"二条東十一丁目","koaza":"","lat":43.210618,"lng":141.775893,"version":"13.0b/18.0a"},{"town":"二条東十二丁目","koaza":"","lat":43.211592,"lng":141.77717,"version":"13.0b/18.0a"},{"town":"二条東十三丁目","koaza":"","lat":43.212471,"lng":141.779084,"version":"13.0b/18.0a"},{"town":"二条東十四丁目","koaza":"","lat":43.213344,"lng":141.780777,"version":"13.0b/18.0a"},{"town":"二条東十五丁目","koaza":"","lat":43.214861,"lng":141.783517,"version":"13.0b/18.0a"},{"town":"二条東十六丁目","koaza":"","lat":43.216381,"lng":141.784721,"version":"13.0b/18.0a"},{"town":"二条東十七丁目","koaza":"","lat":43.217702,"lng":141.785709,"version":"13.0b/18.0a"},{"town":"二条東十八丁目","koaza":"","lat":43.219096,"lng":141.786622,"version":"13.0b/18.0a"},{"town":"二条東一丁目","koaza":"","lat":43.205212,"lng":141.765829,"version":"13.0b/18.0a"},{"town":"二条東二丁目","koaza":"","lat":43.205753,"lng":141.767025,"version":"13.0b/18.0a"},{"town":"二条東三丁目","koaza":"","lat":43.206166,"lng":141.767839,"version":"13.0b/18.0a"},{"town":"二条東四丁目","koaza":"","lat":43.206604,"lng":141.768773,"version":"13.0b/18.0a"},{"town":"二条東五丁目","koaza":"","lat":43.206901,"lng":141.769883,"version":"13.0b/18.0a"},{"town":"二条東六丁目","koaza":"","lat":43.207479,"lng":141.770886,"version":"13.0b/18.0a"},{"town":"二条東七丁目","koaza":"","lat":43.208302,"lng":141.771236,"version":"13.0b/18.0a"},{"town":"二条東八丁目","koaza":"","lat":43.208694,"lng":141.772205,"version":"13.0b/18.0a"},{"town":"二条東九丁目","koaza":"","lat":43.209405,"lng":141.773086,"version":"13.0b/18.0a"},{"town":"三条西十丁目","koaza":"","lat":43.19985,"lng":141.757169,"version":"13.0b/18.0a"},{"town":"三条西十一丁目","koaza":"","lat":43.199348,"lng":141.756133,"version":"13.0b/18.0a"},{"town":"三条西十二丁目","koaza":"","lat":43.198866,"lng":141.755156,"version":"13.0b/18.0a"},{"town":"三条西十三丁目","koaza":"","lat":43.19878,"lng":141.754018,"version":"13.0b/18.0a"},{"town":"三条西十四丁目","koaza":"","lat":43.198268,"lng":141.753015,"version":"13.0b/18.0a"},{"town":"三条西十五丁目","koaza":"","lat":43.19778,"lng":141.752086,"version":"13.0b/18.0a"},{"town":"三条西十六丁目","koaza":"","lat":43.197323,"lng":141.751143,"version":"13.0b/18.0a"},{"town":"三条西十七丁目","koaza":"","lat":43.197235,"lng":141.75002,"version":"13.0b/18.0a"},{"town":"三条西十八丁目","koaza":"","lat":43.196393,"lng":141.74936,"version":"13.0b/18.0a"},{"town":"三条西一丁目","koaza":"","lat":43.204006,"lng":141.765771,"version":"13.0b/18.0a"},{"town":"三条西二丁目","koaza":"","lat":43.203539,"lng":141.764604,"version":"13.0b/18.0a"},{"town":"三条西三丁目","koaza":"","lat":43.203145,"lng":141.763741,"version":"13.0b/18.0a"},{"town":"三条西四丁目","koaza":"","lat":43.202688,"lng":141.762658,"version":"13.0b/18.0a"},{"town":"三条西五丁目","koaza":"","lat":43.20218,"lng":141.761771,"version":"13.0b/18.0a"},{"town":"三条西六丁目","koaza":"","lat":43.201742,"lng":141.76086,"version":"13.0b/18.0a"},{"town":"三条西七丁目","koaza":"","lat":43.201338,"lng":141.759891,"version":"13.0b/18.0a"},{"town":"三条西八丁目","koaza":"","lat":43.200845,"lng":141.759138,"version":"13.0b/18.0a"},{"town":"三条西九丁目","koaza":"","lat":43.200326,"lng":141.758151,"version":"13.0b/18.0a"},{"town":"三条東十丁目","koaza":"","lat":43.209203,"lng":141.774641,"version":"13.0b/18.0a"},{"town":"三条東十一丁目","koaza":"","lat":43.209784,"lng":141.776353,"version":"13.0b/18.0a"},{"town":"三条東十二丁目","koaza":"","lat":43.21062,"lng":141.777768,"version":"13.0b/18.0a"},{"town":"三条東十三丁目","koaza":"","lat":43.211628,"lng":141.779587,"version":"13.0b/18.0a"},{"town":"三条東十四丁目","koaza":"","lat":43.212581,"lng":141.781453,"version":"13.0b/18.0a"},{"town":"三条東十六丁目","koaza":"","lat":43.217171,"lng":141.786804,"version":"13.0b/18.0a"},{"town":"三条東十七丁目","koaza":"","lat":43.218102,"lng":141.788897,"version":"13.0b/18.0a"},{"town":"三条東十八丁目","koaza":"","lat":43.219272,"lng":141.790842,"version":"13.0b/18.0a"},{"town":"三条東一丁目","koaza":"","lat":43.204554,"lng":141.766592,"version":"13.0b/18.0a"},{"town":"三条東二丁目","koaza":"","lat":43.205049,"lng":141.767543,"version":"13.0b/18.0a"},{"town":"三条東三丁目","koaza":"","lat":43.205443,"lng":141.76838,"version":"13.0b/18.0a"},{"town":"三条東四丁目","koaza":"","lat":43.205989,"lng":141.769526,"version":"13.0b/18.0a"},{"town":"三条東七丁目","koaza":"","lat":43.207716,"lng":141.771964,"version":"13.0b/18.0a"},{"town":"三条東八丁目","koaza":"","lat":43.208165,"lng":141.77233,"version":"13.0b/18.0a"},{"town":"三条東九丁目","koaza":"","lat":43.208267,"lng":141.773557,"version":"13.0b/18.0a"},{"town":"四条西十丁目","koaza":"","lat":43.199103,"lng":141.757886,"version":"13.0b/18.0a"},{"town":"四条西十一丁目","koaza":"","lat":43.198597,"lng":141.756839,"version":"13.0b/18.0a"},{"town":"四条西十二丁目","koaza":"","lat":43.198066,"lng":141.755768,"version":"13.0b/18.0a"},{"town":"四条西十三丁目","koaza":"","lat":43.198031,"lng":141.754582,"version":"13.0b/18.0a"},{"town":"四条西十四丁目","koaza":"","lat":43.197551,"lng":141.753682,"version":"13.0b/18.0a"},{"town":"四条西十五丁目","koaza":"","lat":43.197124,"lng":141.752614,"version":"13.0b/18.0a"},{"town":"四条西十六丁目","koaza":"","lat":43.196597,"lng":141.751794,"version":"13.0b/18.0a"},{"town":"四条西十七丁目","koaza":"","lat":43.196148,"lng":141.750893,"version":"13.0b/18.0a"},{"town":"四条西十八丁目","koaza":"","lat":43.195444,"lng":141.749694,"version":"13.0b/18.0a"},{"town":"四条西一丁目","koaza":"","lat":43.203299,"lng":141.766293,"version":"13.0b/18.0a"},{"town":"四条西二丁目","koaza":"","lat":43.202812,"lng":141.765313,"version":"13.0b/18.0a"},{"town":"四条西三丁目","koaza":"","lat":43.202347,"lng":141.764398,"version":"13.0b/18.0a"},{"town":"四条西四丁目","koaza":"","lat":43.20188,"lng":141.76346,"version":"13.0b/18.0a"},{"town":"四条西五丁目","koaza":"","lat":43.20141,"lng":141.762497,"version":"13.0b/18.0a"},{"town":"四条西六丁目","koaza":"","lat":43.200951,"lng":141.761567,"version":"13.0b/18.0a"},{"town":"四条西七丁目","koaza":"","lat":43.200517,"lng":141.76065,"version":"13.0b/18.0a"},{"town":"四条西八丁目","koaza":"","lat":43.200057,"lng":141.759736,"version":"13.0b/18.0a"},{"town":"四条西九丁目","koaza":"","lat":43.199584,"lng":141.758843,"version":"13.0b/18.0a"},{"town":"四条東十丁目","koaza":"","lat":43.208556,"lng":141.775243,"version":"13.0b/18.0a"},{"town":"四条東十一丁目","koaza":"","lat":43.209084,"lng":141.776964,"version":"13.0b/18.0a"},{"town":"四条東十二丁目","koaza":"","lat":43.210341,"lng":141.779114,"version":"13.0b/18.0a"},{"town":"四条東十三丁目","koaza":"","lat":43.210997,"lng":141.780421,"version":"13.0b/18.0a"},{"town":"四条東十四丁目","koaza":"","lat":43.211874,"lng":141.782122,"version":"13.0b/18.0a"},{"town":"四条東十五丁目","koaza":"","lat":43.212997,"lng":141.783269,"version":"13.0b/18.0a"},{"town":"四条東十六丁目","koaza":"","lat":43.214502,"lng":141.786309,"version":"13.0b/18.0a"},{"town":"四条東十七丁目","koaza":"","lat":43.216363,"lng":141.79002,"version":"13.0b/18.0a"},{"town":"四条東十八丁目","koaza":"","lat":43.217699,"lng":141.79288,"version":"13.0b/18.0a"},{"town":"四条東一丁目","koaza":"","lat":43.203847,"lng":141.767122,"version":"13.0b/18.0a"},{"town":"四条東二丁目","koaza":"","lat":43.204319,"lng":141.76824,"version":"13.0b/18.0a"},{"town":"四条東三丁目","koaza":"","lat":43.204758,"lng":141.769167,"version":"13.0b/18.0a"},{"town":"四条東四丁目","koaza":"","lat":43.205432,"lng":141.769915,"version":"13.0b/18.0a"},{"town":"四条東五丁目","koaza":"","lat":43.20609,"lng":141.770692,"version":"13.0b/18.0a"},{"town":"四条東六丁目","koaza":"","lat":43.206563,"lng":141.771491,"version":"13.0b/18.0a"},{"town":"四条東七丁目","koaza":"","lat":43.206997,"lng":141.772538,"version":"13.0b/18.0a"},{"town":"四条東八丁目","koaza":"","lat":43.20754,"lng":141.772904,"version":"13.0b/18.0a"},{"town":"四条東九丁目","koaza":"","lat":43.207561,"lng":141.774281,"version":"13.0b/18.0a"},{"town":"五条西十丁目","koaza":"","lat":43.198331,"lng":141.758604,"version":"13.0b/18.0a"},{"town":"五条西十一丁目","koaza":"","lat":43.197739,"lng":141.757466,"version":"13.0b/18.0a"},{"town":"五条西十二丁目","koaza":"","lat":43.197306,"lng":141.756599,"version":"13.0b/18.0a"},{"town":"五条西十三丁目","koaza":"","lat":43.197247,"lng":141.755322,"version":"13.0b/18.0a"},{"town":"五条西十四丁目","koaza":"","lat":43.196767,"lng":141.754412,"version":"13.0b/18.0a"},{"town":"五条西十五丁目","koaza":"","lat":43.196284,"lng":141.753463,"version":"13.0b/18.0a"},{"town":"五条西十六丁目","koaza":"","lat":43.19581,"lng":141.752524,"version":"13.0b/18.0a"},{"town":"五条西十七丁目","koaza":"","lat":43.195351,"lng":141.751618,"version":"13.0b/18.0a"},{"town":"五条西十八丁目","koaza":"","lat":43.194875,"lng":141.750665,"version":"13.0b/18.0a"},{"town":"五条西十九丁目","koaza":"","lat":43.194253,"lng":141.749675,"version":"13.0b/18.0a"},{"town":"五条西一丁目","koaza":"","lat":43.202599,"lng":141.766961,"version":"13.0b/18.0a"},{"town":"五条西二丁目","koaza":"","lat":43.202118,"lng":141.765971,"version":"13.0b/18.0a"},{"town":"五条西三丁目","koaza":"","lat":43.201604,"lng":141.76496,"version":"13.0b/18.0a"},{"town":"五条西四丁目","koaza":"","lat":43.201146,"lng":141.764131,"version":"13.0b/18.0a"},{"town":"五条西五丁目","koaza":"","lat":43.200618,"lng":141.763206,"version":"13.0b/18.0a"},{"town":"五条西六丁目","koaza":"","lat":43.20016,"lng":141.762272,"version":"13.0b/18.0a"},{"town":"五条西七丁目","koaza":"","lat":43.199718,"lng":141.761231,"version":"13.0b/18.0a"},{"town":"五条西八丁目","koaza":"","lat":43.199318,"lng":141.760556,"version":"13.0b/18.0a"},{"town":"五条西九丁目","koaza":"","lat":43.19881,"lng":141.75955,"version":"13.0b/18.0a"},{"town":"五条東十丁目","koaza":"","lat":43.207663,"lng":141.776013,"version":"13.0b/18.0a"},{"town":"五条東十一丁目","koaza":"","lat":43.208147,"lng":141.777831,"version":"13.0b/18.0a"},{"town":"五条東十二丁目","koaza":"","lat":43.209118,"lng":141.779915,"version":"13.0b/18.0a"},{"town":"五条東十三丁目","koaza":"","lat":43.209863,"lng":141.781441,"version":"13.0b/18.0a"},{"town":"五条東十四丁目","koaza":"","lat":43.210838,"lng":141.782987,"version":"13.0b/18.0a"},{"town":"五条東十五丁目","koaza":"","lat":43.211917,"lng":141.785464,"version":"13.0b/18.0a"},{"town":"五条東十六丁目","koaza":"","lat":43.213578,"lng":141.788327,"version":"13.0b/18.0a"},{"town":"五条東十七丁目","koaza":"","lat":43.214315,"lng":141.791562,"version":"13.0b/18.0a"},{"town":"五条東十八丁目","koaza":"","lat":43.215392,"lng":141.794622,"version":"13.0b/18.0a"},{"town":"五条東一丁目","koaza":"","lat":43.203097,"lng":141.767991,"version":"13.0b/18.0a"},{"town":"五条東二丁目","koaza":"","lat":43.203399,"lng":141.769127,"version":"13.0b/18.0a"},{"town":"五条東三丁目","koaza":"","lat":43.20391,"lng":141.769985,"version":"13.0b/18.0a"},{"town":"五条東四丁目","koaza":"","lat":43.204792,"lng":141.770379,"version":"13.0b/18.0a"},{"town":"五条東五丁目","koaza":"","lat":43.20532,"lng":141.771404,"version":"13.0b/18.0a"},{"town":"五条東六丁目","koaza":"","lat":43.205904,"lng":141.772401,"version":"13.0b/18.0a"},{"town":"五条東七丁目","koaza":"","lat":43.206389,"lng":141.773402,"version":"13.0b/18.0a"},{"town":"五条東八丁目","koaza":"","lat":43.206358,"lng":141.774844,"version":"13.0b/18.0a"},{"town":"六条西十丁目","koaza":"","lat":43.197454,"lng":141.759438,"version":"13.0b/18.0a"},{"town":"六条西十一丁目","koaza":"","lat":43.196937,"lng":141.75842,"version":"13.0b/18.0a"},{"town":"六条西十二丁目","koaza":"","lat":43.196433,"lng":141.757441,"version":"13.0b/18.0a"},{"town":"六条西十三丁目","koaza":"","lat":43.196259,"lng":141.75638,"version":"13.0b/18.0a"},{"town":"六条西十四丁目","koaza":"","lat":43.195705,"lng":141.755445,"version":"13.0b/18.0a"},{"town":"六条西十五丁目","koaza":"","lat":43.195214,"lng":141.754505,"version":"13.0b/18.0a"},{"town":"六条西十六丁目","koaza":"","lat":43.194745,"lng":141.753507,"version":"13.0b/18.0a"},{"town":"六条西十七丁目","koaza":"","lat":43.194636,"lng":141.752302,"version":"13.0b/18.0a"},{"town":"六条西十八丁目","koaza":"","lat":43.194156,"lng":141.751361,"version":"13.0b/18.0a"},{"town":"六条西十九丁目","koaza":"","lat":43.193681,"lng":141.750455,"version":"13.0b/18.0a"},{"town":"六条西一丁目","koaza":"","lat":43.201822,"lng":141.767698,"version":"13.0b/18.0a"},{"town":"六条西二十丁目","koaza":"","lat":43.19299,"lng":141.749374,"version":"13.0b/18.0a"},{"town":"六条西二丁目","koaza":"","lat":43.201226,"lng":141.766805,"version":"13.0b/18.0a"},{"town":"六条西三丁目","koaza":"","lat":43.200775,"lng":141.765871,"version":"13.0b/18.0a"},{"town":"六条西四丁目","koaza":"","lat":43.200264,"lng":141.764967,"version":"13.0b/18.0a"},{"town":"六条西五丁目","koaza":"","lat":43.199728,"lng":141.764053,"version":"13.0b/18.0a"},{"town":"六条西六丁目","koaza":"","lat":43.199253,"lng":141.763125,"version":"13.0b/18.0a"},{"town":"六条西七丁目","koaza":"","lat":43.199033,"lng":141.762026,"version":"13.0b/18.0a"},{"town":"六条西八丁目","koaza":"","lat":43.198379,"lng":141.7613,"version":"13.0b/18.0a"},{"town":"六条西九丁目","koaza":"","lat":43.19792,"lng":141.760392,"version":"13.0b/18.0a"},{"town":"六条東十丁目","koaza":"","lat":43.206577,"lng":141.776975,"version":"13.0b/18.0a"},{"town":"六条東十一丁目","koaza":"","lat":43.206623,"lng":141.779055,"version":"13.0b/18.0a"},{"town":"六条東十二丁目","koaza":"","lat":43.207596,"lng":141.780794,"version":"13.0b/18.0a"},{"town":"六条東十三丁目","koaza":"","lat":43.208397,"lng":141.782931,"version":"13.0b/18.0a"},{"town":"六条東十四丁目","koaza":"","lat":43.209377,"lng":141.784117,"version":"13.0b/18.0a"},{"town":"六条東一丁目","koaza":"","lat":43.202384,"lng":141.768671,"version":"13.0b/18.0a"},{"town":"六条東二丁目","koaza":"","lat":43.202748,"lng":141.769754,"version":"13.0b/18.0a"},{"town":"六条東三丁目","koaza":"","lat":43.202947,"lng":141.770768,"version":"13.0b/18.0a"},{"town":"六条東四丁目","koaza":"","lat":43.203757,"lng":141.771791,"version":"13.0b/18.0a"},{"town":"六条東五丁目","koaza":"","lat":43.204639,"lng":141.772034,"version":"13.0b/18.0a"},{"town":"六条東六丁目","koaza":"","lat":43.204608,"lng":141.773351,"version":"13.0b/18.0a"},{"town":"六条東七丁目","koaza":"","lat":43.205387,"lng":141.774635,"version":"13.0b/18.0a"},{"town":"六条東八丁目","koaza":"","lat":43.205173,"lng":141.775241,"version":"13.0b/18.0a"},{"town":"六条東九丁目","koaza":"","lat":43.205645,"lng":141.776141,"version":"13.0b/18.0a"},{"town":"七条西十丁目","koaza":"","lat":43.196204,"lng":141.760625,"version":"13.0b/18.0a"},{"town":"七条西十一丁目","koaza":"","lat":43.195707,"lng":141.759633,"version":"13.0b/18.0a"},{"town":"七条西十二丁目","koaza":"","lat":43.195205,"lng":141.758623,"version":"13.0b/18.0a"},{"town":"七条西十三丁目","koaza":"","lat":43.194725,"lng":141.757668,"version":"13.0b/18.0a"},{"town":"七条西十四丁目","koaza":"","lat":43.194293,"lng":141.756816,"version":"13.0b/18.0a"},{"town":"七条西十五丁目","koaza":"","lat":43.193804,"lng":141.755849,"version":"13.0b/18.0a"},{"town":"七条西十六丁目","koaza":"","lat":43.193267,"lng":141.7548,"version":"13.0b/18.0a"},{"town":"七条西十七丁目","koaza":"","lat":43.193647,"lng":141.753383,"version":"13.0b/18.0a"},{"town":"七条西十八丁目","koaza":"","lat":43.193104,"lng":141.752356,"version":"13.0b/18.0a"},{"town":"七条西十九丁目","koaza":"","lat":43.192622,"lng":141.751463,"version":"13.0b/18.0a"},{"town":"七条西一丁目","koaza":"","lat":43.200576,"lng":141.768676,"version":"13.0b/18.0a"},{"town":"七条西二十丁目","koaza":"","lat":43.192124,"lng":141.750513,"version":"13.0b/18.0a"},{"town":"七条西二十一丁目","koaza":"","lat":43.191645,"lng":141.749298,"version":"13.0b/18.0a"},{"town":"七条西二十二丁目","koaza":"","lat":43.190732,"lng":141.74886,"version":"13.0b/18.0a"},{"town":"七条西二丁目","koaza":"","lat":43.199919,"lng":141.768146,"version":"13.0b/18.0a"},{"town":"七条西三丁目","koaza":"","lat":43.199503,"lng":141.767089,"version":"13.0b/18.0a"},{"town":"七条西四丁目","koaza":"","lat":43.199003,"lng":141.766175,"version":"13.0b/18.0a"},{"town":"七条西五丁目","koaza":"","lat":43.198505,"lng":141.765209,"version":"13.0b/18.0a"},{"town":"七条西六丁目","koaza":"","lat":43.198031,"lng":141.764266,"version":"13.0b/18.0a"},{"town":"七条西七丁目","koaza":"","lat":43.197617,"lng":141.763372,"version":"13.0b/18.0a"},{"town":"七条西八丁目","koaza":"","lat":43.197181,"lng":141.762566,"version":"13.0b/18.0a"},{"town":"七条西九丁目","koaza":"","lat":43.196674,"lng":141.761566,"version":"13.0b/18.0a"},{"town":"七条東十丁目","koaza":"","lat":43.205507,"lng":141.777852,"version":"13.0b/18.0a"},{"town":"七条東十一丁目","koaza":"","lat":43.205244,"lng":141.780139,"version":"13.0b/18.0a"},{"town":"七条東十二丁目","koaza":"","lat":43.205854,"lng":141.782185,"version":"13.0b/18.0a"},{"town":"七条東十三丁目","koaza":"","lat":43.207055,"lng":141.783776,"version":"13.0b/18.0a"},{"town":"七条東十四丁目","koaza":"","lat":43.207626,"lng":141.784726,"version":"13.0b/18.0a"},{"town":"七条東一丁目","koaza":"","lat":43.201075,"lng":141.769878,"version":"13.0b/18.0a"},{"town":"七条東二丁目","koaza":"","lat":43.20167,"lng":141.770762,"version":"13.0b/18.0a"},{"town":"七条東三丁目","koaza":"","lat":43.20186,"lng":141.771656,"version":"13.0b/18.0a"},{"town":"七条東四丁目","koaza":"","lat":43.202341,"lng":141.772792,"version":"13.0b/18.0a"},{"town":"七条東五丁目","koaza":"","lat":43.202788,"lng":141.773114,"version":"13.0b/18.0a"},{"town":"七条東六丁目","koaza":"","lat":43.203411,"lng":141.774629,"version":"13.0b/18.0a"},{"town":"七条東七丁目","koaza":"","lat":43.203383,"lng":141.775737,"version":"13.0b/18.0a"},{"town":"七条東八丁目","koaza":"","lat":43.203828,"lng":141.776801,"version":"13.0b/18.0a"},{"town":"七条東九丁目","koaza":"","lat":43.204598,"lng":141.777357,"version":"13.0b/18.0a"},{"town":"八条西十丁目","koaza":"","lat":43.195124,"lng":141.76163,"version":"13.0b/18.0a"},{"town":"八条西十一丁目","koaza":"","lat":43.194625,"lng":141.760649,"version":"13.0b/18.0a"},{"town":"八条西十二丁目","koaza":"","lat":43.194128,"lng":141.759677,"version":"13.0b/18.0a"},{"town":"八条西十三丁目","koaza":"","lat":43.193648,"lng":141.758732,"version":"13.0b/18.0a"},{"town":"八条西十四丁目","koaza":"","lat":43.193203,"lng":141.757862,"version":"13.0b/18.0a"},{"town":"八条西十五丁目","koaza":"","lat":43.192723,"lng":141.756926,"version":"13.0b/18.0a"},{"town":"八条西十六丁目","koaza":"","lat":43.19223,"lng":141.755958,"version":"13.0b/18.0a"},{"town":"八条西十七丁目","koaza":"","lat":43.192155,"lng":141.754659,"version":"13.0b/18.0a"},{"town":"八条西十八丁目","koaza":"","lat":43.191667,"lng":141.753717,"version":"13.0b/18.0a"},{"town":"八条西十九丁目","koaza":"","lat":43.191193,"lng":141.752802,"version":"13.0b/18.0a"},{"town":"八条西一丁目","koaza":"","lat":43.199695,"lng":141.770031,"version":"13.0b/18.0a"},{"town":"八条西二十丁目","koaza":"","lat":43.190705,"lng":141.751845,"version":"13.0b/18.0a"},{"town":"八条西二十一丁目","koaza":"","lat":43.190167,"lng":141.75079,"version":"13.0b/18.0a"},{"town":"八条西二十二丁目","koaza":"","lat":43.189686,"lng":141.749865,"version":"13.0b/18.0a"},{"town":"八条西二十三丁目","koaza":"","lat":43.18909,"lng":141.748731,"version":"13.0b/18.0a"},{"town":"八条西二丁目","koaza":"","lat":43.19894,"lng":141.769088,"version":"13.0b/18.0a"},{"town":"八条西三丁目","koaza":"","lat":43.198447,"lng":141.768111,"version":"13.0b/18.0a"},{"town":"八条西四丁目","koaza":"","lat":43.197959,"lng":141.767174,"version":"13.0b/18.0a"},{"town":"八条西五丁目","koaza":"","lat":43.19734,"lng":141.766183,"version":"13.0b/18.0a"},{"town":"八条西六丁目","koaza":"","lat":43.196979,"lng":141.765263,"version":"13.0b/18.0a"},{"town":"八条西七丁目","koaza":"","lat":43.196618,"lng":141.764391,"version":"13.0b/18.0a"},{"town":"八条西八丁目","koaza":"","lat":43.196054,"lng":141.763456,"version":"13.0b/18.0a"},{"town":"八条西九丁目","koaza":"","lat":43.195605,"lng":141.762572,"version":"13.0b/18.0a"},{"town":"八条東十丁目","koaza":"","lat":43.202818,"lng":141.780099,"version":"13.0b/18.0a"},{"town":"八条東十一丁目","koaza":"","lat":43.2042,"lng":141.781701,"version":"13.0b/18.0a"},{"town":"八条東十二丁目","koaza":"","lat":43.20556,"lng":141.78377,"version":"13.0b/18.0a"},{"town":"八条東一丁目","koaza":"","lat":43.19987,"lng":141.771022,"version":"13.0b/18.0a"},{"town":"八条東二丁目","koaza":"","lat":43.200362,"lng":141.771988,"version":"13.0b/18.0a"},{"town":"八条東三丁目","koaza":"","lat":43.200956,"lng":141.772839,"version":"13.0b/18.0a"},{"town":"八条東四丁目","koaza":"","lat":43.201161,"lng":141.773869,"version":"13.0b/18.0a"},{"town":"八条東五丁目","koaza":"","lat":43.201703,"lng":141.774678,"version":"13.0b/18.0a"},{"town":"八条東六丁目","koaza":"","lat":43.202326,"lng":141.775557,"version":"13.0b/18.0a"},{"town":"九条西十丁目","koaza":"","lat":43.194074,"lng":141.762611,"version":"13.0b/18.0a"},{"town":"九条西十一丁目","koaza":"","lat":43.193569,"lng":141.761636,"version":"13.0b/18.0a"},{"town":"九条西十二丁目","koaza":"","lat":43.193078,"lng":141.760703,"version":"13.0b/18.0a"},{"town":"九条西十三丁目","koaza":"","lat":43.192597,"lng":141.759764,"version":"13.0b/18.0a"},{"town":"九条西十四丁目","koaza":"","lat":43.192144,"lng":141.758868,"version":"13.0b/18.0a"},{"town":"九条西十五丁目","koaza":"","lat":43.191643,"lng":141.757803,"version":"13.0b/18.0a"},{"town":"九条西十六丁目","koaza":"","lat":43.19118,"lng":141.756966,"version":"13.0b/18.0a"},{"town":"九条西十七丁目","koaza":"","lat":43.190508,"lng":141.756232,"version":"13.0b/18.0a"},{"town":"九条西十八丁目","koaza":"","lat":43.190272,"lng":141.755044,"version":"13.0b/18.0a"},{"town":"九条西十九丁目","koaza":"","lat":43.189864,"lng":141.754065,"version":"13.0b/18.0a"},{"town":"九条西一丁目","koaza":"","lat":43.198252,"lng":141.771068,"version":"13.0b/18.0a"},{"town":"九条西二十丁目","koaza":"","lat":43.18935,"lng":141.75313,"version":"13.0b/18.0a"},{"town":"九条西二十一丁目","koaza":"","lat":43.188979,"lng":141.752042,"version":"13.0b/18.0a"},{"town":"九条西二十二丁目","koaza":"","lat":43.18867,"lng":141.750825,"version":"13.0b/18.0a"},{"town":"九条西二十三丁目","koaza":"","lat":43.188213,"lng":141.74955,"version":"13.0b/18.0a"},{"town":"九条西二丁目","koaza":"","lat":43.197912,"lng":141.770072,"version":"13.0b/18.0a"},{"town":"九条西三丁目","koaza":"","lat":43.197396,"lng":141.769115,"version":"13.0b/18.0a"},{"town":"九条西四丁目","koaza":"","lat":43.19692,"lng":141.768161,"version":"13.0b/18.0a"},{"town":"九条西五丁目","koaza":"","lat":43.196438,"lng":141.76717,"version":"13.0b/18.0a"},{"town":"九条西六丁目","koaza":"","lat":43.19595,"lng":141.766241,"version":"13.0b/18.0a"},{"town":"九条西七丁目","koaza":"","lat":43.195486,"lng":141.765337,"version":"13.0b/18.0a"},{"town":"九条西八丁目","koaza":"","lat":43.195022,"lng":141.764438,"version":"13.0b/18.0a"},{"town":"九条西九丁目","koaza":"","lat":43.194566,"lng":141.763558,"version":"13.0b/18.0a"},{"town":"九条東一丁目","koaza":"","lat":43.198891,"lng":141.771969,"version":"13.0b/18.0a"},{"town":"九条東二丁目","koaza":"","lat":43.199833,"lng":141.773851,"version":"13.0b/18.0a"},{"town":"九条東五丁目","koaza":"","lat":43.200769,"lng":141.775716,"version":"13.0b/18.0a"},{"town":"九条東六丁目","koaza":"","lat":43.201273,"lng":141.77671,"version":"13.0b/18.0a"},{"town":"九条東七丁目","koaza":"","lat":43.201691,"lng":141.777589,"version":"13.0b/18.0a"},{"town":"九条東八丁目","koaza":"","lat":43.202311,"lng":141.778198,"version":"13.0b/18.0a"},{"town":"九条東九丁目","koaza":"","lat":43.203731,"lng":141.779093,"version":"13.0b/18.0a"},{"town":"朝日町","koaza":"","lat":43.170359,"lng":141.87684,"version":"13.0b/18.0a"},{"town":"有明町中央","koaza":"","lat":43.204594,"lng":141.756864,"version":"13.0b/18.0a"},{"town":"有明町南","koaza":"","lat":43.203852,"lng":141.759587,"version":"13.0b/18.0a"},{"town":"大願町","koaza":"","lat":43.264713,"lng":141.767172,"version":"13.0b/18.0a"},{"town":"岡山町","koaza":"","lat":43.24378,"lng":141.797405,"version":"13.0b/18.0a"},{"town":"御茶の水町","koaza":"","lat":43.179252,"lng":141.685881,"version":"13.0b/18.0a"},{"town":"かえで町一丁目","koaza":"","lat":43.200874,"lng":141.789631,"version":"13.0b/18.0a"},{"town":"かえで町二丁目","koaza":"","lat":43.20019,"lng":141.791632,"version":"13.0b/18.0a"},{"town":"かえで町三丁目","koaza":"","lat":43.201524,"lng":141.791765,"version":"13.0b/18.0a"},{"town":"かえで町四丁目","koaza":"","lat":43.203527,"lng":141.791568,"version":"13.0b/18.0a"},{"town":"かえで町五丁目","koaza":"","lat":43.203152,"lng":141.793665,"version":"13.0b/18.0a"},{"town":"かえで町六丁目","koaza":"","lat":43.201744,"lng":141.79399,"version":"13.0b/18.0a"},{"town":"かえで町七丁目","koaza":"","lat":43.200362,"lng":141.794132,"version":"13.0b/18.0a"},{"town":"かえで町八丁目","koaza":"","lat":43.201145,"lng":141.796421,"version":"13.0b/18.0a"},{"town":"春日町一丁目","koaza":"","lat":43.188893,"lng":141.771564,"version":"13.0b/18.0a"},{"town":"春日町二丁目","koaza":"","lat":43.190621,"lng":141.775489,"version":"13.0b/18.0a"},{"town":"春日町三丁目","koaza":"","lat":43.189467,"lng":141.777192,"version":"13.0b/18.0a"},{"town":"春日町四丁目","koaza":"","lat":43.189911,"lng":141.78079,"version":"13.0b/18.0a"},{"town":"金子町","koaza":"","lat":43.165518,"lng":141.726039,"version":"13.0b/18.0a"},{"town":"上志文町","koaza":"","lat":43.168853,"lng":141.836506,"version":"13.0b/18.0a"},{"town":"上幌向北一条一丁目","koaza":"","lat":43.187399,"lng":141.721933,"version":"13.0b/18.0a"},{"town":"上幌向北一条二丁目","koaza":"","lat":43.185822,"lng":141.718807,"version":"13.0b/18.0a"},{"town":"上幌向北一条三丁目","koaza":"","lat":43.18423,"lng":141.715739,"version":"13.0b/18.0a"},{"town":"上幌向北一条四丁目","koaza":"","lat":43.182582,"lng":141.71252,"version":"13.0b/18.0a"},{"town":"上幌向北一条五丁目","koaza":"","lat":43.181156,"lng":141.709599,"version":"13.0b/18.0a"},{"town":"上幌向北一条六丁目","koaza":"","lat":43.179861,"lng":141.707096,"version":"13.0b/18.0a"},{"town":"上幌向町","koaza":"","lat":43.195767,"lng":141.703126,"version":"13.0b/18.0a"},{"town":"上幌向南一条一丁目","koaza":"","lat":43.186343,"lng":141.726375,"version":"13.0b/18.0a"},{"town":"上幌向南一条二丁目","koaza":"","lat":43.183243,"lng":141.720987,"version":"13.0b/18.0a"},{"town":"上幌向南一条三丁目","koaza":"","lat":43.181509,"lng":141.717897,"version":"13.0b/18.0a"},{"town":"上幌向南一条四丁目","koaza":"","lat":43.179469,"lng":141.715166,"version":"13.0b/18.0a"},{"town":"上幌向南一条五丁目","koaza":"","lat":43.178699,"lng":141.712442,"version":"13.0b/18.0a"},{"town":"上幌向南一条六丁目","koaza":"","lat":43.177387,"lng":141.7098,"version":"13.0b/18.0a"},{"town":"上幌向南二条五丁目","koaza":"","lat":43.177054,"lng":141.713889,"version":"13.0b/18.0a"},{"town":"上幌向南二条六丁目","koaza":"","lat":43.175304,"lng":141.712227,"version":"13.0b/18.0a"},{"town":"上幌向南二条七丁目","koaza":"","lat":43.174097,"lng":141.7094,"version":"13.0b/18.0a"},{"town":"上幌向南二条八丁目","koaza":"","lat":43.173142,"lng":141.707526,"version":"13.0b/18.0a"},{"town":"上幌向南二条九丁目","koaza":"","lat":43.172321,"lng":141.705816,"version":"13.0b/18.0a"},{"town":"上幌向南三条六丁目","koaza":"","lat":43.173208,"lng":141.713332,"version":"13.0b/18.0a"},{"town":"上幌向南三条七丁目","koaza":"","lat":43.171412,"lng":141.711557,"version":"13.0b/18.0a"},{"town":"北一条西十一丁目","koaza":"","lat":43.20204,"lng":141.752884,"version":"13.0b/18.0a"},{"town":"北一条西十三丁目","koaza":"","lat":43.201274,"lng":141.751076,"version":"13.0b/18.0a"},{"town":"北一条西十四丁目","koaza":"","lat":43.200709,"lng":141.750149,"version":"13.0b/18.0a"},{"town":"北一条西十五丁目","koaza":"","lat":43.200878,"lng":141.748933,"version":"13.0b/18.0a"},{"town":"北一条西十六丁目","koaza":"","lat":43.199953,"lng":141.748703,"version":"13.0b/18.0a"},{"town":"北一条西十七丁目","koaza":"","lat":43.199413,"lng":141.747763,"version":"13.0b/18.0a"},{"town":"北一条西十八丁目","koaza":"","lat":43.199012,"lng":141.746679,"version":"13.0b/18.0a"},{"town":"北一条西十九丁目","koaza":"","lat":43.198559,"lng":141.745804,"version":"13.0b/18.0a"},{"town":"北一条西二十丁目","koaza":"","lat":43.198067,"lng":141.744858,"version":"13.0b/18.0a"},{"town":"北一条西二丁目","koaza":"","lat":43.206682,"lng":141.760307,"version":"13.0b/18.0a"},{"town":"北一条西三丁目","koaza":"","lat":43.206927,"lng":141.761265,"version":"13.0b/18.0a"},{"town":"北二条西十丁目","koaza":"","lat":43.204677,"lng":141.752559,"version":"13.0b/18.0a"},{"town":"北二条西十一丁目","koaza":"","lat":43.203821,"lng":141.751864,"version":"13.0b/18.0a"},{"town":"北二条西十二丁目","koaza":"","lat":43.203294,"lng":141.751048,"version":"13.0b/18.0a"},{"town":"北二条西十三丁目","koaza":"","lat":43.202838,"lng":141.749774,"version":"13.0b/18.0a"},{"town":"北二条西十四丁目","koaza":"","lat":43.202254,"lng":141.748802,"version":"13.0b/18.0a"},{"town":"北二条西十五丁目","koaza":"","lat":43.201849,"lng":141.747884,"version":"13.0b/18.0a"},{"town":"北二条西十六丁目","koaza":"","lat":43.20138,"lng":141.746978,"version":"13.0b/18.0a"},{"town":"北二条西十七丁目","koaza":"","lat":43.200911,"lng":141.746139,"version":"13.0b/18.0a"},{"town":"北二条西十八丁目","koaza":"","lat":43.200509,"lng":141.745294,"version":"13.0b/18.0a"},{"town":"北二条西十九丁目","koaza":"","lat":43.200065,"lng":141.744443,"version":"13.0b/18.0a"},{"town":"北二条西二十丁目","koaza":"","lat":43.199515,"lng":141.743547,"version":"13.0b/18.0a"},{"town":"北二条西二丁目","koaza":"","lat":43.208372,"lng":141.761267,"version":"13.0b/18.0a"},{"town":"北二条西三丁目","koaza":"","lat":43.20771,"lng":141.759205,"version":"13.0b/18.0a"},{"town":"北二条西四丁目","koaza":"","lat":43.207524,"lng":141.758098,"version":"13.0b/18.0a"},{"town":"北二条西五丁目","koaza":"","lat":43.207044,"lng":141.757152,"version":"13.0b/18.0a"},{"town":"北二条西六丁目","koaza":"","lat":43.206678,"lng":141.756197,"version":"13.0b/18.0a"},{"town":"北二条西七丁目","koaza":"","lat":43.20614,"lng":141.75529,"version":"13.0b/18.0a"},{"town":"北二条西八丁目","koaza":"","lat":43.205639,"lng":141.754419,"version":"13.0b/18.0a"},{"town":"北二条西九丁目","koaza":"","lat":43.205173,"lng":141.753532,"version":"13.0b/18.0a"},{"town":"北三条西十丁目","koaza":"","lat":43.205825,"lng":141.751461,"version":"13.0b/18.0a"},{"town":"北三条西十一丁目","koaza":"","lat":43.205435,"lng":141.750241,"version":"13.0b/18.0a"},{"town":"北三条西十二丁目","koaza":"","lat":43.204894,"lng":141.749466,"version":"13.0b/18.0a"},{"town":"北三条西十三丁目","koaza":"","lat":43.204433,"lng":141.748302,"version":"13.0b/18.0a"},{"town":"北三条西十四丁目","koaza":"","lat":43.203714,"lng":141.747404,"version":"13.0b/18.0a"},{"town":"北三条西十五丁目","koaza":"","lat":43.20329,"lng":141.746517,"version":"13.0b/18.0a"},{"town":"北三条西十六丁目","koaza":"","lat":43.202789,"lng":141.745629,"version":"13.0b/18.0a"},{"town":"北三条西十七丁目","koaza":"","lat":43.202312,"lng":141.744723,"version":"13.0b/18.0a"},{"town":"北三条西十八丁目","koaza":"","lat":43.20183,"lng":141.743823,"version":"13.0b/18.0a"},{"town":"北三条西十九丁目","koaza":"","lat":43.201431,"lng":141.742803,"version":"13.0b/18.0a"},{"town":"北三条西二十丁目","koaza":"","lat":43.200948,"lng":141.742018,"version":"13.0b/18.0a"},{"town":"北三条西三丁目","koaza":"","lat":43.209105,"lng":141.757521,"version":"13.0b/18.0a"},{"town":"北三条西四丁目","koaza":"","lat":43.208567,"lng":141.756871,"version":"13.0b/18.0a"},{"town":"北三条西五丁目","koaza":"","lat":43.20801,"lng":141.755837,"version":"13.0b/18.0a"},{"town":"北三条西六丁目","koaza":"","lat":43.207539,"lng":141.754916,"version":"13.0b/18.0a"},{"town":"北三条西七丁目","koaza":"","lat":43.207143,"lng":141.754205,"version":"13.0b/18.0a"},{"town":"北三条西八丁目","koaza":"","lat":43.206836,"lng":141.753274,"version":"13.0b/18.0a"},{"town":"北三条西九丁目","koaza":"","lat":43.206367,"lng":141.752385,"version":"13.0b/18.0a"},{"town":"北四条西十丁目","koaza":"","lat":43.207263,"lng":141.750128,"version":"13.0b/18.0a"},{"town":"北四条西十一丁目","koaza":"","lat":43.2067,"lng":141.748984,"version":"13.0b/18.0a"},{"town":"北四条西十二丁目","koaza":"","lat":43.206317,"lng":141.747916,"version":"13.0b/18.0a"},{"town":"北四条西十三丁目","koaza":"","lat":43.205693,"lng":141.747156,"version":"13.0b/18.0a"},{"town":"北四条西十四丁目","koaza":"","lat":43.20518,"lng":141.746057,"version":"13.0b/18.0a"},{"town":"北四条西十五丁目","koaza":"","lat":43.204714,"lng":141.745187,"version":"13.0b/18.0a"},{"town":"北四条西十六丁目","koaza":"","lat":43.204224,"lng":141.744295,"version":"13.0b/18.0a"},{"town":"北四条西十七丁目","koaza":"","lat":43.203909,"lng":141.743235,"version":"13.0b/18.0a"},{"town":"北四条西十八丁目","koaza":"","lat":43.203288,"lng":141.742445,"version":"13.0b/18.0a"},{"town":"北四条西十九丁目","koaza":"","lat":43.202964,"lng":141.741389,"version":"13.0b/18.0a"},{"town":"北四条西二十丁目","koaza":"","lat":43.202402,"lng":141.740687,"version":"13.0b/18.0a"},{"town":"北四条西四丁目","koaza":"","lat":43.209438,"lng":141.755763,"version":"13.0b/18.0a"},{"town":"北四条西五丁目","koaza":"","lat":43.209263,"lng":141.754462,"version":"13.0b/18.0a"},{"town":"北四条西六丁目","koaza":"","lat":43.209074,"lng":141.753672,"version":"13.0b/18.0a"},{"town":"北四条西七丁目","koaza":"","lat":43.208717,"lng":141.752925,"version":"13.0b/18.0a"},{"town":"北四条西八丁目","koaza":"","lat":43.208204,"lng":141.751922,"version":"13.0b/18.0a"},{"town":"北四条西九丁目","koaza":"","lat":43.207708,"lng":141.751041,"version":"13.0b/18.0a"},{"town":"北五条西十丁目","koaza":"","lat":43.208999,"lng":141.748294,"version":"13.0b/18.0a"},{"town":"北五条西十一丁目","koaza":"","lat":43.208293,"lng":141.747353,"version":"13.0b/18.0a"},{"town":"北五条西十二丁目","koaza":"","lat":43.207737,"lng":141.746312,"version":"13.0b/18.0a"},{"town":"北五条西十三丁目","koaza":"","lat":43.206987,"lng":141.74578,"version":"13.0b/18.0a"},{"town":"北五条西十四丁目","koaza":"","lat":43.206483,"lng":141.744864,"version":"13.0b/18.0a"},{"town":"北五条西十五丁目","koaza":"","lat":43.206056,"lng":141.743953,"version":"13.0b/18.0a"},{"town":"北五条西十六丁目","koaza":"","lat":43.205542,"lng":141.743154,"version":"13.0b/18.0a"},{"town":"北五条西十七丁目","koaza":"","lat":43.205121,"lng":141.742067,"version":"13.0b/18.0a"},{"town":"北五条西十八丁目","koaza":"","lat":43.204582,"lng":141.741207,"version":"13.0b/18.0a"},{"town":"北五条西十九丁目","koaza":"","lat":43.204123,"lng":141.740075,"version":"13.0b/18.0a"},{"town":"北五条西二十丁目","koaza":"","lat":43.203715,"lng":141.739206,"version":"13.0b/18.0a"},{"town":"北五条西六丁目","koaza":"","lat":43.210129,"lng":141.753065,"version":"13.0b/18.0a"},{"town":"北五条西七丁目","koaza":"","lat":43.209856,"lng":141.751897,"version":"13.0b/18.0a"},{"town":"北五条西八丁目","koaza":"","lat":43.209616,"lng":141.750275,"version":"13.0b/18.0a"},{"town":"北五条西九丁目","koaza":"","lat":43.209572,"lng":141.749125,"version":"13.0b/18.0a"},{"town":"北六条西十六丁目","koaza":"","lat":43.206704,"lng":141.742292,"version":"13.0b/18.0a"},{"town":"北六条西十七丁目","koaza":"","lat":43.206513,"lng":141.740807,"version":"13.0b/18.0a"},{"town":"北六条西十八丁目","koaza":"","lat":43.20616,"lng":141.739779,"version":"13.0b/18.0a"},{"town":"北六条西十九丁目","koaza":"","lat":43.205741,"lng":141.738597,"version":"13.0b/18.0a"},{"town":"北六条西二十丁目","koaza":"","lat":43.205405,"lng":141.737633,"version":"13.0b/18.0a"},{"town":"北本町西一丁目","koaza":"","lat":43.209876,"lng":141.760029,"version":"13.0b/18.0a"},{"town":"北本町西二丁目","koaza":"","lat":43.210088,"lng":141.758462,"version":"13.0b/18.0a"},{"town":"北本町西三丁目","koaza":"","lat":43.209219,"lng":141.758075,"version":"13.0b/18.0a"},{"town":"北本町東十丁目","koaza":"","lat":43.215116,"lng":141.769596,"version":"13.0b/18.0a"},{"town":"北本町東一丁目","koaza":"","lat":43.210213,"lng":141.76161,"version":"13.0b/18.0a"},{"town":"北本町東二丁目","koaza":"","lat":43.21061,"lng":141.762608,"version":"13.0b/18.0a"},{"town":"北本町東三丁目","koaza":"","lat":43.211098,"lng":141.763201,"version":"13.0b/18.0a"},{"town":"北本町東四丁目","koaza":"","lat":43.211845,"lng":141.763794,"version":"13.0b/18.0a"},{"town":"北本町東五丁目","koaza":"","lat":43.212539,"lng":141.76456,"version":"13.0b/18.0a"},{"town":"北本町東六丁目","koaza":"","lat":43.213068,"lng":141.765444,"version":"13.0b/18.0a"},{"town":"北本町東七丁目","koaza":"","lat":43.213386,"lng":141.766632,"version":"13.0b/18.0a"},{"town":"北本町東八丁目","koaza":"","lat":43.213964,"lng":141.767449,"version":"13.0b/18.0a"},{"town":"北本町東九丁目","koaza":"","lat":43.214631,"lng":141.767933,"version":"13.0b/18.0a"},{"town":"北村赤川","koaza":"","lat":43.250716,"lng":141.716186,"version":"13.0b/18.0a"},{"town":"北村大願","koaza":"","lat":43.279266,"lng":141.732134,"version":"13.0b/18.0a"},{"town":"北村栄町","koaza":"","lat":43.272888,"lng":141.704075,"version":"13.0b/18.0a"},{"town":"北村砂浜","koaza":"","lat":43.171595,"lng":141.636994,"version":"13.0b/18.0a"},{"town":"北村中央","koaza":"","lat":43.248635,"lng":141.679887,"version":"13.0b/18.0a"},{"town":"北村豊里","koaza":"","lat":43.281696,"lng":141.680924,"version":"13.0b/18.0a"},{"town":"北村中小屋","koaza":"","lat":43.295663,"lng":141.753809,"version":"13.0b/18.0a"},{"town":"北村美唄達布","koaza":"","lat":43.226182,"lng":141.688672,"version":"13.0b/18.0a"},{"town":"北村豊正","koaza":"","lat":43.311301,"lng":141.696904,"version":"13.0b/18.0a"},{"town":"北村北都","koaza":"","lat":43.264826,"lng":141.670384,"version":"13.0b/18.0a"},{"town":"北村幌達布","koaza":"","lat":43.20583,"lng":141.668797,"version":"13.0b/18.0a"},{"town":"栗沢町越前","koaza":"","lat":43.111383,"lng":141.690232,"version":"13.0b/18.0a"},{"town":"栗沢町上幌","koaza":"","lat":43.142464,"lng":141.823603,"version":"13.0b/18.0a"},{"town":"栗沢町加茂川","koaza":"","lat":43.101425,"lng":141.76668,"version":"13.0b/18.0a"},{"town":"栗沢町北幸穂","koaza":"","lat":43.130177,"lng":141.744856,"version":"13.0b/18.0a"},{"town":"栗沢町北本町","koaza":"","lat":43.123116,"lng":141.742413,"version":"13.0b/18.0a"},{"town":"栗沢町岐阜","koaza":"","lat":43.09574,"lng":141.709368,"version":"13.0b/18.0a"},{"town":"栗沢町栗丘","koaza":"","lat":43.088272,"lng":141.763021,"version":"13.0b/18.0a"},{"town":"栗沢町栗部","koaza":"","lat":43.148819,"lng":141.731278,"version":"13.0b/18.0a"},{"town":"栗沢町耕成","koaza":"","lat":43.149095,"lng":141.748037,"version":"13.0b/18.0a"},{"town":"栗沢町小西","koaza":"","lat":43.101843,"lng":141.73007,"version":"13.0b/18.0a"},{"town":"栗沢町幸穂町","koaza":"","lat":43.117261,"lng":141.745071,"version":"13.0b/18.0a"},{"town":"栗沢町自協","koaza":"","lat":43.114701,"lng":141.708146,"version":"13.0b/18.0a"},{"town":"栗沢町砺波","koaza":"","lat":43.135641,"lng":141.728188,"version":"13.0b/18.0a"},{"town":"栗沢町西本町","koaza":"","lat":43.117829,"lng":141.738536,"version":"13.0b/18.0a"},{"town":"栗沢町西万字","koaza":"","lat":43.121024,"lng":141.978416,"version":"13.0b/18.0a"},{"town":"栗沢町東本町","koaza":"","lat":43.121163,"lng":141.745941,"version":"13.0b/18.0a"},{"town":"栗沢町必成","koaza":"","lat":43.119743,"lng":141.727107,"version":"13.0b/18.0a"},{"town":"栗沢町北斗","koaza":"","lat":43.134577,"lng":141.680938,"version":"13.0b/18.0a"},{"town":"栗沢町本町","koaza":"","lat":43.119254,"lng":141.741917,"version":"13.0b/18.0a"},{"town":"栗沢町万字曙町","koaza":"","lat":43.13832,"lng":141.988458,"version":"13.0b/18.0a"},{"town":"栗沢町万字旭町","koaza":"","lat":43.123565,"lng":141.990683,"version":"13.0b/18.0a"},{"town":"栗沢町万字大平","koaza":"","lat":43.149623,"lng":141.970666,"version":"13.0b/18.0a"},{"town":"栗沢町万字寿町","koaza":"","lat":43.135248,"lng":141.986658,"version":"13.0b/18.0a"},{"town":"栗沢町万字幸町","koaza":"","lat":43.130707,"lng":142.015112,"version":"13.0b/18.0a"},{"town":"栗沢町万字巴町","koaza":"","lat":43.144041,"lng":141.979287,"version":"13.0b/18.0a"},{"town":"栗沢町万字仲町","koaza":"","lat":43.144331,"lng":141.983364,"version":"13.0b/18.0a"},{"town":"栗沢町万字錦町","koaza":"","lat":43.133171,"lng":141.988907,"version":"13.0b/18.0a"},{"town":"栗沢町万字西原町","koaza":"","lat":43.13405,"lng":141.993276,"version":"13.0b/18.0a"},{"town":"栗沢町万字英町","koaza":"","lat":43.139002,"lng":141.984032,"version":"13.0b/18.0a"},{"town":"栗沢町万字二見町","koaza":"","lat":43.114491,"lng":141.990439,"version":"13.0b/18.0a"},{"town":"栗沢町万字睦町","koaza":"","lat":43.141359,"lng":141.983121,"version":"13.0b/18.0a"},{"town":"栗沢町南幸穂","koaza":"","lat":43.113302,"lng":141.743097,"version":"13.0b/18.0a"},{"town":"栗沢町南本町","koaza":"","lat":43.115685,"lng":141.741278,"version":"13.0b/18.0a"},{"town":"栗沢町宮村","koaza":"","lat":43.146497,"lng":141.858,"version":"13.0b/18.0a"},{"town":"栗沢町美流渡楓町","koaza":"","lat":43.124886,"lng":141.941392,"version":"13.0b/18.0a"},{"town":"栗沢町美流渡栄町","koaza":"","lat":43.158414,"lng":141.91956,"version":"13.0b/18.0a"},{"town":"栗沢町美流渡桜町","koaza":"","lat":43.150256,"lng":141.922398,"version":"13.0b/18.0a"},{"town":"栗沢町美流渡末広町","koaza":"","lat":43.165706,"lng":141.908858,"version":"13.0b/18.0a"},{"town":"栗沢町美流渡東栄町","koaza":"","lat":43.16558,"lng":141.9113,"version":"13.0b/18.0a"},{"town":"栗沢町美流渡錦町","koaza":"","lat":43.159791,"lng":141.920067,"version":"13.0b/18.0a"},{"town":"栗沢町美流渡西町","koaza":"","lat":43.140131,"lng":141.892019,"version":"13.0b/18.0a"},{"town":"栗沢町美流渡東町","koaza":"","lat":43.142297,"lng":141.946333,"version":"13.0b/18.0a"},{"town":"栗沢町美流渡本町","koaza":"","lat":43.16324,"lng":141.912127,"version":"13.0b/18.0a"},{"town":"栗沢町美流渡緑町","koaza":"","lat":43.138002,"lng":141.932897,"version":"13.0b/18.0a"},{"town":"栗沢町美流渡南町","koaza":"","lat":43.152705,"lng":141.919244,"version":"13.0b/18.0a"},{"town":"栗沢町美流渡吉野町","koaza":"","lat":43.160615,"lng":141.913535,"version":"13.0b/18.0a"},{"town":"栗沢町美流渡若葉町","koaza":"","lat":43.141847,"lng":141.929419,"version":"13.0b/18.0a"},{"town":"栗沢町最上","koaza":"","lat":43.116146,"lng":141.768483,"version":"13.0b/18.0a"},{"town":"栗沢町茂世丑","koaza":"","lat":43.114454,"lng":141.812673,"version":"13.0b/18.0a"},{"town":"栗沢町由良","koaza":"","lat":43.139743,"lng":141.770364,"version":"13.0b/18.0a"},{"town":"駒園一丁目","koaza":"","lat":43.186265,"lng":141.765972,"version":"13.0b/18.0a"},{"town":"駒園二丁目","koaza":"","lat":43.184847,"lng":141.766254,"version":"13.0b/18.0a"},{"town":"駒園三丁目","koaza":"","lat":43.183953,"lng":141.765946,"version":"13.0b/18.0a"},{"town":"駒園四丁目","koaza":"","lat":43.183452,"lng":141.765447,"version":"13.0b/18.0a"},{"town":"駒園五丁目","koaza":"","lat":43.182694,"lng":141.764756,"version":"13.0b/18.0a"},{"town":"駒園六丁目","koaza":"","lat":43.182058,"lng":141.766319,"version":"13.0b/18.0a"},{"town":"駒園七丁目","koaza":"","lat":43.179964,"lng":141.765559,"version":"13.0b/18.0a"},{"town":"駒園八丁目","koaza":"","lat":43.178576,"lng":141.764337,"version":"13.0b/18.0a"},{"town":"駒園九丁目","koaza":"","lat":43.175993,"lng":141.766194,"version":"13.0b/18.0a"},{"town":"栄町一丁目","koaza":"","lat":43.218707,"lng":141.79609,"version":"13.0b/18.0a"},{"town":"栄町二丁目","koaza":"","lat":43.21948,"lng":141.799636,"version":"13.0b/18.0a"},{"town":"栄町三丁目","koaza":"","lat":43.220696,"lng":141.802984,"version":"13.0b/18.0a"},{"town":"栄町四丁目","koaza":"","lat":43.222298,"lng":141.808159,"version":"13.0b/18.0a"},{"town":"栄町五丁目","koaza":"","lat":43.216564,"lng":141.797638,"version":"13.0b/18.0a"},{"town":"栄町六丁目","koaza":"","lat":43.217617,"lng":141.80077,"version":"13.0b/18.0a"},{"town":"栄町七丁目","koaza":"","lat":43.218791,"lng":141.804206,"version":"13.0b/18.0a"},{"town":"栄町八丁目","koaza":"","lat":43.220373,"lng":141.80863,"version":"13.0b/18.0a"},{"town":"桜木一条一丁目","koaza":"","lat":43.212323,"lng":141.759209,"version":"13.0b/18.0a"},{"town":"桜木一条二丁目","koaza":"","lat":43.212504,"lng":141.760596,"version":"13.0b/18.0a"},{"town":"桜木一条三丁目","koaza":"","lat":43.213394,"lng":141.761244,"version":"13.0b/18.0a"},{"town":"桜木一条四丁目","koaza":"","lat":43.213806,"lng":141.762313,"version":"13.0b/18.0a"},{"town":"桜木一条五丁目","koaza":"","lat":43.214486,"lng":141.763412,"version":"13.0b/18.0a"},{"town":"桜木一条六丁目","koaza":"","lat":43.215531,"lng":141.764382,"version":"13.0b/18.0a"},{"town":"桜木一条七丁目","koaza":"","lat":43.216297,"lng":141.765688,"version":"13.0b/18.0a"},{"town":"志文町","koaza":"","lat":43.162152,"lng":141.767125,"version":"13.0b/18.0a"},{"town":"志文本町一条一丁目","koaza":"","lat":43.155474,"lng":141.744544,"version":"13.0b/18.0a"},{"town":"志文本町一条二丁目","koaza":"","lat":43.15723,"lng":141.744744,"version":"13.0b/18.0a"},{"town":"志文本町一条三丁目","koaza":"","lat":43.158312,"lng":141.744866,"version":"13.0b/18.0a"},{"town":"志文本町一条四丁目","koaza":"","lat":43.159911,"lng":141.745077,"version":"13.0b/18.0a"},{"town":"志文本町一条五丁目","koaza":"","lat":43.162207,"lng":141.745036,"version":"13.0b/18.0a"},{"town":"志文本町一条六丁目","koaza":"","lat":43.162672,"lng":141.746164,"version":"13.0b/18.0a"},{"town":"志文本町二条一丁目","koaza":"","lat":43.155522,"lng":141.745524,"version":"13.0b/18.0a"},{"town":"志文本町二条二丁目","koaza":"","lat":43.157193,"lng":141.745666,"version":"13.0b/18.0a"},{"town":"志文本町二条三丁目","koaza":"","lat":43.158304,"lng":141.745784,"version":"13.0b/18.0a"},{"town":"志文本町二条四丁目","koaza":"","lat":43.159682,"lng":141.74595,"version":"13.0b/18.0a"},{"town":"志文本町二条五丁目","koaza":"","lat":43.161256,"lng":141.745687,"version":"13.0b/18.0a"},{"town":"志文本町二条六丁目","koaza":"","lat":43.161552,"lng":141.747058,"version":"13.0b/18.0a"},{"town":"志文本町三条一丁目","koaza":"","lat":43.155685,"lng":141.746333,"version":"13.0b/18.0a"},{"town":"志文本町三条二丁目","koaza":"","lat":43.157155,"lng":141.746473,"version":"13.0b/18.0a"},{"town":"志文本町三条三丁目","koaza":"","lat":43.158323,"lng":141.746604,"version":"13.0b/18.0a"},{"town":"志文本町三条四丁目","koaza":"","lat":43.159492,"lng":141.74681,"version":"13.0b/18.0a"},{"town":"志文本町三条五丁目","koaza":"","lat":43.160039,"lng":141.747412,"version":"13.0b/18.0a"},{"town":"志文本町三条六丁目","koaza":"","lat":43.16043,"lng":141.748451,"version":"13.0b/18.0a"},{"town":"志文本町四条一丁目","koaza":"","lat":43.15543,"lng":141.747061,"version":"13.0b/18.0a"},{"town":"志文本町四条二丁目","koaza":"","lat":43.156816,"lng":141.747164,"version":"13.0b/18.0a"},{"town":"志文本町四条三丁目","koaza":"","lat":43.158063,"lng":141.747238,"version":"13.0b/18.0a"},{"town":"志文本町四条四丁目","koaza":"","lat":43.1586,"lng":141.747725,"version":"13.0b/18.0a"},{"town":"志文本町四条五丁目","koaza":"","lat":43.159137,"lng":141.749287,"version":"13.0b/18.0a"},{"town":"志文本町五条一丁目","koaza":"","lat":43.155854,"lng":141.747844,"version":"13.0b/18.0a"},{"town":"志文本町五条二丁目","koaza":"","lat":43.157299,"lng":141.747838,"version":"13.0b/18.0a"},{"town":"志文本町五条三丁目","koaza":"","lat":43.155844,"lng":141.748662,"version":"13.0b/18.0a"},{"town":"志文本町五条四丁目","koaza":"","lat":43.157189,"lng":141.749224,"version":"13.0b/18.0a"},{"town":"志文本町五条五丁目","koaza":"","lat":43.157962,"lng":141.749968,"version":"13.0b/18.0a"},{"town":"清水町","koaza":"","lat":43.178066,"lng":141.897372,"version":"13.0b/18.0a"},{"town":"下志文町","koaza":"","lat":43.157781,"lng":141.733634,"version":"13.0b/18.0a"},{"town":"総合公園","koaza":"","lat":43.192858,"lng":141.775307,"version":"13.0b/18.0a"},{"town":"中幌向町","koaza":"","lat":43.157626,"lng":141.678803,"version":"13.0b/18.0a"},{"town":"並木町","koaza":"","lat":43.190137,"lng":141.768049,"version":"13.0b/18.0a"},{"town":"奈良町","koaza":"","lat":43.178344,"lng":141.919335,"version":"13.0b/18.0a"},{"town":"西川町","koaza":"","lat":43.215323,"lng":141.727826,"version":"13.0b/18.0a"},{"town":"鳩が丘一丁目","koaza":"","lat":43.197177,"lng":141.776726,"version":"13.0b/18.0a"},{"town":"鳩が丘二丁目","koaza":"","lat":43.19935,"lng":141.77856,"version":"13.0b/18.0a"},{"town":"鳩が丘三丁目","koaza":"","lat":43.195428,"lng":141.77799,"version":"13.0b/18.0a"},{"town":"鳩が丘四丁目","koaza":"","lat":43.19628,"lng":141.780706,"version":"13.0b/18.0a"},{"town":"東町","koaza":"","lat":43.225816,"lng":141.811628,"version":"13.0b/18.0a"},{"town":"東町一条一丁目","koaza":"","lat":43.212778,"lng":141.773922,"version":"13.0b/18.0a"},{"town":"東町一条二丁目","koaza":"","lat":43.214707,"lng":141.777058,"version":"13.0b/18.0a"},{"town":"東町一条三丁目","koaza":"","lat":43.216004,"lng":141.779704,"version":"13.0b/18.0a"},{"town":"東町一条四丁目","koaza":"","lat":43.218142,"lng":141.78198,"version":"13.0b/18.0a"},{"town":"東町一条五丁目","koaza":"","lat":43.220846,"lng":141.788907,"version":"13.0b/18.0a"},{"town":"東町一条六丁目","koaza":"","lat":43.222115,"lng":141.792914,"version":"13.0b/18.0a"},{"town":"東町一条七丁目","koaza":"","lat":43.221781,"lng":141.797115,"version":"13.0b/18.0a"},{"town":"東町一条八丁目","koaza":"","lat":43.22284,"lng":141.800485,"version":"13.0b/18.0a"},{"town":"東町二条一丁目","koaza":"","lat":43.214281,"lng":141.773004,"version":"13.0b/18.0a"},{"town":"東町二条二丁目","koaza":"","lat":43.216143,"lng":141.775519,"version":"13.0b/18.0a"},{"town":"東町二条三丁目","koaza":"","lat":43.217321,"lng":141.778368,"version":"13.0b/18.0a"},{"town":"東町二条四丁目","koaza":"","lat":43.219476,"lng":141.78223,"version":"13.0b/18.0a"},{"town":"東町二条五丁目","koaza":"","lat":43.222033,"lng":141.787392,"version":"13.0b/18.0a"},{"town":"東町二条六丁目","koaza":"","lat":43.223901,"lng":141.789741,"version":"13.0b/18.0a"},{"town":"東町二条七丁目","koaza":"","lat":43.224882,"lng":141.793641,"version":"13.0b/18.0a"},{"town":"東町二条八丁目","koaza":"","lat":43.225942,"lng":141.797421,"version":"13.0b/18.0a"},{"town":"東山十丁目","koaza":"","lat":43.196175,"lng":141.786654,"version":"13.0b/18.0a"},{"town":"東山一丁目","koaza":"","lat":43.193086,"lng":141.78584,"version":"13.0b/18.0a"},{"town":"東山二丁目","koaza":"","lat":43.192693,"lng":141.783286,"version":"13.0b/18.0a"},{"town":"東山三丁目","koaza":"","lat":43.191687,"lng":141.781688,"version":"13.0b/18.0a"},{"town":"東山四丁目","koaza":"","lat":43.1904,"lng":141.783675,"version":"13.0b/18.0a"},{"town":"東山五丁目","koaza":"","lat":43.190987,"lng":141.786735,"version":"13.0b/18.0a"},{"town":"東山六丁目","koaza":"","lat":43.19106,"lng":141.790966,"version":"13.0b/18.0a"},{"town":"東山七丁目","koaza":"","lat":43.193485,"lng":141.792757,"version":"13.0b/18.0a"},{"town":"東山八丁目","koaza":"","lat":43.192744,"lng":141.789547,"version":"13.0b/18.0a"},{"town":"東山九丁目","koaza":"","lat":43.196078,"lng":141.789989,"version":"13.0b/18.0a"},{"town":"東山町","koaza":"","lat":43.188729,"lng":141.804107,"version":"13.0b/18.0a"},{"town":"日の出北一丁目","koaza":"","lat":43.208816,"lng":141.786636,"version":"13.0b/18.0a"},{"town":"日の出北二丁目","koaza":"","lat":43.209346,"lng":141.788163,"version":"13.0b/18.0a"},{"town":"日の出北三丁目","koaza":"","lat":43.20993,"lng":141.789625,"version":"13.0b/18.0a"},{"town":"日の出北四丁目","koaza":"","lat":43.210367,"lng":141.791239,"version":"13.0b/18.0a"},{"town":"日の出台十丁目","koaza":"","lat":43.207871,"lng":141.804612,"version":"13.0b/18.0a"},{"town":"日の出台一丁目","koaza":"","lat":43.211297,"lng":141.792574,"version":"13.0b/18.0a"},{"town":"日の出台二丁目","koaza":"","lat":43.211857,"lng":141.794293,"version":"13.0b/18.0a"},{"town":"日の出台三丁目","koaza":"","lat":43.212376,"lng":141.795765,"version":"13.0b/18.0a"},{"town":"日の出台四丁目","koaza":"","lat":43.212993,"lng":141.806757,"version":"13.0b/18.0a"},{"town":"日の出台五丁目","koaza":"","lat":43.208761,"lng":141.793496,"version":"13.0b/18.0a"},{"town":"日の出台六丁目","koaza":"","lat":43.209103,"lng":141.795572,"version":"13.0b/18.0a"},{"town":"日の出台七丁目","koaza":"","lat":43.209055,"lng":141.797069,"version":"13.0b/18.0a"},{"town":"日の出台八丁目","koaza":"","lat":43.21108,"lng":141.801545,"version":"13.0b/18.0a"},{"town":"日の出台九丁目","koaza":"","lat":43.208568,"lng":141.799485,"version":"13.0b/18.0a"},{"town":"日の出町","koaza":"","lat":43.19563,"lng":141.814363,"version":"13.0b/18.0a"},{"town":"日の出南一丁目","koaza":"","lat":43.206434,"lng":141.788689,"version":"13.0b/18.0a"},{"town":"日の出南二丁目","koaza":"","lat":43.206978,"lng":141.791561,"version":"13.0b/18.0a"},{"town":"日の出南三丁目","koaza":"","lat":43.206796,"lng":141.798859,"version":"13.0b/18.0a"},{"town":"日の出南四丁目","koaza":"","lat":43.204889,"lng":141.790879,"version":"13.0b/18.0a"},{"town":"ふじ町一条一丁目","koaza":"","lat":43.168549,"lng":141.756966,"version":"13.0b/18.0a"},{"town":"ふじ町一条二丁目","koaza":"","lat":43.167468,"lng":141.75535,"version":"13.0b/18.0a"},{"town":"ふじ町一条三丁目","koaza":"","lat":43.166807,"lng":141.753858,"version":"13.0b/18.0a"},{"town":"ふじ町一条四丁目","koaza":"","lat":43.166161,"lng":141.752834,"version":"13.0b/18.0a"},{"town":"ふじ町一条五丁目","koaza":"","lat":43.165478,"lng":141.751346,"version":"13.0b/18.0a"},{"town":"ふじ町一条六丁目","koaza":"","lat":43.164445,"lng":141.749369,"version":"13.0b/18.0a"},{"town":"ふじ町一条七丁目","koaza":"","lat":43.163489,"lng":141.747521,"version":"13.0b/18.0a"},{"town":"ふじ町二条一丁目","koaza":"","lat":43.167042,"lng":141.758001,"version":"13.0b/18.0a"},{"town":"ふじ町二条二丁目","koaza":"","lat":43.166275,"lng":141.756458,"version":"13.0b/18.0a"},{"town":"ふじ町二条三丁目","koaza":"","lat":43.165631,"lng":141.755236,"version":"13.0b/18.0a"},{"town":"ふじ町二条四丁目","koaza":"","lat":43.16497,"lng":141.75395,"version":"13.0b/18.0a"},{"town":"ふじ町二条五丁目","koaza":"","lat":43.164235,"lng":141.752518,"version":"13.0b/18.0a"},{"town":"ふじ町二条六丁目","koaza":"","lat":43.163228,"lng":141.750487,"version":"13.0b/18.0a"},{"town":"ふじ町二条七丁目","koaza":"","lat":43.16231,"lng":141.748591,"version":"13.0b/18.0a"},{"town":"双葉町","koaza":"","lat":43.156438,"lng":141.698777,"version":"13.0b/18.0a"},{"town":"宝水町","koaza":"","lat":43.200165,"lng":141.859603,"version":"13.0b/18.0a"},{"town":"幌向北一条一丁目","koaza":"","lat":43.155105,"lng":141.659296,"version":"13.0b/18.0a"},{"town":"幌向北一条二丁目","koaza":"","lat":43.153575,"lng":141.656603,"version":"13.0b/18.0a"},{"town":"幌向北一条三丁目","koaza":"","lat":43.152039,"lng":141.653279,"version":"13.0b/18.0a"},{"town":"幌向北一条四丁目","koaza":"","lat":43.150625,"lng":141.650406,"version":"13.0b/18.0a"},{"town":"幌向北一条五丁目","koaza":"","lat":43.149179,"lng":141.648212,"version":"13.0b/18.0a"},{"town":"幌向北一条六丁目","koaza":"","lat":43.147493,"lng":141.645482,"version":"13.0b/18.0a"},{"town":"幌向北一条七丁目","koaza":"","lat":43.145623,"lng":141.642635,"version":"13.0b/18.0a"},{"town":"幌向北二条一丁目","koaza":"","lat":43.157139,"lng":141.657304,"version":"13.0b/18.0a"},{"town":"幌向北二条二丁目","koaza":"","lat":43.155808,"lng":141.654425,"version":"13.0b/18.0a"},{"town":"幌向北二条三丁目","koaza":"","lat":43.154317,"lng":141.651538,"version":"13.0b/18.0a"},{"town":"幌向北二条四丁目","koaza":"","lat":43.15291,"lng":141.648579,"version":"13.0b/18.0a"},{"town":"幌向北二条五丁目","koaza":"","lat":43.151519,"lng":141.645995,"version":"13.0b/18.0a"},{"town":"幌向北二条六丁目","koaza":"","lat":43.150042,"lng":141.643069,"version":"13.0b/18.0a"},{"town":"幌向北二条七丁目","koaza":"","lat":43.147972,"lng":141.641133,"version":"13.0b/18.0a"},{"town":"幌向町","koaza":"","lat":43.160868,"lng":141.65644,"version":"13.0b/18.0a"},{"town":"幌向南一条一丁目","koaza":"","lat":43.152729,"lng":141.660419,"version":"13.0b/18.0a"},{"town":"幌向南一条二丁目","koaza":"","lat":43.151644,"lng":141.657644,"version":"13.0b/18.0a"},{"town":"幌向南一条三丁目","koaza":"","lat":43.150266,"lng":141.654274,"version":"13.0b/18.0a"},{"town":"幌向南一条四丁目","koaza":"","lat":43.148789,"lng":141.652662,"version":"13.0b/18.0a"},{"town":"幌向南一条五丁目","koaza":"","lat":43.146603,"lng":141.649826,"version":"13.0b/18.0a"},{"town":"幌向南二条一丁目","koaza":"","lat":43.150743,"lng":141.662752,"version":"13.0b/18.0a"},{"town":"幌向南二条二丁目","koaza":"","lat":43.149425,"lng":141.659683,"version":"13.0b/18.0a"},{"town":"幌向南二条三丁目","koaza":"","lat":43.148298,"lng":141.657105,"version":"13.0b/18.0a"},{"town":"幌向南二条四丁目","koaza":"","lat":43.146546,"lng":141.654546,"version":"13.0b/18.0a"},{"town":"幌向南二条五丁目","koaza":"","lat":43.145366,"lng":141.651802,"version":"13.0b/18.0a"},{"town":"幌向南三条一丁目","koaza":"","lat":43.148511,"lng":141.66551,"version":"13.0b/18.0a"},{"town":"幌向南三条二丁目","koaza":"","lat":43.147317,"lng":141.662498,"version":"13.0b/18.0a"},{"town":"幌向南三条三丁目","koaza":"","lat":43.145597,"lng":141.659641,"version":"13.0b/18.0a"},{"town":"幌向南三条四丁目","koaza":"","lat":43.144305,"lng":141.656682,"version":"13.0b/18.0a"},{"town":"幌向南三条五丁目","koaza":"","lat":43.143255,"lng":141.654052,"version":"13.0b/18.0a"},{"town":"幌向南四条一丁目","koaza":"","lat":43.146452,"lng":141.667436,"version":"13.0b/18.0a"},{"town":"幌向南四条二丁目","koaza":"","lat":43.144621,"lng":141.664726,"version":"13.0b/18.0a"},{"town":"幌向南四条三丁目","koaza":"","lat":43.143628,"lng":141.661508,"version":"13.0b/18.0a"},{"town":"幌向南四条四丁目","koaza":"","lat":43.141174,"lng":141.659292,"version":"13.0b/18.0a"},{"town":"幌向南五条一丁目","koaza":"","lat":43.143747,"lng":141.669658,"version":"13.0b/18.0a"},{"town":"美園一条一丁目","koaza":"","lat":43.192143,"lng":141.762967,"version":"13.0b/18.0a"},{"town":"美園一条二丁目","koaza":"","lat":43.191655,"lng":141.762051,"version":"13.0b/18.0a"},{"town":"美園一条三丁目","koaza":"","lat":43.191168,"lng":141.761116,"version":"13.0b/18.0a"},{"town":"美園一条四丁目","koaza":"","lat":43.190712,"lng":141.760216,"version":"13.0b/18.0a"},{"town":"美園一条五丁目","koaza":"","lat":43.190198,"lng":141.759189,"version":"13.0b/18.0a"},{"town":"美園一条六丁目","koaza":"","lat":43.189771,"lng":141.758334,"version":"13.0b/18.0a"},{"town":"美園一条七丁目","koaza":"","lat":43.18915,"lng":141.757425,"version":"13.0b/18.0a"},{"town":"美園一条八丁目","koaza":"","lat":43.187683,"lng":141.755605,"version":"13.0b/18.0a"},{"town":"美園二条一丁目","koaza":"","lat":43.191073,"lng":141.763971,"version":"13.0b/18.0a"},{"town":"美園二条二丁目","koaza":"","lat":43.190511,"lng":141.763251,"version":"13.0b/18.0a"},{"town":"美園二条三丁目","koaza":"","lat":43.190033,"lng":141.762162,"version":"13.0b/18.0a"},{"town":"美園二条四丁目","koaza":"","lat":43.189579,"lng":141.761279,"version":"13.0b/18.0a"},{"town":"美園二条五丁目","koaza":"","lat":43.189114,"lng":141.76036,"version":"13.0b/18.0a"},{"town":"美園二条六丁目","koaza":"","lat":43.188646,"lng":141.759401,"version":"13.0b/18.0a"},{"town":"美園二条七丁目","koaza":"","lat":43.187981,"lng":141.758063,"version":"13.0b/18.0a"},{"town":"美園二条八丁目","koaza":"","lat":43.187003,"lng":141.756157,"version":"13.0b/18.0a"},{"town":"美園三条一丁目","koaza":"","lat":43.190307,"lng":141.764669,"version":"13.0b/18.0a"},{"town":"美園三条二丁目","koaza":"","lat":43.189724,"lng":141.763827,"version":"13.0b/18.0a"},{"town":"美園三条三丁目","koaza":"","lat":43.189243,"lng":141.762886,"version":"13.0b/18.0a"},{"town":"美園三条四丁目","koaza":"","lat":43.188797,"lng":141.76201,"version":"13.0b/18.0a"},{"town":"美園三条五丁目","koaza":"","lat":43.188341,"lng":141.761084,"version":"13.0b/18.0a"},{"town":"美園三条六丁目","koaza":"","lat":43.187873,"lng":141.76014,"version":"13.0b/18.0a"},{"town":"美園三条七丁目","koaza":"","lat":43.187203,"lng":141.758826,"version":"13.0b/18.0a"},{"town":"美園三条八丁目","koaza":"","lat":43.186227,"lng":141.75691,"version":"13.0b/18.0a"},{"town":"美園四条一丁目","koaza":"","lat":43.189341,"lng":141.765484,"version":"13.0b/18.0a"},{"town":"美園四条二丁目","koaza":"","lat":43.188957,"lng":141.764559,"version":"13.0b/18.0a"},{"town":"美園四条三丁目","koaza":"","lat":43.188436,"lng":141.763821,"version":"13.0b/18.0a"},{"town":"美園四条四丁目","koaza":"","lat":43.187977,"lng":141.762787,"version":"13.0b/18.0a"},{"town":"美園四条五丁目","koaza":"","lat":43.18752,"lng":141.761859,"version":"13.0b/18.0a"},{"town":"美園四条六丁目","koaza":"","lat":43.18705,"lng":141.760916,"version":"13.0b/18.0a"},{"town":"美園四条七丁目","koaza":"","lat":43.18638,"lng":141.759605,"version":"13.0b/18.0a"},{"town":"美園四条八丁目","koaza":"","lat":43.185337,"lng":141.757442,"version":"13.0b/18.0a"},{"town":"美園五条二丁目","koaza":"","lat":43.188228,"lng":141.765399,"version":"13.0b/18.0a"},{"town":"美園五条三丁目","koaza":"","lat":43.187327,"lng":141.764824,"version":"13.0b/18.0a"},{"town":"美園五条四丁目","koaza":"","lat":43.186401,"lng":141.764345,"version":"13.0b/18.0a"},{"town":"美園五条五丁目","koaza":"","lat":43.186014,"lng":141.76315,"version":"13.0b/18.0a"},{"town":"美園五条六丁目","koaza":"","lat":43.185491,"lng":141.762398,"version":"13.0b/18.0a"},{"town":"美園五条七丁目","koaza":"","lat":43.184799,"lng":141.761096,"version":"13.0b/18.0a"},{"town":"美園五条八丁目","koaza":"","lat":43.183907,"lng":141.759095,"version":"13.0b/18.0a"},{"town":"美園六条六丁目","koaza":"","lat":43.184101,"lng":141.763759,"version":"13.0b/18.0a"},{"town":"美園六条七丁目","koaza":"","lat":43.182573,"lng":141.76292,"version":"13.0b/18.0a"},{"town":"美園六条八丁目","koaza":"","lat":43.181839,"lng":141.761043,"version":"13.0b/18.0a"},{"town":"美園七条八丁目","koaza":"","lat":43.180142,"lng":141.762148,"version":"13.0b/18.0a"},{"town":"緑が丘","koaza":"","lat":43.177354,"lng":141.791632,"version":"13.0b/18.0a"},{"town":"緑が丘一丁目","koaza":"","lat":43.185646,"lng":141.77061,"version":"13.0b/18.0a"},{"town":"緑が丘二丁目","koaza":"","lat":43.18583,"lng":141.777,"version":"13.0b/18.0a"},{"town":"緑が丘三丁目","koaza":"","lat":43.182676,"lng":141.777102,"version":"13.0b/18.0a"},{"town":"緑が丘四丁目","koaza":"","lat":43.18065,"lng":141.773715,"version":"13.0b/18.0a"},{"town":"緑が丘五丁目","koaza":"","lat":43.180858,"lng":141.769544,"version":"13.0b/18.0a"},{"town":"緑が丘六丁目","koaza":"","lat":43.176081,"lng":141.769065,"version":"13.0b/18.0a"},{"town":"緑町一丁目","koaza":"","lat":43.212166,"lng":141.757008,"version":"13.0b/18.0a"},{"town":"緑町二丁目","koaza":"","lat":43.210824,"lng":141.756184,"version":"13.0b/18.0a"},{"town":"緑町三丁目","koaza":"","lat":43.212653,"lng":141.753738,"version":"13.0b/18.0a"},{"town":"緑町四丁目","koaza":"","lat":43.211179,"lng":141.752094,"version":"13.0b/18.0a"},{"town":"緑町五丁目","koaza":"","lat":43.213262,"lng":141.749548,"version":"13.0b/18.0a"},{"town":"緑町六丁目","koaza":"","lat":43.211268,"lng":141.747672,"version":"13.0b/18.0a"},{"town":"緑町七丁目","koaza":"","lat":43.212602,"lng":141.746022,"version":"13.0b/18.0a"},{"town":"南町","koaza":"","lat":43.180522,"lng":141.751201,"version":"13.0b/18.0a"},{"town":"南町一条一丁目","koaza":"","lat":43.186472,"lng":141.753142,"version":"13.0b/18.0a"},{"town":"南町一条二丁目","koaza":"","lat":43.185693,"lng":141.751171,"version":"13.0b/18.0a"},{"town":"南町二条一丁目","koaza":"","lat":43.185986,"lng":141.754097,"version":"13.0b/18.0a"},{"town":"南町二条二丁目","koaza":"","lat":43.185366,"lng":141.752124,"version":"13.0b/18.0a"},{"town":"南町三条一丁目","koaza":"","lat":43.185073,"lng":141.75497,"version":"13.0b/18.0a"},{"town":"南町三条二丁目","koaza":"","lat":43.184247,"lng":141.753073,"version":"13.0b/18.0a"},{"town":"南町四条一丁目","koaza":"","lat":43.184241,"lng":141.755776,"version":"13.0b/18.0a"},{"town":"南町四条二丁目","koaza":"","lat":43.183349,"lng":141.753938,"version":"13.0b/18.0a"},{"town":"南町五条一丁目","koaza":"","lat":43.182865,"lng":141.757096,"version":"13.0b/18.0a"},{"town":"南町五条二丁目","koaza":"","lat":43.181951,"lng":141.75527,"version":"13.0b/18.0a"},{"town":"南町六条一丁目","koaza":"","lat":43.180813,"lng":141.759105,"version":"13.0b/18.0a"},{"town":"南町六条二丁目","koaza":"","lat":43.179917,"lng":141.757197,"version":"13.0b/18.0a"},{"town":"南町七条一丁目","koaza":"","lat":43.178825,"lng":141.761074,"version":"13.0b/18.0a"},{"town":"南町七条二丁目","koaza":"","lat":43.17788,"lng":141.759094,"version":"13.0b/18.0a"},{"town":"南町七条三丁目","koaza":"","lat":43.176905,"lng":141.757162,"version":"13.0b/18.0a"},{"town":"南町七条四丁目","koaza":"","lat":43.175941,"lng":141.755118,"version":"13.0b/18.0a"},{"town":"南町七条五丁目","koaza":"","lat":43.1749,"lng":141.753548,"version":"13.0b/18.0a"},{"town":"南町八条一丁目","koaza":"","lat":43.177122,"lng":141.763538,"version":"13.0b/18.0a"},{"town":"南町八条二丁目","koaza":"","lat":43.176323,"lng":141.760518,"version":"13.0b/18.0a"},{"town":"南町八条三丁目","koaza":"","lat":43.174351,"lng":141.759516,"version":"13.0b/18.0a"},{"town":"南町八条四丁目","koaza":"","lat":43.173857,"lng":141.757095,"version":"13.0b/18.0a"},{"town":"南町八条五丁目","koaza":"","lat":43.173003,"lng":141.75536,"version":"13.0b/18.0a"},{"town":"南町九条一丁目","koaza":"","lat":43.174925,"lng":141.76522,"version":"13.0b/18.0a"},{"town":"南町九条二丁目","koaza":"","lat":43.174934,"lng":141.762584,"version":"13.0b/18.0a"},{"town":"南町九条三丁目","koaza":"","lat":43.172683,"lng":141.761225,"version":"13.0b/18.0a"},{"town":"南町九条四丁目","koaza":"","lat":43.171783,"lng":141.759093,"version":"13.0b/18.0a"},{"town":"南町九条五丁目","koaza":"","lat":43.17091,"lng":141.757324,"version":"13.0b/18.0a"},{"town":"峰延町","koaza":"","lat":43.272876,"lng":141.787157,"version":"13.0b/18.0a"},{"town":"稔町","koaza":"","lat":43.236138,"lng":141.759227,"version":"13.0b/18.0a"},{"town":"毛陽町","koaza":"","lat":43.175575,"lng":141.967826,"version":"13.0b/18.0a"},{"town":"元町一条西一丁目","koaza":"","lat":43.206725,"lng":141.763314,"version":"13.0b/18.0a"},{"town":"元町一条西二丁目","koaza":"","lat":43.206721,"lng":141.762298,"version":"13.0b/18.0a"},{"town":"元町一条東一丁目","koaza":"","lat":43.207221,"lng":141.76405,"version":"13.0b/18.0a"},{"town":"元町一条東二丁目","koaza":"","lat":43.207645,"lng":141.765108,"version":"13.0b/18.0a"},{"town":"元町一条東三丁目","koaza":"","lat":43.208174,"lng":141.76602,"version":"13.0b/18.0a"},{"town":"元町一条東四丁目","koaza":"","lat":43.208784,"lng":141.767017,"version":"13.0b/18.0a"},{"town":"元町一条東五丁目","koaza":"","lat":43.209158,"lng":141.768155,"version":"13.0b/18.0a"},{"town":"元町一条東六丁目","koaza":"","lat":43.209865,"lng":141.76901,"version":"13.0b/18.0a"},{"town":"元町一条東七丁目","koaza":"","lat":43.210798,"lng":141.769965,"version":"13.0b/18.0a"},{"town":"元町一条東八丁目","koaza":"","lat":43.211101,"lng":141.771675,"version":"13.0b/18.0a"},{"town":"元町一条東九丁目","koaza":"","lat":43.211553,"lng":141.772575,"version":"13.0b/18.0a"},{"town":"元町二条西一丁目","koaza":"","lat":43.207941,"lng":141.762516,"version":"13.0b/18.0a"},{"town":"元町二条西二丁目","koaza":"","lat":43.207539,"lng":141.76203,"version":"13.0b/18.0a"},{"town":"元町二条東一丁目","koaza":"","lat":43.208083,"lng":141.76315,"version":"13.0b/18.0a"},{"town":"元町二条東二丁目","koaza":"","lat":43.208424,"lng":141.763914,"version":"13.0b/18.0a"},{"town":"元町二条東三丁目","koaza":"","lat":43.208993,"lng":141.765242,"version":"13.0b/18.0a"},{"town":"元町二条東四丁目","koaza":"","lat":43.210566,"lng":141.767136,"version":"13.0b/18.0a"},{"town":"元町二条東五丁目","koaza":"","lat":43.20996,"lng":141.767646,"version":"13.0b/18.0a"},{"town":"元町二条東六丁目","koaza":"","lat":43.210793,"lng":141.768102,"version":"13.0b/18.0a"},{"town":"元町二条東七丁目","koaza":"","lat":43.211734,"lng":141.768962,"version":"13.0b/18.0a"},{"town":"元町二条東八丁目","koaza":"","lat":43.212381,"lng":141.770403,"version":"13.0b/18.0a"},{"town":"元町二条東九丁目","koaza":"","lat":43.213096,"lng":141.770983,"version":"13.0b/18.0a"},{"town":"元町三条東四丁目","koaza":"","lat":43.2103,"lng":141.765901,"version":"13.0b/18.0a"},{"town":"元町三条東五丁目","koaza":"","lat":43.211374,"lng":141.766302,"version":"13.0b/18.0a"},{"town":"大和一条一丁目","koaza":"","lat":43.197486,"lng":141.747684,"version":"13.0b/18.0a"},{"town":"大和一条二丁目","koaza":"","lat":43.195078,"lng":141.745584,"version":"13.0b/18.0a"},{"town":"大和一条三丁目","koaza":"","lat":43.19428,"lng":141.744195,"version":"13.0b/18.0a"},{"town":"大和一条四丁目","koaza":"","lat":43.193717,"lng":141.742888,"version":"13.0b/18.0a"},{"town":"大和一条五丁目","koaza":"","lat":43.192828,"lng":141.741348,"version":"13.0b/18.0a"},{"town":"大和一条六丁目","koaza":"","lat":43.191936,"lng":141.739758,"version":"13.0b/18.0a"},{"town":"大和一条七丁目","koaza":"","lat":43.191167,"lng":141.738153,"version":"13.0b/18.0a"},{"town":"大和一条八丁目","koaza":"","lat":43.190136,"lng":141.735698,"version":"13.0b/18.0a"},{"town":"大和一条九丁目","koaza":"","lat":43.189015,"lng":141.732343,"version":"13.0b/18.0a"},{"town":"大和二条二丁目","koaza":"","lat":43.193163,"lng":141.747451,"version":"13.0b/18.0a"},{"town":"大和二条三丁目","koaza":"","lat":43.192101,"lng":141.745879,"version":"13.0b/18.0a"},{"town":"大和二条四丁目","koaza":"","lat":43.191286,"lng":141.744664,"version":"13.0b/18.0a"},{"town":"大和二条五丁目","koaza":"","lat":43.190608,"lng":141.74318,"version":"13.0b/18.0a"},{"town":"大和二条六丁目","koaza":"","lat":43.189813,"lng":141.741661,"version":"13.0b/18.0a"},{"town":"大和二条七丁目","koaza":"","lat":43.189093,"lng":141.740222,"version":"13.0b/18.0a"},{"town":"大和二条八丁目","koaza":"","lat":43.188183,"lng":141.738096,"version":"13.0b/18.0a"},{"town":"大和二条九丁目","koaza":"","lat":43.186317,"lng":141.734092,"version":"13.0b/18.0a"},{"town":"大和三条三丁目","koaza":"","lat":43.190848,"lng":141.747345,"version":"13.0b/18.0a"},{"town":"大和三条四丁目","koaza":"","lat":43.1899,"lng":141.746159,"version":"13.0b/18.0a"},{"town":"大和三条五丁目","koaza":"","lat":43.189072,"lng":141.744651,"version":"13.0b/18.0a"},{"town":"大和三条六丁目","koaza":"","lat":43.188301,"lng":141.743038,"version":"13.0b/18.0a"},{"town":"大和三条七丁目","koaza":"","lat":43.187163,"lng":141.741475,"version":"13.0b/18.0a"},{"town":"大和三条八丁目","koaza":"","lat":43.186922,"lng":141.739702,"version":"13.0b/18.0a"},{"town":"大和三条九丁目","koaza":"","lat":43.186053,"lng":141.738349,"version":"13.0b/18.0a"},{"town":"大和四条四丁目","koaza":"","lat":43.188624,"lng":141.746954,"version":"13.0b/18.0a"},{"town":"大和四条五丁目","koaza":"","lat":43.1877,"lng":141.745796,"version":"13.0b/18.0a"},{"town":"大和四条六丁目","koaza":"","lat":43.187176,"lng":141.744154,"version":"13.0b/18.0a"},{"town":"大和四条七丁目","koaza":"","lat":43.185304,"lng":141.74498,"version":"13.0b/18.0a"},{"town":"大和四条八丁目","koaza":"","lat":43.183705,"lng":141.741587,"version":"13.0b/18.0a"},{"town":"大和町","koaza":"","lat":43.181375,"lng":141.742346,"version":"13.0b/18.0a"},{"town":"若駒一丁目","koaza":"","lat":43.19915,"lng":141.796647,"version":"13.0b/18.0a"},{"town":"若駒二丁目","koaza":"","lat":43.198407,"lng":141.794241,"version":"13.0b/18.0a"},{"town":"若駒三丁目","koaza":"","lat":43.197934,"lng":141.792073,"version":"13.0b/18.0a"},{"town":"若松町","koaza":"","lat":43.20002,"lng":141.735086,"version":"13.0b/18.0a"},{"town":"十条西十八丁目","koaza":"","lat":43.188931,"lng":141.755694,"version":"14.0b/19.0a"},{"town":"十条西十九丁目","koaza":"","lat":43.188323,"lng":141.754857,"version":"14.0b/19.0a"},{"town":"十条西一丁目","koaza":"","lat":43.197341,"lng":141.772115,"version":"14.0b/19.0a"},{"town":"十条西二十丁目","koaza":"","lat":43.188273,"lng":141.753778,"version":"14.0b/19.0a"},{"town":"十条西二十一丁目","koaza":"","lat":43.187694,"lng":141.753057,"version":"14.0b/19.0a"},{"town":"十条西二十二丁目","koaza":"","lat":43.187522,"lng":141.751914,"version":"14.0b/19.0a"},{"town":"十条西二十三丁目","koaza":"","lat":43.186334,"lng":141.749971,"version":"14.0b/19.0a"},{"town":"十条西二丁目","koaza":"","lat":43.196894,"lng":141.771126,"version":"14.0b/19.0a"},{"town":"十条西三丁目","koaza":"","lat":43.196335,"lng":141.770123,"version":"14.0b/19.0a"},{"town":"十条西四丁目","koaza":"","lat":43.195859,"lng":141.769175,"version":"14.0b/19.0a"},{"town":"十条西五丁目","koaza":"","lat":43.195361,"lng":141.768175,"version":"14.0b/19.0a"},{"town":"十条東一丁目","koaza":"","lat":43.197871,"lng":141.772934,"version":"14.0b/19.0a"},{"town":"十条東二丁目","koaza":"","lat":43.197932,"lng":141.774231,"version":"14.0b/19.0a"},{"town":"十条東三丁目","koaza":"","lat":43.198374,"lng":141.775065,"version":"14.0b/19.0a"},{"town":"十条東四丁目","koaza":"","lat":43.199103,"lng":141.775566,"version":"14.0b/19.0a"},{"town":"十条東五丁目","koaza":"","lat":43.199833,"lng":141.776477,"version":"14.0b/19.0a"},{"town":"十条東六丁目","koaza":"","lat":43.200367,"lng":141.777462,"version":"14.0b/19.0a"},{"town":"十条東七丁目","koaza":"","lat":43.200903,"lng":141.778272,"version":"14.0b/19.0a"},{"town":"十一条西一丁目","koaza":"","lat":43.196656,"lng":141.77266,"version":"14.0b/19.0a"},{"town":"十一条西二丁目","koaza":"","lat":43.196071,"lng":141.771742,"version":"14.0b/19.0a"},{"town":"十一条西三丁目","koaza":"","lat":43.195607,"lng":141.770805,"version":"14.0b/19.0a"},{"town":"十一条西四丁目","koaza":"","lat":43.19513,"lng":141.769861,"version":"14.0b/19.0a"},{"town":"十一条西五丁目","koaza":"","lat":43.194626,"lng":141.768854,"version":"14.0b/19.0a"},{"town":"十一条東一丁目","koaza":"","lat":43.197056,"lng":141.773698,"version":"14.0b/19.0a"},{"town":"十二条西一丁目","koaza":"","lat":43.19579,"lng":141.77354,"version":"14.0b/19.0a"},{"town":"十二条西二丁目","koaza":"","lat":43.195119,"lng":141.77272,"version":"14.0b/19.0a"},{"town":"十二条西三丁目","koaza":"","lat":43.194844,"lng":141.771383,"version":"14.0b/19.0a"},{"town":"十二条西四丁目","koaza":"","lat":43.194543,"lng":141.770412,"version":"14.0b/19.0a"},{"town":"十二条西五丁目","koaza":"","lat":43.194012,"lng":141.769595,"version":"14.0b/19.0a"},{"town":"十二条東一丁目","koaza":"","lat":43.196322,"lng":141.774207,"version":"14.0b/19.0a"},{"town":"十三条西一丁目","koaza":"","lat":43.195139,"lng":141.774054,"version":"14.0b/19.0a"},{"town":"十三条西三丁目","koaza":"","lat":43.194237,"lng":141.772078,"version":"14.0b/19.0a"},{"town":"十三条西四丁目","koaza":"","lat":43.193962,"lng":141.770961,"version":"14.0b/19.0a"},{"town":"十三条西五丁目","koaza":"","lat":43.193321,"lng":141.770123,"version":"14.0b/19.0a"},{"town":"一条西十丁目","koaza":"","lat":43.20116,"lng":141.755958,"version":"14.0b/19.0a"},{"town":"一条西十一丁目","koaza":"","lat":43.200869,"lng":141.754589,"version":"14.0b/19.0a"},{"town":"一条西十二丁目","koaza":"","lat":43.200427,"lng":141.753657,"version":"14.0b/19.0a"},{"town":"一条西十三丁目","koaza":"","lat":43.200102,"lng":141.752691,"version":"14.0b/19.0a"},{"town":"一条西十四丁目","koaza":"","lat":43.199498,"lng":141.751783,"version":"14.0b/19.0a"},{"town":"一条西一丁目","koaza":"","lat":43.205339,"lng":141.764365,"version":"14.0b/19.0a"},{"town":"一条西二丁目","koaza":"","lat":43.204868,"lng":141.763302,"version":"14.0b/19.0a"},{"town":"一条西三丁目","koaza":"","lat":43.204382,"lng":141.762359,"version":"14.0b/19.0a"},{"town":"一条西四丁目","koaza":"","lat":43.203917,"lng":141.761441,"version":"14.0b/19.0a"},{"town":"一条西五丁目","koaza":"","lat":43.203451,"lng":141.760508,"version":"14.0b/19.0a"},{"town":"一条西六丁目","koaza":"","lat":43.202992,"lng":141.759588,"version":"14.0b/19.0a"},{"town":"一条西七丁目","koaza":"","lat":43.202569,"lng":141.758818,"version":"14.0b/19.0a"},{"town":"一条西八丁目","koaza":"","lat":43.202052,"lng":141.757812,"version":"14.0b/19.0a"},{"town":"一条西九丁目","koaza":"","lat":43.201563,"lng":141.756822,"version":"14.0b/19.0a"},{"town":"一条東十丁目","koaza":"","lat":43.21066,"lng":141.773203,"version":"14.0b/19.0a"},{"town":"一条東十一丁目","koaza":"","lat":43.211346,"lng":141.774708,"version":"14.0b/19.0a"},{"town":"一条東十二丁目","koaza":"","lat":43.212429,"lng":141.777111,"version":"14.0b/19.0a"},{"town":"一条東十三丁目","koaza":"","lat":43.213316,"lng":141.778422,"version":"14.0b/19.0a"},{"town":"一条東十四丁目","koaza":"","lat":43.214371,"lng":141.780151,"version":"14.0b/19.0a"},{"town":"一条東十五丁目","koaza":"","lat":43.215811,"lng":141.781807,"version":"14.0b/19.0a"},{"town":"一条東十六丁目","koaza":"","lat":43.217104,"lng":141.783336,"version":"14.0b/19.0a"},{"town":"一条東十七丁目","koaza":"","lat":43.218375,"lng":141.784513,"version":"14.0b/19.0a"},{"town":"一条東一丁目","koaza":"","lat":43.206219,"lng":141.764852,"version":"14.0b/19.0a"},{"town":"一条東二丁目","koaza":"","lat":43.20665,"lng":141.76605,"version":"14.0b/19.0a"},{"town":"一条東三丁目","koaza":"","lat":43.207101,"lng":141.766949,"version":"14.0b/19.0a"},{"town":"一条東四丁目","koaza":"","lat":43.207548,"lng":141.767829,"version":"14.0b/19.0a"},{"town":"一条東五丁目","koaza":"","lat":43.208073,"lng":141.768536,"version":"14.0b/19.0a"},{"town":"一条東六丁目","koaza":"","lat":43.208509,"lng":141.769663,"version":"14.0b/19.0a"},{"town":"一条東七丁目","koaza":"","lat":43.209194,"lng":141.770325,"version":"14.0b/19.0a"},{"town":"一条東八丁目","koaza":"","lat":43.209603,"lng":141.771386,"version":"14.0b/19.0a"},{"town":"一条東九丁目","koaza":"","lat":43.210071,"lng":141.772381,"version":"14.0b/19.0a"},{"town":"二条西十丁目","koaza":"","lat":43.200511,"lng":141.75653,"version":"14.0b/19.0a"},{"town":"二条西十一丁目","koaza":"","lat":43.199994,"lng":141.755515,"version":"14.0b/19.0a"},{"town":"二条西十二丁目","koaza":"","lat":43.199499,"lng":141.754556,"version":"14.0b/19.0a"},{"town":"二条西十三丁目","koaza":"","lat":43.19938,"lng":141.753287,"version":"14.0b/19.0a"},{"town":"二条西十四丁目","koaza":"","lat":43.198887,"lng":141.752402,"version":"14.0b/19.0a"},{"town":"二条西十五丁目","koaza":"","lat":43.198736,"lng":141.751177,"version":"14.0b/19.0a"},{"town":"二条西十六丁目","koaza":"","lat":43.198137,"lng":141.75037,"version":"14.0b/19.0a"},{"town":"二条西一丁目","koaza":"","lat":43.204641,"lng":141.765014,"version":"14.0b/19.0a"},{"town":"二条西二丁目","koaza":"","lat":43.204269,"lng":141.763885,"version":"14.0b/19.0a"},{"town":"二条西三丁目","koaza":"","lat":43.203792,"lng":141.762936,"version":"14.0b/19.0a"},{"town":"二条西四丁目","koaza":"","lat":43.203292,"lng":141.76205,"version":"14.0b/19.0a"},{"town":"二条西五丁目","koaza":"","lat":43.202857,"lng":141.761081,"version":"14.0b/19.0a"},{"town":"二条西六丁目","koaza":"","lat":43.20243,"lng":141.760167,"version":"14.0b/19.0a"},{"town":"二条西七丁目","koaza":"","lat":43.201972,"lng":141.759283,"version":"14.0b/19.0a"},{"town":"二条西八丁目","koaza":"","lat":43.201453,"lng":141.758418,"version":"14.0b/19.0a"},{"town":"二条西九丁目","koaza":"","lat":43.200994,"lng":141.757503,"version":"14.0b/19.0a"},{"town":"二条東十丁目","koaza":"","lat":43.209905,"lng":141.774042,"version":"14.0b/19.0a"},{"town":"二条東十一丁目","koaza":"","lat":43.210618,"lng":141.775893,"version":"14.0b/19.0a"},{"town":"二条東十二丁目","koaza":"","lat":43.211592,"lng":141.77717,"version":"14.0b/19.0a"},{"town":"二条東十三丁目","koaza":"","lat":43.212471,"lng":141.779084,"version":"14.0b/19.0a"},{"town":"二条東十四丁目","koaza":"","lat":43.213344,"lng":141.780777,"version":"14.0b/19.0a"},{"town":"二条東十五丁目","koaza":"","lat":43.214861,"lng":141.783517,"version":"14.0b/19.0a"},{"town":"二条東十六丁目","koaza":"","lat":43.216381,"lng":141.784721,"version":"14.0b/19.0a"},{"town":"二条東十七丁目","koaza":"","lat":43.217702,"lng":141.785709,"version":"14.0b/19.0a"},{"town":"二条東十八丁目","koaza":"","lat":43.219096,"lng":141.786622,"version":"14.0b/19.0a"},{"town":"二条東一丁目","koaza":"","lat":43.205212,"lng":141.765829,"version":"14.0b/19.0a"},{"town":"二条東二丁目","koaza":"","lat":43.205753,"lng":141.767025,"version":"14.0b/19.0a"},{"town":"二条東三丁目","koaza":"","lat":43.206166,"lng":141.767839,"version":"14.0b/19.0a"},{"town":"二条東四丁目","koaza":"","lat":43.206604,"lng":141.768773,"version":"14.0b/19.0a"},{"town":"二条東五丁目","koaza":"","lat":43.206901,"lng":141.769883,"version":"14.0b/19.0a"},{"town":"二条東六丁目","koaza":"","lat":43.207479,"lng":141.770886,"version":"14.0b/19.0a"},{"town":"二条東七丁目","koaza":"","lat":43.208302,"lng":141.771236,"version":"14.0b/19.0a"},{"town":"二条東八丁目","koaza":"","lat":43.208694,"lng":141.772205,"version":"14.0b/19.0a"},{"town":"二条東九丁目","koaza":"","lat":43.209405,"lng":141.773086,"version":"14.0b/19.0a"},{"town":"三条西十丁目","koaza":"","lat":43.19985,"lng":141.757169,"version":"14.0b/19.0a"},{"town":"三条西十一丁目","koaza":"","lat":43.199348,"lng":141.756133,"version":"14.0b/19.0a"},{"town":"三条西十二丁目","koaza":"","lat":43.198866,"lng":141.755156,"version":"14.0b/19.0a"},{"town":"三条西十三丁目","koaza":"","lat":43.19878,"lng":141.754018,"version":"14.0b/19.0a"},{"town":"三条西十四丁目","koaza":"","lat":43.198268,"lng":141.753015,"version":"14.0b/19.0a"},{"town":"三条西十五丁目","koaza":"","lat":43.19778,"lng":141.752086,"version":"14.0b/19.0a"},{"town":"三条西十六丁目","koaza":"","lat":43.197323,"lng":141.751143,"version":"14.0b/19.0a"},{"town":"三条西十七丁目","koaza":"","lat":43.197235,"lng":141.75002,"version":"14.0b/19.0a"},{"town":"三条西十八丁目","koaza":"","lat":43.196393,"lng":141.74936,"version":"14.0b/19.0a"},{"town":"三条西一丁目","koaza":"","lat":43.204006,"lng":141.765771,"version":"14.0b/19.0a"},{"town":"三条西二丁目","koaza":"","lat":43.203539,"lng":141.764604,"version":"14.0b/19.0a"},{"town":"三条西三丁目","koaza":"","lat":43.203145,"lng":141.763741,"version":"14.0b/19.0a"},{"town":"三条西四丁目","koaza":"","lat":43.202688,"lng":141.762658,"version":"14.0b/19.0a"},{"town":"三条西五丁目","koaza":"","lat":43.20218,"lng":141.761771,"version":"14.0b/19.0a"},{"town":"三条西六丁目","koaza":"","lat":43.201742,"lng":141.76086,"version":"14.0b/19.0a"},{"town":"三条西七丁目","koaza":"","lat":43.201338,"lng":141.759891,"version":"14.0b/19.0a"},{"town":"三条西八丁目","koaza":"","lat":43.200845,"lng":141.759138,"version":"14.0b/19.0a"},{"town":"三条西九丁目","koaza":"","lat":43.200326,"lng":141.758151,"version":"14.0b/19.0a"},{"town":"三条東十丁目","koaza":"","lat":43.209203,"lng":141.774641,"version":"14.0b/19.0a"},{"town":"三条東十一丁目","koaza":"","lat":43.209784,"lng":141.776353,"version":"14.0b/19.0a"},{"town":"三条東十二丁目","koaza":"","lat":43.21062,"lng":141.777768,"version":"14.0b/19.0a"},{"town":"三条東十三丁目","koaza":"","lat":43.211628,"lng":141.779587,"version":"14.0b/19.0a"},{"town":"三条東十四丁目","koaza":"","lat":43.212581,"lng":141.781453,"version":"14.0b/19.0a"},{"town":"三条東十六丁目","koaza":"","lat":43.217171,"lng":141.786804,"version":"14.0b/19.0a"},{"town":"三条東十七丁目","koaza":"","lat":43.218102,"lng":141.788897,"version":"14.0b/19.0a"},{"town":"三条東十八丁目","koaza":"","lat":43.219272,"lng":141.790842,"version":"14.0b/19.0a"},{"town":"三条東一丁目","koaza":"","lat":43.204554,"lng":141.766592,"version":"14.0b/19.0a"},{"town":"三条東二丁目","koaza":"","lat":43.205049,"lng":141.767543,"version":"14.0b/19.0a"},{"town":"三条東三丁目","koaza":"","lat":43.205443,"lng":141.76838,"version":"14.0b/19.0a"},{"town":"三条東四丁目","koaza":"","lat":43.205989,"lng":141.769526,"version":"14.0b/19.0a"},{"town":"三条東七丁目","koaza":"","lat":43.207716,"lng":141.771964,"version":"14.0b/19.0a"},{"town":"三条東八丁目","koaza":"","lat":43.208165,"lng":141.77233,"version":"14.0b/19.0a"},{"town":"三条東九丁目","koaza":"","lat":43.208267,"lng":141.773557,"version":"14.0b/19.0a"},{"town":"四条西十丁目","koaza":"","lat":43.199103,"lng":141.757886,"version":"14.0b/19.0a"},{"town":"四条西十一丁目","koaza":"","lat":43.198597,"lng":141.756839,"version":"14.0b/19.0a"},{"town":"四条西十二丁目","koaza":"","lat":43.198066,"lng":141.755768,"version":"14.0b/19.0a"},{"town":"四条西十三丁目","koaza":"","lat":43.198031,"lng":141.754582,"version":"14.0b/19.0a"},{"town":"四条西十四丁目","koaza":"","lat":43.197551,"lng":141.753682,"version":"14.0b/19.0a"},{"town":"四条西十五丁目","koaza":"","lat":43.197124,"lng":141.752614,"version":"14.0b/19.0a"},{"town":"四条西十六丁目","koaza":"","lat":43.196597,"lng":141.751794,"version":"14.0b/19.0a"},{"town":"四条西十七丁目","koaza":"","lat":43.196148,"lng":141.750893,"version":"14.0b/19.0a"},{"town":"四条西十八丁目","koaza":"","lat":43.195444,"lng":141.749694,"version":"14.0b/19.0a"},{"town":"四条西一丁目","koaza":"","lat":43.203299,"lng":141.766293,"version":"14.0b/19.0a"},{"town":"四条西二丁目","koaza":"","lat":43.202812,"lng":141.765313,"version":"14.0b/19.0a"},{"town":"四条西三丁目","koaza":"","lat":43.202347,"lng":141.764398,"version":"14.0b/19.0a"},{"town":"四条西四丁目","koaza":"","lat":43.20188,"lng":141.76346,"version":"14.0b/19.0a"},{"town":"四条西五丁目","koaza":"","lat":43.20141,"lng":141.762497,"version":"14.0b/19.0a"},{"town":"四条西六丁目","koaza":"","lat":43.200951,"lng":141.761567,"version":"14.0b/19.0a"},{"town":"四条西七丁目","koaza":"","lat":43.200517,"lng":141.76065,"version":"14.0b/19.0a"},{"town":"四条西八丁目","koaza":"","lat":43.200057,"lng":141.759736,"version":"14.0b/19.0a"},{"town":"四条西九丁目","koaza":"","lat":43.199584,"lng":141.758843,"version":"14.0b/19.0a"},{"town":"四条東十丁目","koaza":"","lat":43.208556,"lng":141.775243,"version":"14.0b/19.0a"},{"town":"四条東十一丁目","koaza":"","lat":43.209084,"lng":141.776964,"version":"14.0b/19.0a"},{"town":"四条東十二丁目","koaza":"","lat":43.210341,"lng":141.779114,"version":"14.0b/19.0a"},{"town":"四条東十三丁目","koaza":"","lat":43.210997,"lng":141.780421,"version":"14.0b/19.0a"},{"town":"四条東十四丁目","koaza":"","lat":43.211874,"lng":141.782122,"version":"14.0b/19.0a"},{"town":"四条東十五丁目","koaza":"","lat":43.212997,"lng":141.783269,"version":"14.0b/19.0a"},{"town":"四条東十六丁目","koaza":"","lat":43.214502,"lng":141.786309,"version":"14.0b/19.0a"},{"town":"四条東十七丁目","koaza":"","lat":43.216363,"lng":141.79002,"version":"14.0b/19.0a"},{"town":"四条東十八丁目","koaza":"","lat":43.217699,"lng":141.79288,"version":"14.0b/19.0a"},{"town":"四条東一丁目","koaza":"","lat":43.203847,"lng":141.767122,"version":"14.0b/19.0a"},{"town":"四条東二丁目","koaza":"","lat":43.204319,"lng":141.76824,"version":"14.0b/19.0a"},{"town":"四条東三丁目","koaza":"","lat":43.204758,"lng":141.769167,"version":"14.0b/19.0a"},{"town":"四条東四丁目","koaza":"","lat":43.205432,"lng":141.769915,"version":"14.0b/19.0a"},{"town":"四条東五丁目","koaza":"","lat":43.20609,"lng":141.770692,"version":"14.0b/19.0a"},{"town":"四条東六丁目","koaza":"","lat":43.206563,"lng":141.771491,"version":"14.0b/19.0a"},{"town":"四条東七丁目","koaza":"","lat":43.206997,"lng":141.772538,"version":"14.0b/19.0a"},{"town":"四条東八丁目","koaza":"","lat":43.20754,"lng":141.772904,"version":"14.0b/19.0a"},{"town":"四条東九丁目","koaza":"","lat":43.207561,"lng":141.774281,"version":"14.0b/19.0a"},{"town":"五条西十丁目","koaza":"","lat":43.198331,"lng":141.758604,"version":"14.0b/19.0a"},{"town":"五条西十一丁目","koaza":"","lat":43.197739,"lng":141.757466,"version":"14.0b/19.0a"},{"town":"五条西十二丁目","koaza":"","lat":43.197306,"lng":141.756599,"version":"14.0b/19.0a"},{"town":"五条西十三丁目","koaza":"","lat":43.197247,"lng":141.755322,"version":"14.0b/19.0a"},{"town":"五条西十四丁目","koaza":"","lat":43.196767,"lng":141.754412,"version":"14.0b/19.0a"},{"town":"五条西十五丁目","koaza":"","lat":43.196284,"lng":141.753463,"version":"14.0b/19.0a"},{"town":"五条西十六丁目","koaza":"","lat":43.19581,"lng":141.752524,"version":"14.0b/19.0a"},{"town":"五条西十七丁目","koaza":"","lat":43.195351,"lng":141.751618,"version":"14.0b/19.0a"},{"town":"五条西十八丁目","koaza":"","lat":43.194875,"lng":141.750665,"version":"14.0b/19.0a"},{"town":"五条西十九丁目","koaza":"","lat":43.194253,"lng":141.749675,"version":"14.0b/19.0a"},{"town":"五条西一丁目","koaza":"","lat":43.202599,"lng":141.766961,"version":"14.0b/19.0a"},{"town":"五条西二丁目","koaza":"","lat":43.202118,"lng":141.765971,"version":"14.0b/19.0a"},{"town":"五条西三丁目","koaza":"","lat":43.201604,"lng":141.76496,"version":"14.0b/19.0a"},{"town":"五条西四丁目","koaza":"","lat":43.201146,"lng":141.764131,"version":"14.0b/19.0a"},{"town":"五条西五丁目","koaza":"","lat":43.200618,"lng":141.763206,"version":"14.0b/19.0a"},{"town":"五条西六丁目","koaza":"","lat":43.20016,"lng":141.762272,"version":"14.0b/19.0a"},{"town":"五条西七丁目","koaza":"","lat":43.199718,"lng":141.761231,"version":"14.0b/19.0a"},{"town":"五条西八丁目","koaza":"","lat":43.199318,"lng":141.760556,"version":"14.0b/19.0a"},{"town":"五条西九丁目","koaza":"","lat":43.19881,"lng":141.75955,"version":"14.0b/19.0a"},{"town":"五条東十丁目","koaza":"","lat":43.207663,"lng":141.776013,"version":"14.0b/19.0a"},{"town":"五条東十一丁目","koaza":"","lat":43.208147,"lng":141.777831,"version":"14.0b/19.0a"},{"town":"五条東十二丁目","koaza":"","lat":43.209118,"lng":141.779915,"version":"14.0b/19.0a"},{"town":"五条東十三丁目","koaza":"","lat":43.209863,"lng":141.781441,"version":"14.0b/19.0a"},{"town":"五条東十四丁目","koaza":"","lat":43.210838,"lng":141.782987,"version":"14.0b/19.0a"},{"town":"五条東十五丁目","koaza":"","lat":43.211917,"lng":141.785464,"version":"14.0b/19.0a"},{"town":"五条東十六丁目","koaza":"","lat":43.213578,"lng":141.788327,"version":"14.0b/19.0a"},{"town":"五条東十七丁目","koaza":"","lat":43.214315,"lng":141.791562,"version":"14.0b/19.0a"},{"town":"五条東十八丁目","koaza":"","lat":43.215392,"lng":141.794622,"version":"14.0b/19.0a"},{"town":"五条東一丁目","koaza":"","lat":43.203097,"lng":141.767991,"version":"14.0b/19.0a"},{"town":"五条東二丁目","koaza":"","lat":43.203399,"lng":141.769127,"version":"14.0b/19.0a"},{"town":"五条東三丁目","koaza":"","lat":43.20391,"lng":141.769985,"version":"14.0b/19.0a"},{"town":"五条東四丁目","koaza":"","lat":43.204792,"lng":141.770379,"version":"14.0b/19.0a"},{"town":"五条東五丁目","koaza":"","lat":43.20532,"lng":141.771404,"version":"14.0b/19.0a"},{"town":"五条東六丁目","koaza":"","lat":43.205904,"lng":141.772401,"version":"14.0b/19.0a"},{"town":"五条東七丁目","koaza":"","lat":43.206389,"lng":141.773402,"version":"14.0b/19.0a"},{"town":"五条東八丁目","koaza":"","lat":43.206358,"lng":141.774844,"version":"14.0b/19.0a"},{"town":"六条西十丁目","koaza":"","lat":43.197454,"lng":141.759438,"version":"14.0b/19.0a"},{"town":"六条西十一丁目","koaza":"","lat":43.196937,"lng":141.75842,"version":"14.0b/19.0a"},{"town":"六条西十二丁目","koaza":"","lat":43.196433,"lng":141.757441,"version":"14.0b/19.0a"},{"town":"六条西十三丁目","koaza":"","lat":43.196259,"lng":141.75638,"version":"14.0b/19.0a"},{"town":"六条西十四丁目","koaza":"","lat":43.195705,"lng":141.755445,"version":"14.0b/19.0a"},{"town":"六条西十五丁目","koaza":"","lat":43.195214,"lng":141.754505,"version":"14.0b/19.0a"},{"town":"六条西十六丁目","koaza":"","lat":43.194745,"lng":141.753507,"version":"14.0b/19.0a"},{"town":"六条西十七丁目","koaza":"","lat":43.194636,"lng":141.752302,"version":"14.0b/19.0a"},{"town":"六条西十八丁目","koaza":"","lat":43.194156,"lng":141.751361,"version":"14.0b/19.0a"},{"town":"六条西十九丁目","koaza":"","lat":43.193681,"lng":141.750455,"version":"14.0b/19.0a"},{"town":"六条西一丁目","koaza":"","lat":43.201822,"lng":141.767698,"version":"14.0b/19.0a"},{"town":"六条西二十丁目","koaza":"","lat":43.19299,"lng":141.749374,"version":"14.0b/19.0a"},{"town":"六条西二丁目","koaza":"","lat":43.201226,"lng":141.766805,"version":"14.0b/19.0a"},{"town":"六条西三丁目","koaza":"","lat":43.200775,"lng":141.765871,"version":"14.0b/19.0a"},{"town":"六条西四丁目","koaza":"","lat":43.200264,"lng":141.764967,"version":"14.0b/19.0a"},{"town":"六条西五丁目","koaza":"","lat":43.199728,"lng":141.764053,"version":"14.0b/19.0a"},{"town":"六条西六丁目","koaza":"","lat":43.199253,"lng":141.763125,"version":"14.0b/19.0a"},{"town":"六条西七丁目","koaza":"","lat":43.199033,"lng":141.762026,"version":"14.0b/19.0a"},{"town":"六条西八丁目","koaza":"","lat":43.198379,"lng":141.7613,"version":"14.0b/19.0a"},{"town":"六条西九丁目","koaza":"","lat":43.19792,"lng":141.760392,"version":"14.0b/19.0a"},{"town":"六条東十丁目","koaza":"","lat":43.206577,"lng":141.776975,"version":"14.0b/19.0a"},{"town":"六条東十一丁目","koaza":"","lat":43.206623,"lng":141.779055,"version":"14.0b/19.0a"},{"town":"六条東十二丁目","koaza":"","lat":43.207596,"lng":141.780794,"version":"14.0b/19.0a"},{"town":"六条東十三丁目","koaza":"","lat":43.208397,"lng":141.782931,"version":"14.0b/19.0a"},{"town":"六条東十四丁目","koaza":"","lat":43.209377,"lng":141.784117,"version":"14.0b/19.0a"},{"town":"六条東一丁目","koaza":"","lat":43.202384,"lng":141.768671,"version":"14.0b/19.0a"},{"town":"六条東二丁目","koaza":"","lat":43.202748,"lng":141.769754,"version":"14.0b/19.0a"},{"town":"六条東三丁目","koaza":"","lat":43.202947,"lng":141.770768,"version":"14.0b/19.0a"},{"town":"六条東四丁目","koaza":"","lat":43.203757,"lng":141.771791,"version":"14.0b/19.0a"},{"town":"六条東五丁目","koaza":"","lat":43.204639,"lng":141.772034,"version":"14.0b/19.0a"},{"town":"六条東六丁目","koaza":"","lat":43.204608,"lng":141.773351,"version":"14.0b/19.0a"},{"town":"六条東七丁目","koaza":"","lat":43.205387,"lng":141.774635,"version":"14.0b/19.0a"},{"town":"六条東八丁目","koaza":"","lat":43.205173,"lng":141.775241,"version":"14.0b/19.0a"},{"town":"六条東九丁目","koaza":"","lat":43.205645,"lng":141.776141,"version":"14.0b/19.0a"},{"town":"七条西十丁目","koaza":"","lat":43.196204,"lng":141.760625,"version":"14.0b/19.0a"},{"town":"七条西十一丁目","koaza":"","lat":43.195707,"lng":141.759633,"version":"14.0b/19.0a"},{"town":"七条西十二丁目","koaza":"","lat":43.195205,"lng":141.758623,"version":"14.0b/19.0a"},{"town":"七条西十三丁目","koaza":"","lat":43.194725,"lng":141.757668,"version":"14.0b/19.0a"},{"town":"七条西十四丁目","koaza":"","lat":43.194293,"lng":141.756816,"version":"14.0b/19.0a"},{"town":"七条西十五丁目","koaza":"","lat":43.193804,"lng":141.755849,"version":"14.0b/19.0a"},{"town":"七条西十六丁目","koaza":"","lat":43.193267,"lng":141.7548,"version":"14.0b/19.0a"},{"town":"七条西十七丁目","koaza":"","lat":43.193647,"lng":141.753383,"version":"14.0b/19.0a"},{"town":"七条西十八丁目","koaza":"","lat":43.193104,"lng":141.752356,"version":"14.0b/19.0a"},{"town":"七条西十九丁目","koaza":"","lat":43.192622,"lng":141.751463,"version":"14.0b/19.0a"},{"town":"七条西一丁目","koaza":"","lat":43.200576,"lng":141.768676,"version":"14.0b/19.0a"},{"town":"七条西二十丁目","koaza":"","lat":43.192124,"lng":141.750513,"version":"14.0b/19.0a"},{"town":"七条西二十一丁目","koaza":"","lat":43.191645,"lng":141.749298,"version":"14.0b/19.0a"},{"town":"七条西二十二丁目","koaza":"","lat":43.190732,"lng":141.74886,"version":"14.0b/19.0a"},{"town":"七条西二丁目","koaza":"","lat":43.199919,"lng":141.768146,"version":"14.0b/19.0a"},{"town":"七条西三丁目","koaza":"","lat":43.199503,"lng":141.767089,"version":"14.0b/19.0a"},{"town":"七条西四丁目","koaza":"","lat":43.199003,"lng":141.766175,"version":"14.0b/19.0a"},{"town":"七条西五丁目","koaza":"","lat":43.198505,"lng":141.765209,"version":"14.0b/19.0a"},{"town":"七条西六丁目","koaza":"","lat":43.198031,"lng":141.764266,"version":"14.0b/19.0a"},{"town":"七条西七丁目","koaza":"","lat":43.197617,"lng":141.763372,"version":"14.0b/19.0a"},{"town":"七条西八丁目","koaza":"","lat":43.197181,"lng":141.762566,"version":"14.0b/19.0a"},{"town":"七条西九丁目","koaza":"","lat":43.196674,"lng":141.761566,"version":"14.0b/19.0a"},{"town":"七条東十丁目","koaza":"","lat":43.205507,"lng":141.777852,"version":"14.0b/19.0a"},{"town":"七条東十一丁目","koaza":"","lat":43.205244,"lng":141.780139,"version":"14.0b/19.0a"},{"town":"七条東十二丁目","koaza":"","lat":43.205854,"lng":141.782185,"version":"14.0b/19.0a"},{"town":"七条東十三丁目","koaza":"","lat":43.207055,"lng":141.783776,"version":"14.0b/19.0a"},{"town":"七条東十四丁目","koaza":"","lat":43.207626,"lng":141.784726,"version":"14.0b/19.0a"},{"town":"七条東一丁目","koaza":"","lat":43.201075,"lng":141.769878,"version":"14.0b/19.0a"},{"town":"七条東二丁目","koaza":"","lat":43.20167,"lng":141.770762,"version":"14.0b/19.0a"},{"town":"七条東三丁目","koaza":"","lat":43.20186,"lng":141.771656,"version":"14.0b/19.0a"},{"town":"七条東四丁目","koaza":"","lat":43.202341,"lng":141.772792,"version":"14.0b/19.0a"},{"town":"七条東五丁目","koaza":"","lat":43.202788,"lng":141.773114,"version":"14.0b/19.0a"},{"town":"七条東六丁目","koaza":"","lat":43.203411,"lng":141.774629,"version":"14.0b/19.0a"},{"town":"七条東七丁目","koaza":"","lat":43.203383,"lng":141.775737,"version":"14.0b/19.0a"},{"town":"七条東八丁目","koaza":"","lat":43.203828,"lng":141.776801,"version":"14.0b/19.0a"},{"town":"七条東九丁目","koaza":"","lat":43.204598,"lng":141.777357,"version":"14.0b/19.0a"},{"town":"八条西十丁目","koaza":"","lat":43.195124,"lng":141.76163,"version":"14.0b/19.0a"},{"town":"八条西十一丁目","koaza":"","lat":43.194625,"lng":141.760649,"version":"14.0b/19.0a"},{"town":"八条西十二丁目","koaza":"","lat":43.194128,"lng":141.759677,"version":"14.0b/19.0a"},{"town":"八条西十三丁目","koaza":"","lat":43.193648,"lng":141.758732,"version":"14.0b/19.0a"},{"town":"八条西十四丁目","koaza":"","lat":43.193203,"lng":141.757862,"version":"14.0b/19.0a"},{"town":"八条西十五丁目","koaza":"","lat":43.192723,"lng":141.756926,"version":"14.0b/19.0a"},{"town":"八条西十六丁目","koaza":"","lat":43.19223,"lng":141.755958,"version":"14.0b/19.0a"},{"town":"八条西十七丁目","koaza":"","lat":43.192155,"lng":141.754659,"version":"14.0b/19.0a"},{"town":"八条西十八丁目","koaza":"","lat":43.191667,"lng":141.753717,"version":"14.0b/19.0a"},{"town":"八条西十九丁目","koaza":"","lat":43.191193,"lng":141.752802,"version":"14.0b/19.0a"},{"town":"八条西一丁目","koaza":"","lat":43.199695,"lng":141.770031,"version":"14.0b/19.0a"},{"town":"八条西二十丁目","koaza":"","lat":43.190705,"lng":141.751845,"version":"14.0b/19.0a"},{"town":"八条西二十一丁目","koaza":"","lat":43.190167,"lng":141.75079,"version":"14.0b/19.0a"},{"town":"八条西二十二丁目","koaza":"","lat":43.189686,"lng":141.749865,"version":"14.0b/19.0a"},{"town":"八条西二十三丁目","koaza":"","lat":43.18909,"lng":141.748731,"version":"14.0b/19.0a"},{"town":"八条西二丁目","koaza":"","lat":43.19894,"lng":141.769088,"version":"14.0b/19.0a"},{"town":"八条西三丁目","koaza":"","lat":43.198447,"lng":141.768111,"version":"14.0b/19.0a"},{"town":"八条西四丁目","koaza":"","lat":43.197959,"lng":141.767174,"version":"14.0b/19.0a"},{"town":"八条西五丁目","koaza":"","lat":43.19734,"lng":141.766183,"version":"14.0b/19.0a"},{"town":"八条西六丁目","koaza":"","lat":43.196979,"lng":141.765263,"version":"14.0b/19.0a"},{"town":"八条西七丁目","koaza":"","lat":43.196618,"lng":141.764391,"version":"14.0b/19.0a"},{"town":"八条西八丁目","koaza":"","lat":43.196054,"lng":141.763456,"version":"14.0b/19.0a"},{"town":"八条西九丁目","koaza":"","lat":43.195605,"lng":141.762572,"version":"14.0b/19.0a"},{"town":"八条東十丁目","koaza":"","lat":43.202818,"lng":141.780099,"version":"14.0b/19.0a"},{"town":"八条東十一丁目","koaza":"","lat":43.2042,"lng":141.781701,"version":"14.0b/19.0a"},{"town":"八条東十二丁目","koaza":"","lat":43.20556,"lng":141.78377,"version":"14.0b/19.0a"},{"town":"八条東一丁目","koaza":"","lat":43.19987,"lng":141.771022,"version":"14.0b/19.0a"},{"town":"八条東二丁目","koaza":"","lat":43.200362,"lng":141.771988,"version":"14.0b/19.0a"},{"town":"八条東三丁目","koaza":"","lat":43.200956,"lng":141.772839,"version":"14.0b/19.0a"},{"town":"八条東四丁目","koaza":"","lat":43.201161,"lng":141.773869,"version":"14.0b/19.0a"},{"town":"八条東五丁目","koaza":"","lat":43.201703,"lng":141.774678,"version":"14.0b/19.0a"},{"town":"八条東六丁目","koaza":"","lat":43.202326,"lng":141.775557,"version":"14.0b/19.0a"},{"town":"九条西十丁目","koaza":"","lat":43.194074,"lng":141.762611,"version":"14.0b/19.0a"},{"town":"九条西十一丁目","koaza":"","lat":43.193569,"lng":141.761636,"version":"14.0b/19.0a"},{"town":"九条西十二丁目","koaza":"","lat":43.193078,"lng":141.760703,"version":"14.0b/19.0a"},{"town":"九条西十三丁目","koaza":"","lat":43.192597,"lng":141.759764,"version":"14.0b/19.0a"},{"town":"九条西十四丁目","koaza":"","lat":43.192144,"lng":141.758868,"version":"14.0b/19.0a"},{"town":"九条西十五丁目","koaza":"","lat":43.191643,"lng":141.757803,"version":"14.0b/19.0a"},{"town":"九条西十六丁目","koaza":"","lat":43.19118,"lng":141.756966,"version":"14.0b/19.0a"},