[{"town":"愛国町","koaza":"","lat":42.87171,"lng":143.217217,"version":"13.0b/18.0a"},{"town":"愛国町基線","koaza":"","lat":42.852631,"lng":143.202901,"version":"13.0b/18.0a"},{"town":"愛国町零号","koaza":"","lat":42.873022,"lng":143.215889,"version":"13.0b/18.0a"},{"town":"愛国町西一線","koaza":"","lat":42.853408,"lng":143.199397,"version":"13.0b/18.0a"},{"town":"愛国町東一線","koaza":"","lat":42.851696,"lng":143.209667,"version":"13.0b/18.0a"},{"town":"愛国町東二線","koaza":"","lat":42.850922,"lng":143.214963,"version":"13.0b/18.0a"},{"town":"愛国町東三線","koaza":"","lat":42.836259,"lng":143.211676,"version":"13.0b/18.0a"},{"town":"愛国町南十線","koaza":"","lat":42.882754,"lng":143.218393,"version":"13.0b/18.0a"},{"town":"愛国町南十一線","koaza":"","lat":42.877623,"lng":143.218104,"version":"13.0b/18.0a"},{"town":"愛国町南十二線","koaza":"","lat":42.874222,"lng":143.221907,"version":"13.0b/18.0a"},{"town":"愛国町南八線","koaza":"","lat":42.8925,"lng":143.2165,"version":"13.0b/18.0a"},{"town":"愛国町南九線","koaza":"","lat":42.887725,"lng":143.219483,"version":"13.0b/18.0a"},{"town":"泉町西十線","koaza":"","lat":42.727902,"lng":143.205666,"version":"13.0b/18.0a"},{"town":"泉町西十一線","koaza":"","lat":42.735905,"lng":143.202471,"version":"13.0b/18.0a"},{"town":"泉町西四線","koaza":"","lat":42.716791,"lng":143.241856,"version":"13.0b/18.0a"},{"town":"泉町西五線","koaza":"","lat":42.717994,"lng":143.235373,"version":"13.0b/18.0a"},{"town":"泉町西六線","koaza":"","lat":42.719234,"lng":143.228892,"version":"13.0b/18.0a"},{"town":"泉町西七線","koaza":"","lat":42.720461,"lng":143.222381,"version":"13.0b/18.0a"},{"town":"泉町西八線","koaza":"","lat":42.721725,"lng":143.215787,"version":"13.0b/18.0a"},{"town":"泉町西九線","koaza":"","lat":42.72291,"lng":143.209186,"version":"13.0b/18.0a"},{"town":"泉町東十二線","koaza":"","lat":42.705171,"lng":143.191025,"version":"13.0b/18.0a"},{"town":"泉町東十三線","koaza":"","lat":42.712698,"lng":143.197542,"version":"13.0b/18.0a"},{"town":"泉町東十四線","koaza":"","lat":42.720332,"lng":143.200621,"version":"13.0b/18.0a"},{"town":"以平町","koaza":"","lat":42.742802,"lng":143.209913,"version":"13.0b/18.0a"},{"town":"以平町西","koaza":"","lat":42.754669,"lng":143.210235,"version":"13.0b/18.0a"},{"town":"以平町西十線","koaza":"","lat":42.760178,"lng":143.218775,"version":"13.0b/18.0a"},{"town":"以平町西十一線","koaza":"","lat":42.76478,"lng":143.21344,"version":"13.0b/18.0a"},{"town":"以平町西十二線","koaza":"","lat":42.76807,"lng":143.207482,"version":"13.0b/18.0a"},{"town":"以平町西十三線","koaza":"","lat":42.773926,"lng":143.203422,"version":"13.0b/18.0a"},{"town":"以平町西三線","koaza":"","lat":42.74892,"lng":143.261776,"version":"13.0b/18.0a"},{"town":"以平町西四線","koaza":"","lat":42.74773,"lng":143.256415,"version":"13.0b/18.0a"},{"town":"以平町西五線","koaza":"","lat":42.748652,"lng":143.249735,"version":"13.0b/18.0a"},{"town":"以平町西六線","koaza":"","lat":42.749931,"lng":143.242824,"version":"13.0b/18.0a"},{"town":"以平町西七線","koaza":"","lat":42.751235,"lng":143.236139,"version":"13.0b/18.0a"},{"town":"以平町西八線","koaza":"","lat":42.752408,"lng":143.229844,"version":"13.0b/18.0a"},{"town":"以平町西九線","koaza":"","lat":42.753577,"lng":143.223478,"version":"13.0b/18.0a"},{"town":"稲田町基線","koaza":"","lat":42.878959,"lng":143.190096,"version":"13.0b/18.0a"},{"town":"稲田町西一線","koaza":"","lat":42.872825,"lng":143.184676,"version":"13.0b/18.0a"},{"town":"稲田町西二線","koaza":"","lat":42.872356,"lng":143.177973,"version":"13.0b/18.0a"},{"town":"稲田町西三線","koaza":"","lat":42.87106,"lng":143.172995,"version":"13.0b/18.0a"},{"town":"稲田町東一線","koaza":"","lat":42.874007,"lng":143.199597,"version":"13.0b/18.0a"},{"town":"稲田町東二線","koaza":"","lat":42.879556,"lng":143.206178,"version":"13.0b/18.0a"},{"town":"稲田町南八線","koaza":"","lat":42.893192,"lng":143.21194,"version":"13.0b/18.0a"},{"town":"稲田町南九線","koaza":"","lat":42.887326,"lng":143.193115,"version":"13.0b/18.0a"},{"town":"岩内町","koaza":"","lat":42.717229,"lng":142.865927,"version":"13.0b/18.0a"},{"town":"岩内町一線","koaza":"","lat":42.651079,"lng":143.011021,"version":"13.0b/18.0a"},{"town":"岩内町二線","koaza":"","lat":42.649346,"lng":143.004955,"version":"13.0b/18.0a"},{"town":"岩内町三線","koaza":"","lat":42.648057,"lng":142.998666,"version":"13.0b/18.0a"},{"town":"岩内町四線","koaza":"","lat":42.645145,"lng":142.993481,"version":"13.0b/18.0a"},{"town":"岩内町五線","koaza":"","lat":42.642596,"lng":142.98734,"version":"13.0b/18.0a"},{"town":"岩内町第一基線","koaza":"","lat":42.67123,"lng":143.040886,"version":"13.0b/18.0a"},{"town":"岩内町西","koaza":"","lat":42.681515,"lng":143.012645,"version":"13.0b/18.0a"},{"town":"岩内町西一線","koaza":"","lat":42.674372,"lng":143.03557,"version":"13.0b/18.0a"},{"town":"岩内町西二線","koaza":"","lat":42.676693,"lng":143.029767,"version":"13.0b/18.0a"},{"town":"岩内町西三線","koaza":"","lat":42.67991,"lng":143.024595,"version":"13.0b/18.0a"},{"town":"岩内町西四線","koaza":"","lat":42.700735,"lng":143.035056,"version":"13.0b/18.0a"},{"town":"岩内町東","koaza":"","lat":42.651465,"lng":143.037365,"version":"13.0b/18.0a"},{"town":"岩内町東一線","koaza":"","lat":42.683015,"lng":143.058168,"version":"13.0b/18.0a"},{"town":"岩内町東二線","koaza":"","lat":42.680952,"lng":143.064266,"version":"13.0b/18.0a"},{"town":"岩内町東三線","koaza":"","lat":42.67902,"lng":143.068609,"version":"13.0b/18.0a"},{"town":"大川町","koaza":"","lat":42.933385,"lng":143.20736,"version":"13.0b/18.0a"},{"town":"大空町十丁目","koaza":"","lat":42.8817,"lng":143.149587,"version":"13.0b/18.0a"},{"town":"大空町十一丁目","koaza":"","lat":42.879584,"lng":143.148541,"version":"13.0b/18.0a"},{"town":"大空町十二丁目","koaza":"","lat":42.876681,"lng":143.149431,"version":"13.0b/18.0a"},{"town":"大空町一丁目","koaza":"","lat":42.879281,"lng":143.152315,"version":"13.0b/18.0a"},{"town":"大空町二丁目","koaza":"","lat":42.878838,"lng":143.154966,"version":"13.0b/18.0a"},{"town":"大空町三丁目","koaza":"","lat":42.876118,"lng":143.154391,"version":"13.0b/18.0a"},{"town":"大空町四丁目","koaza":"","lat":42.873542,"lng":143.15279,"version":"13.0b/18.0a"},{"town":"大空町五丁目","koaza":"","lat":42.873214,"lng":143.149805,"version":"13.0b/18.0a"},{"town":"大空町六丁目","koaza":"","lat":42.873084,"lng":143.146604,"version":"13.0b/18.0a"},{"town":"大空町七丁目","koaza":"","lat":42.876442,"lng":143.146204,"version":"13.0b/18.0a"},{"town":"大空町八丁目","koaza":"","lat":42.87911,"lng":143.145734,"version":"13.0b/18.0a"},{"town":"大空町九丁目","koaza":"","lat":42.88149,"lng":143.14544,"version":"13.0b/18.0a"},{"town":"大通北一丁目","koaza":"","lat":42.932526,"lng":143.203918,"version":"13.0b/18.0a"},{"town":"大通北二丁目","koaza":"","lat":42.93426,"lng":143.203672,"version":"13.0b/18.0a"},{"town":"大通南十丁目","koaza":"","lat":42.921029,"lng":143.205473,"version":"13.0b/18.0a"},{"town":"大通南十一丁目","koaza":"","lat":42.919863,"lng":143.205629,"version":"13.0b/18.0a"},{"town":"大通南十二丁目","koaza":"","lat":42.918705,"lng":143.205785,"version":"13.0b/18.0a"},{"town":"大通南十三丁目","koaza":"","lat":42.917536,"lng":143.205938,"version":"13.0b/18.0a"},{"town":"大通南十四丁目","koaza":"","lat":42.916494,"lng":143.206072,"version":"13.0b/18.0a"},{"town":"大通南十五丁目","koaza":"","lat":42.915224,"lng":143.206228,"version":"13.0b/18.0a"},{"town":"大通南十六丁目","koaza":"","lat":42.914066,"lng":143.206369,"version":"13.0b/18.0a"},{"town":"大通南十七丁目","koaza":"","lat":42.912911,"lng":143.206522,"version":"13.0b/18.0a"},{"town":"大通南十八丁目","koaza":"","lat":42.911759,"lng":143.206674,"version":"13.0b/18.0a"},{"town":"大通南十九丁目","koaza":"","lat":42.910558,"lng":143.206832,"version":"13.0b/18.0a"},{"town":"大通南一丁目","koaza":"","lat":42.931527,"lng":143.204062,"version":"13.0b/18.0a"},{"town":"大通南二十丁目","koaza":"","lat":42.909327,"lng":143.207001,"version":"13.0b/18.0a"},{"town":"大通南二十一丁目","koaza":"","lat":42.908132,"lng":143.20717,"version":"13.0b/18.0a"},{"town":"大通南二十二丁目","koaza":"","lat":42.906967,"lng":143.20733,"version":"13.0b/18.0a"},{"town":"大通南二十三丁目","koaza":"","lat":42.905811,"lng":143.207484,"version":"13.0b/18.0a"},{"town":"大通南二十四丁目","koaza":"","lat":42.904664,"lng":143.207639,"version":"13.0b/18.0a"},{"town":"大通南二十五丁目","koaza":"","lat":42.903512,"lng":143.207801,"version":"13.0b/18.0a"},{"town":"大通南二十六丁目","koaza":"","lat":42.902352,"lng":143.207963,"version":"13.0b/18.0a"},{"town":"大通南二十七丁目","koaza":"","lat":42.901199,"lng":143.208118,"version":"13.0b/18.0a"},{"town":"大通南二十八丁目","koaza":"","lat":42.900035,"lng":143.208273,"version":"13.0b/18.0a"},{"town":"大通南二十九丁目","koaza":"","lat":42.898862,"lng":143.208444,"version":"13.0b/18.0a"},{"town":"大通南二丁目","koaza":"","lat":42.930283,"lng":143.204233,"version":"13.0b/18.0a"},{"town":"大通南三十丁目","koaza":"","lat":42.897686,"lng":143.208503,"version":"13.0b/18.0a"},{"town":"大通南三十一丁目","koaza":"","lat":42.896579,"lng":143.208423,"version":"13.0b/18.0a"},{"town":"大通南三十二丁目","koaza":"","lat":42.895165,"lng":143.208013,"version":"13.0b/18.0a"},{"town":"大通南三十三丁目","koaza":"","lat":42.893942,"lng":143.208035,"version":"13.0b/18.0a"},{"town":"大通南三十四丁目","koaza":"","lat":42.892676,"lng":143.20756,"version":"13.0b/18.0a"},{"town":"大通南三丁目","koaza":"","lat":42.929128,"lng":143.204391,"version":"13.0b/18.0a"},{"town":"大通南四丁目","koaza":"","lat":42.927974,"lng":143.204541,"version":"13.0b/18.0a"},{"town":"大通南五丁目","koaza":"","lat":42.926813,"lng":143.204699,"version":"13.0b/18.0a"},{"town":"大通南六丁目","koaza":"","lat":42.925664,"lng":143.204854,"version":"13.0b/18.0a"},{"town":"大通南七丁目","koaza":"","lat":42.924511,"lng":143.205009,"version":"13.0b/18.0a"},{"town":"大通南八丁目","koaza":"","lat":42.923347,"lng":143.205162,"version":"13.0b/18.0a"},{"town":"大通南九丁目","koaza":"","lat":42.922188,"lng":143.205316,"version":"13.0b/18.0a"},{"town":"上帯広町","koaza":"","lat":42.806197,"lng":143.078663,"version":"13.0b/18.0a"},{"town":"上帯広町基線","koaza":"","lat":42.787082,"lng":143.06174,"version":"13.0b/18.0a"},{"town":"上帯広町西一線","koaza":"","lat":42.790268,"lng":143.05643,"version":"13.0b/18.0a"},{"town":"上帯広町西二線","koaza":"","lat":42.791213,"lng":143.048596,"version":"13.0b/18.0a"},{"town":"上帯広町西三線","koaza":"","lat":42.787934,"lng":143.038003,"version":"13.0b/18.0a"},{"town":"上帯広町西四線","koaza":"","lat":42.784576,"lng":143.0258,"version":"13.0b/18.0a"},{"town":"上帯広町東","koaza":"","lat":42.794505,"lng":143.076164,"version":"13.0b/18.0a"},{"town":"上帯広町東一線","koaza":"","lat":42.775273,"lng":143.055464,"version":"13.0b/18.0a"},{"town":"上清川町","koaza":"","lat":42.710577,"lng":143.046883,"version":"13.0b/18.0a"},{"town":"上清川町基線","koaza":"","lat":42.714338,"lng":143.075566,"version":"13.0b/18.0a"},{"town":"上清川町西一線","koaza":"","lat":42.716875,"lng":143.069685,"version":"13.0b/18.0a"},{"town":"上清川町西二線","koaza":"","lat":42.718737,"lng":143.063454,"version":"13.0b/18.0a"},{"town":"上清川町西三線","koaza":"","lat":42.730143,"lng":143.064684,"version":"13.0b/18.0a"},{"town":"上清川町西四線","koaza":"","lat":42.730006,"lng":143.058336,"version":"13.0b/18.0a"},{"town":"上清川町東一線","koaza":"","lat":42.722243,"lng":143.089745,"version":"13.0b/18.0a"},{"town":"上清川町東二線","koaza":"","lat":42.721087,"lng":143.094907,"version":"13.0b/18.0a"},{"town":"川西町基線","koaza":"","lat":42.849958,"lng":143.1843,"version":"13.0b/18.0a"},{"town":"川西町西","koaza":"","lat":42.861722,"lng":143.158846,"version":"13.0b/18.0a"},{"town":"川西町西一線","koaza":"","lat":42.851167,"lng":143.177378,"version":"13.0b/18.0a"},{"town":"川西町西二線","koaza":"","lat":42.849686,"lng":143.16821,"version":"13.0b/18.0a"},{"town":"川西町西三線","koaza":"","lat":42.857531,"lng":143.166574,"version":"13.0b/18.0a"},{"town":"川西町西四線","koaza":"","lat":42.857584,"lng":143.159788,"version":"13.0b/18.0a"},{"town":"川西町西五線","koaza":"","lat":42.848428,"lng":143.148123,"version":"13.0b/18.0a"},{"town":"川西町東一線","koaza":"","lat":42.849703,"lng":143.190215,"version":"13.0b/18.0a"},{"town":"川西町東二線","koaza":"","lat":42.853102,"lng":143.196788,"version":"13.0b/18.0a"},{"town":"清川町","koaza":"","lat":42.740715,"lng":143.078686,"version":"13.0b/18.0a"},{"town":"清川町基線","koaza":"","lat":42.752928,"lng":143.106222,"version":"13.0b/18.0a"},{"town":"清川町仲通","koaza":"","lat":42.746147,"lng":143.084611,"version":"13.0b/18.0a"},{"town":"清川町西一線","koaza":"","lat":42.755429,"lng":143.100246,"version":"13.0b/18.0a"},{"town":"清川町西二線","koaza":"","lat":42.762609,"lng":143.09829,"version":"13.0b/18.0a"},{"town":"清川町西三線","koaza":"","lat":42.764165,"lng":143.093635,"version":"13.0b/18.0a"},{"town":"清川町西通","koaza":"","lat":42.747218,"lng":143.082307,"version":"13.0b/18.0a"},{"town":"清川町東一線","koaza":"","lat":42.750222,"lng":143.112014,"version":"13.0b/18.0a"},{"town":"清川町東二線","koaza":"","lat":42.748189,"lng":143.11714,"version":"13.0b/18.0a"},{"town":"清川町本通","koaza":"","lat":42.745378,"lng":143.083286,"version":"13.0b/18.0a"},{"town":"清川町南二条通","koaza":"","lat":42.744811,"lng":143.08203,"version":"13.0b/18.0a"},{"town":"空港南町","koaza":"","lat":42.873488,"lng":143.157938,"version":"13.0b/18.0a"},{"town":"空港南町南十線","koaza":"","lat":42.880223,"lng":143.162372,"version":"13.0b/18.0a"},{"town":"空港南町南十線西","koaza":"","lat":42.877518,"lng":143.166479,"version":"13.0b/18.0a"},{"town":"空港南町南十一線","koaza":"","lat":42.878927,"lng":143.159275,"version":"13.0b/18.0a"},{"town":"空港南町南十一線西","koaza":"","lat":42.87384,"lng":143.163009,"version":"13.0b/18.0a"},{"town":"空港南町南十二線","koaza":"","lat":42.879509,"lng":143.141815,"version":"13.0b/18.0a"},{"town":"空港南町南十二線西","koaza":"","lat":42.869906,"lng":143.161732,"version":"13.0b/18.0a"},{"town":"空港南町南十三線","koaza":"","lat":42.876642,"lng":143.141644,"version":"13.0b/18.0a"},{"town":"空港南町南十三線西","koaza":"","lat":42.867208,"lng":143.157247,"version":"13.0b/18.0a"},{"town":"公園東町一丁目","koaza":"","lat":42.911033,"lng":143.195923,"version":"13.0b/18.0a"},{"town":"公園東町二丁目","koaza":"","lat":42.9077,"lng":143.195973,"version":"13.0b/18.0a"},{"town":"公園東町三丁目","koaza":"","lat":42.908357,"lng":143.193363,"version":"13.0b/18.0a"},{"town":"公園東町四丁目","koaza":"","lat":42.905606,"lng":143.19403,"version":"13.0b/18.0a"},{"town":"公園東町五丁目","koaza":"","lat":42.905992,"lng":143.190597,"version":"13.0b/18.0a"},{"town":"幸福町","koaza":"","lat":42.746948,"lng":143.150332,"version":"13.0b/18.0a"},{"town":"幸福町基線","koaza":"","lat":42.747083,"lng":143.15419,"version":"13.0b/18.0a"},{"town":"幸福町東一線","koaza":"","lat":42.745947,"lng":143.161152,"version":"13.0b/18.0a"},{"town":"幸福町東二線","koaza":"","lat":42.744499,"lng":143.168512,"version":"13.0b/18.0a"},{"town":"幸福町東三線","koaza":"","lat":42.742693,"lng":143.175958,"version":"13.0b/18.0a"},{"town":"幸福町東四線","koaza":"","lat":42.741239,"lng":143.183254,"version":"13.0b/18.0a"},{"town":"幸福町東五線","koaza":"","lat":42.739937,"lng":143.190418,"version":"13.0b/18.0a"},{"town":"幸福町東六線","koaza":"","lat":42.741421,"lng":143.196901,"version":"13.0b/18.0a"},{"town":"幸福町東七線","koaza":"","lat":42.747223,"lng":143.201469,"version":"13.0b/18.0a"},{"town":"桜木町","koaza":"","lat":42.803392,"lng":143.203148,"version":"13.0b/18.0a"},{"town":"桜木町基線","koaza":"","lat":42.813001,"lng":143.207866,"version":"13.0b/18.0a"},{"town":"桜木町東","koaza":"","lat":42.776858,"lng":143.231799,"version":"13.0b/18.0a"},{"town":"桜木町東一線","koaza":"","lat":42.80077,"lng":143.207184,"version":"13.0b/18.0a"},{"town":"桜木町東二線","koaza":"","lat":42.794911,"lng":143.211247,"version":"13.0b/18.0a"},{"town":"桜木町東三線","koaza":"","lat":42.793292,"lng":143.2177,"version":"13.0b/18.0a"},{"town":"桜木町東四線","koaza":"","lat":42.785555,"lng":143.220435,"version":"13.0b/18.0a"},{"town":"桜木町東五線","koaza":"","lat":42.784184,"lng":143.226872,"version":"13.0b/18.0a"},{"town":"桜木町東六線","koaza":"","lat":42.788334,"lng":143.236593,"version":"13.0b/18.0a"},{"town":"桜木町東七線","koaza":"","lat":42.786824,"lng":143.241296,"version":"13.0b/18.0a"},{"town":"自由が丘一丁目","koaza":"","lat":42.903178,"lng":143.165164,"version":"13.0b/18.0a"},{"town":"自由が丘二丁目","koaza":"","lat":42.902949,"lng":143.161786,"version":"13.0b/18.0a"},{"town":"自由が丘三丁目","koaza":"","lat":42.902516,"lng":143.158429,"version":"13.0b/18.0a"},{"town":"自由が丘四丁目","koaza":"","lat":42.902225,"lng":143.155155,"version":"13.0b/18.0a"},{"town":"自由が丘五丁目","koaza":"","lat":42.899764,"lng":143.155545,"version":"13.0b/18.0a"},{"town":"自由が丘六丁目","koaza":"","lat":42.899215,"lng":143.152567,"version":"13.0b/18.0a"},{"town":"自由が丘七丁目","koaza":"","lat":42.899369,"lng":143.150339,"version":"13.0b/18.0a"},{"town":"昭和町","koaza":"","lat":42.788977,"lng":143.160789,"version":"13.0b/18.0a"},{"town":"昭和町基線","koaza":"","lat":42.773927,"lng":143.154401,"version":"13.0b/18.0a"},{"town":"昭和町西","koaza":"","lat":42.780742,"lng":143.137305,"version":"13.0b/18.0a"},{"town":"昭和町西一線","koaza":"","lat":42.778384,"lng":143.148647,"version":"13.0b/18.0a"},{"town":"昭和町西二線","koaza":"","lat":42.781281,"lng":143.143146,"version":"13.0b/18.0a"},{"town":"昭和町東","koaza":"","lat":42.784797,"lng":143.171103,"version":"13.0b/18.0a"},{"town":"昭和町東一線","koaza":"","lat":42.770353,"lng":143.159336,"version":"13.0b/18.0a"},{"town":"昭和町東二線","koaza":"","lat":42.771299,"lng":143.16755,"version":"13.0b/18.0a"},{"town":"昭和町東三線","koaza":"","lat":42.770004,"lng":143.174097,"version":"13.0b/18.0a"},{"town":"昭和町東四線","koaza":"","lat":42.76871,"lng":143.180575,"version":"13.0b/18.0a"},{"town":"昭和町東五線","koaza":"","lat":42.768871,"lng":143.187598,"version":"13.0b/18.0a"},{"town":"昭和町東六線","koaza":"","lat":42.765539,"lng":143.193616,"version":"13.0b/18.0a"},{"town":"昭和町東七線","koaza":"","lat":42.764525,"lng":143.19982,"version":"13.0b/18.0a"},{"town":"昭和町東八線","koaza":"","lat":42.758471,"lng":143.202766,"version":"13.0b/18.0a"},{"town":"白樺十六条西十丁目","koaza":"","lat":42.916719,"lng":143.174547,"version":"13.0b/18.0a"},{"town":"白樺十六条西十一丁目","koaza":"","lat":42.916173,"lng":143.174622,"version":"13.0b/18.0a"},{"town":"白樺十六条西十二丁目","koaza":"","lat":42.916635,"lng":143.173259,"version":"13.0b/18.0a"},{"town":"白樺十六条西十三丁目","koaza":"","lat":42.916087,"lng":143.173327,"version":"13.0b/18.0a"},{"town":"白樺十六条西十四丁目","koaza":"","lat":42.916265,"lng":143.172324,"version":"13.0b/18.0a"},{"town":"白樺十六条西十五丁目","koaza":"","lat":42.915253,"lng":143.172515,"version":"13.0b/18.0a"},{"town":"白樺十六条西十六丁目","koaza":"","lat":42.915578,"lng":143.173394,"version":"13.0b/18.0a"},{"town":"白樺十六条西十七丁目","koaza":"","lat":42.915049,"lng":143.173459,"version":"13.0b/18.0a"},{"town":"白樺十六条西十八丁目","koaza":"","lat":42.915667,"lng":143.174689,"version":"13.0b/18.0a"},{"town":"白樺十六条西十九丁目","koaza":"","lat":42.915121,"lng":143.174755,"version":"13.0b/18.0a"},{"town":"白樺十六条西一丁目","koaza":"","lat":42.919321,"lng":143.175201,"version":"13.0b/18.0a"},{"town":"白樺十六条西二十丁目","koaza":"","lat":42.915438,"lng":143.175632,"version":"13.0b/18.0a"},{"town":"白樺十六条西二丁目","koaza":"","lat":42.918866,"lng":143.173303,"version":"13.0b/18.0a"},{"town":"白樺十六条西三丁目","koaza":"","lat":42.91805,"lng":143.175362,"version":"13.0b/18.0a"},{"town":"白樺十六条西四丁目","koaza":"","lat":42.917689,"lng":143.17427,"version":"13.0b/18.0a"},{"town":"白樺十六条西五丁目","koaza":"","lat":42.917572,"lng":143.172657,"version":"13.0b/18.0a"},{"town":"白樺十六条西六丁目","koaza":"","lat":42.917044,"lng":143.17256,"version":"13.0b/18.0a"},{"town":"白樺十六条西七丁目","koaza":"","lat":42.917136,"lng":143.173856,"version":"13.0b/18.0a"},{"town":"白樺十六条西八丁目","koaza":"","lat":42.917225,"lng":143.175144,"version":"13.0b/18.0a"},{"town":"白樺十六条西九丁目","koaza":"","lat":42.91648,"lng":143.175499,"version":"13.0b/18.0a"},{"town":"白樺十六条東十丁目","koaza":"","lat":42.917746,"lng":143.176155,"version":"13.0b/18.0a"},{"town":"白樺十六条東十一丁目","koaza":"","lat":42.917322,"lng":143.176551,"version":"13.0b/18.0a"},{"town":"白樺十六条東十二丁目","koaza":"","lat":42.917424,"lng":143.178005,"version":"13.0b/18.0a"},{"town":"白樺十六条東十三丁目","koaza":"","lat":42.916689,"lng":143.178458,"version":"13.0b/18.0a"},{"town":"白樺十六条東十四丁目","koaza":"","lat":42.916857,"lng":143.177315,"version":"13.0b/18.0a"},{"town":"白樺十六条東十五丁目","koaza":"","lat":42.916362,"lng":143.177377,"version":"13.0b/18.0a"},{"town":"白樺十六条東十六丁目","koaza":"","lat":42.916534,"lng":143.176302,"version":"13.0b/18.0a"},{"town":"白樺十六条東十七丁目","koaza":"","lat":42.915491,"lng":143.17643,"version":"13.0b/18.0a"},{"town":"白樺十六条東十八丁目","koaza":"","lat":42.915873,"lng":143.177437,"version":"13.0b/18.0a"},{"town":"白樺十六条東十九丁目","koaza":"","lat":42.915298,"lng":143.177509,"version":"13.0b/18.0a"},{"town":"白樺十六条東一丁目","koaza":"","lat":42.919835,"lng":143.177718,"version":"13.0b/18.0a"},{"town":"白樺十六条東二十丁目","koaza":"","lat":42.915606,"lng":143.178593,"version":"13.0b/18.0a"},{"town":"白樺十六条東二丁目","koaza":"","lat":42.919727,"lng":143.17625,"version":"13.0b/18.0a"},{"town":"白樺十六条東三丁目","koaza":"","lat":42.919174,"lng":143.176324,"version":"13.0b/18.0a"},{"town":"白樺十六条東四丁目","koaza":"","lat":42.919023,"lng":143.17745,"version":"13.0b/18.0a"},{"town":"白樺十六条東五丁目","koaza":"","lat":42.919072,"lng":143.178148,"version":"13.0b/18.0a"},{"town":"白樺十六条東六丁目","koaza":"","lat":42.918173,"lng":143.178331,"version":"13.0b/18.0a"},{"town":"白樺十六条東七丁目","koaza":"","lat":42.918102,"lng":143.177561,"version":"13.0b/18.0a"},{"town":"白樺十六条東八丁目","koaza":"","lat":42.918285,"lng":143.176856,"version":"13.0b/18.0a"},{"town":"白樺十六条東九丁目","koaza":"","lat":42.918471,"lng":143.175979,"version":"13.0b/18.0a"},{"town":"新町西一丁目","koaza":"","lat":42.924583,"lng":143.187437,"version":"13.0b/18.0a"},{"town":"新町西二丁目","koaza":"","lat":42.925372,"lng":143.185943,"version":"13.0b/18.0a"},{"town":"新町西三丁目","koaza":"","lat":42.925961,"lng":143.184554,"version":"13.0b/18.0a"},{"town":"新町西四丁目","koaza":"","lat":42.923214,"lng":143.18709,"version":"13.0b/18.0a"},{"town":"新町西五丁目","koaza":"","lat":42.924421,"lng":143.186309,"version":"13.0b/18.0a"},{"town":"新町西六丁目","koaza":"","lat":42.925516,"lng":143.183972,"version":"13.0b/18.0a"},{"town":"新町西七丁目","koaza":"","lat":42.924538,"lng":143.183568,"version":"13.0b/18.0a"},{"town":"新町西八丁目","koaza":"","lat":42.925253,"lng":143.183009,"version":"13.0b/18.0a"},{"town":"新町西九丁目","koaza":"","lat":42.925004,"lng":143.182312,"version":"13.0b/18.0a"},{"town":"新町東十丁目","koaza":"","lat":42.92137,"lng":143.186627,"version":"13.0b/18.0a"},{"town":"新町東十一丁目","koaza":"","lat":42.921342,"lng":143.187338,"version":"13.0b/18.0a"},{"town":"新町東十二丁目","koaza":"","lat":42.921389,"lng":143.188455,"version":"13.0b/18.0a"},{"town":"新町東一丁目","koaza":"","lat":42.924137,"lng":143.188603,"version":"13.0b/18.0a"},{"town":"新町東二丁目","koaza":"","lat":42.92333,"lng":143.190101,"version":"13.0b/18.0a"},{"town":"新町東三丁目","koaza":"","lat":42.923653,"lng":143.188107,"version":"13.0b/18.0a"},{"town":"新町東四丁目","koaza":"","lat":42.922748,"lng":143.187427,"version":"13.0b/18.0a"},{"town":"新町東五丁目","koaza":"","lat":42.922961,"lng":143.188235,"version":"13.0b/18.0a"},{"town":"新町東六丁目","koaza":"","lat":42.923057,"lng":143.189223,"version":"13.0b/18.0a"},{"town":"新町東七丁目","koaza":"","lat":42.922486,"lng":143.188614,"version":"13.0b/18.0a"},{"town":"新町東八丁目","koaza":"","lat":42.922462,"lng":143.18949,"version":"13.0b/18.0a"},{"town":"新町東九丁目","koaza":"","lat":42.921936,"lng":143.187241,"version":"13.0b/18.0a"},{"town":"清流西一丁目","koaza":"","lat":42.879806,"lng":143.195962,"version":"13.0b/18.0a"},{"town":"清流西二丁目","koaza":"","lat":42.874731,"lng":143.192348,"version":"13.0b/18.0a"},{"town":"清流西三丁目","koaza":"","lat":42.868232,"lng":143.18961,"version":"13.0b/18.0a"},{"town":"清流西四丁目","koaza":"","lat":42.863855,"lng":143.186908,"version":"13.0b/18.0a"},{"town":"清流東一丁目","koaza":"","lat":42.879986,"lng":143.198676,"version":"13.0b/18.0a"},{"town":"清流東二丁目","koaza":"","lat":42.87474,"lng":143.196096,"version":"13.0b/18.0a"},{"town":"清流東三丁目","koaza":"","lat":42.868195,"lng":143.192981,"version":"13.0b/18.0a"},{"town":"清流東四丁目","koaza":"","lat":42.863953,"lng":143.190402,"version":"13.0b/18.0a"},{"town":"大正町基線","koaza":"","lat":42.815314,"lng":143.177706,"version":"13.0b/18.0a"},{"town":"大正町西","koaza":"","lat":42.81119,"lng":143.162173,"version":"13.0b/18.0a"},{"town":"大正町西一線","koaza":"","lat":42.816823,"lng":143.171263,"version":"13.0b/18.0a"},{"town":"大正町東","koaza":"","lat":42.813832,"lng":143.203859,"version":"13.0b/18.0a"},{"town":"大正町東一線","koaza":"","lat":42.815332,"lng":143.18515,"version":"13.0b/18.0a"},{"town":"大正町東二線","koaza":"","lat":42.813166,"lng":143.190793,"version":"13.0b/18.0a"},{"town":"大正町東三線","koaza":"","lat":42.806649,"lng":143.193589,"version":"13.0b/18.0a"},{"town":"大正町東四線","koaza":"","lat":42.795212,"lng":143.193854,"version":"13.0b/18.0a"},{"town":"大正町東五線","koaza":"","lat":42.789225,"lng":143.196756,"version":"13.0b/18.0a"},{"town":"大正町東六線","koaza":"","lat":42.781687,"lng":143.198892,"version":"13.0b/18.0a"},{"town":"大正町","koaza":"","lat":42.794872,"lng":143.154726,"version":"13.0b/18.0a"},{"town":"大正本町西一条一丁目","koaza":"","lat":42.795299,"lng":143.162884,"version":"13.0b/18.0a"},{"town":"大正本町西一条二丁目","koaza":"","lat":42.793832,"lng":143.163054,"version":"13.0b/18.0a"},{"town":"大正本町西一条三丁目","koaza":"","lat":42.792733,"lng":143.162351,"version":"13.0b/18.0a"},{"town":"大正本町西一条四丁目","koaza":"","lat":42.791517,"lng":143.161633,"version":"13.0b/18.0a"},{"town":"大正本町東一条一丁目","koaza":"","lat":42.793537,"lng":143.16738,"version":"13.0b/18.0a"},{"town":"大正本町東一条二丁目","koaza":"","lat":42.792203,"lng":143.167205,"version":"13.0b/18.0a"},{"town":"大正本町東一条三丁目","koaza":"","lat":42.791347,"lng":143.165676,"version":"13.0b/18.0a"},{"town":"大正本町東一条四丁目","koaza":"","lat":42.790086,"lng":143.165301,"version":"13.0b/18.0a"},{"town":"大正本町本通一丁目","koaza":"","lat":42.794279,"lng":143.164995,"version":"13.0b/18.0a"},{"town":"大正本町本通二丁目","koaza":"","lat":42.793265,"lng":143.164307,"version":"13.0b/18.0a"},{"town":"大正本町本通三丁目","koaza":"","lat":42.792274,"lng":143.163635,"version":"13.0b/18.0a"},{"town":"大正本町本通四丁目","koaza":"","lat":42.791316,"lng":143.16298,"version":"13.0b/18.0a"},{"town":"大正本町本通五丁目","koaza":"","lat":42.79057,"lng":143.162461,"version":"13.0b/18.0a"},{"town":"太平町","koaza":"","lat":42.716279,"lng":143.015936,"version":"13.0b/18.0a"},{"town":"太平町西四線","koaza":"","lat":42.724716,"lng":143.050129,"version":"13.0b/18.0a"},{"town":"太平町西五線","koaza":"","lat":42.726641,"lng":143.046006,"version":"13.0b/18.0a"},{"town":"太平町西六線","koaza":"","lat":42.727658,"lng":143.038304,"version":"13.0b/18.0a"},{"town":"太平町西七線","koaza":"","lat":42.735978,"lng":143.037869,"version":"13.0b/18.0a"},{"town":"太平町西八線","koaza":"","lat":42.738495,"lng":143.032054,"version":"13.0b/18.0a"},{"town":"太平町西九線","koaza":"","lat":42.740255,"lng":143.02617,"version":"13.0b/18.0a"},{"town":"拓成町","koaza":"","lat":42.706357,"lng":142.935097,"version":"13.0b/18.0a"},{"town":"拓成町第二基線","koaza":"","lat":42.710095,"lng":142.936881,"version":"13.0b/18.0a"},{"town":"拓成町西","koaza":"","lat":42.70548,"lng":143.005589,"version":"13.0b/18.0a"},{"town":"拓成町西四線","koaza":"","lat":42.702315,"lng":143.02992,"version":"13.0b/18.0a"},{"town":"拓成町西五線","koaza":"","lat":42.702932,"lng":143.023334,"version":"13.0b/18.0a"},{"town":"拓成町西六線","koaza":"","lat":42.70451,"lng":143.015886,"version":"13.0b/18.0a"},{"town":"拓成町南","koaza":"","lat":42.696814,"lng":142.95505,"version":"13.0b/18.0a"},{"town":"拓成町南一線","koaza":"","lat":42.70078,"lng":142.968606,"version":"13.0b/18.0a"},{"town":"拓成町南二線","koaza":"","lat":42.697292,"lng":142.969836,"version":"13.0b/18.0a"},{"town":"豊西町","koaza":"","lat":42.815617,"lng":143.162958,"version":"13.0b/18.0a"},{"town":"豊西町基線","koaza":"","lat":42.817475,"lng":143.158502,"version":"13.0b/18.0a"},{"town":"豊西町西","koaza":"","lat":42.838167,"lng":143.137634,"version":"13.0b/18.0a"},{"town":"豊西町西一線","koaza":"","lat":42.817256,"lng":143.150794,"version":"13.0b/18.0a"},{"town":"豊西町西二線","koaza":"","lat":42.82284,"lng":143.146889,"version":"13.0b/18.0a"},{"town":"豊西町西三線","koaza":"","lat":42.82516,"lng":143.140756,"version":"13.0b/18.0a"},{"town":"豊西町西四線","koaza":"","lat":42.827207,"lng":143.134718,"version":"13.0b/18.0a"},{"town":"豊西町西五線","koaza":"","lat":42.826308,"lng":143.125248,"version":"13.0b/18.0a"},{"town":"豊西町西六線","koaza":"","lat":42.829762,"lng":143.122174,"version":"13.0b/18.0a"},{"town":"中島町","koaza":"","lat":42.768497,"lng":143.135784,"version":"13.0b/18.0a"},{"town":"中島町東","koaza":"","lat":42.728884,"lng":143.146938,"version":"13.0b/18.0a"},{"town":"中島町東三線","koaza":"","lat":42.747587,"lng":143.124796,"version":"13.0b/18.0a"},{"town":"中島町東四線","koaza":"","lat":42.745441,"lng":143.132098,"version":"13.0b/18.0a"},{"town":"中島町東五線","koaza":"","lat":42.741151,"lng":143.136511,"version":"13.0b/18.0a"},{"town":"中島町東六線","koaza":"","lat":42.736365,"lng":143.140577,"version":"13.0b/18.0a"},{"town":"中島町東七線","koaza":"","lat":42.732982,"lng":143.145317,"version":"13.0b/18.0a"},{"town":"西十条北十丁目","koaza":"","lat":42.946942,"lng":143.186207,"version":"13.0b/18.0a"},{"town":"西十条北一丁目","koaza":"","lat":42.931562,"lng":143.18816,"version":"13.0b/18.0a"},{"town":"西十条北二丁目","koaza":"","lat":42.93294,"lng":143.188092,"version":"13.0b/18.0a"},{"town":"西十条北三丁目","koaza":"","lat":42.933969,"lng":143.188001,"version":"13.0b/18.0a"},{"town":"西十条北四丁目","koaza":"","lat":42.935212,"lng":143.187821,"version":"13.0b/18.0a"},{"town":"西十条北五丁目","koaza":"","lat":42.936534,"lng":143.18762,"version":"13.0b/18.0a"},{"town":"西十条北六丁目","koaza":"","lat":42.937782,"lng":143.187432,"version":"13.0b/18.0a"},{"town":"西十条北七丁目","koaza":"","lat":42.939623,"lng":143.186998,"version":"13.0b/18.0a"},{"town":"西十条北八丁目","koaza":"","lat":42.94217,"lng":143.186878,"version":"13.0b/18.0a"},{"town":"西十条北九丁目","koaza":"","lat":42.944464,"lng":143.186557,"version":"13.0b/18.0a"},{"town":"西十条南十丁目","koaza":"","lat":42.919844,"lng":143.189445,"version":"13.0b/18.0a"},{"town":"西十条南十一丁目","koaza":"","lat":42.918867,"lng":143.189617,"version":"13.0b/18.0a"},{"town":"西十条南十二丁目","koaza":"","lat":42.917551,"lng":143.189835,"version":"13.0b/18.0a"},{"town":"西十条南十三丁目","koaza":"","lat":42.916391,"lng":143.189994,"version":"13.0b/18.0a"},{"town":"西十条南十四丁目","koaza":"","lat":42.915233,"lng":143.190154,"version":"13.0b/18.0a"},{"town":"西十条南十五丁目","koaza":"","lat":42.914082,"lng":143.190312,"version":"13.0b/18.0a"},{"town":"西十条南十六丁目","koaza":"","lat":42.912931,"lng":143.190469,"version":"13.0b/18.0a"},{"town":"西十条南十七丁目","koaza":"","lat":42.911776,"lng":143.190625,"version":"13.0b/18.0a"},{"town":"西十条南十八丁目","koaza":"","lat":42.910615,"lng":143.190782,"version":"13.0b/18.0a"},{"town":"西十条南十九丁目","koaza":"","lat":42.909447,"lng":143.190939,"version":"13.0b/18.0a"},{"town":"西十条南一丁目","koaza":"","lat":42.930325,"lng":143.188306,"version":"13.0b/18.0a"},{"town":"西十条南二十丁目","koaza":"","lat":42.908587,"lng":143.191443,"version":"13.0b/18.0a"},{"town":"西十条南二十四丁目","koaza":"","lat":42.903015,"lng":143.191329,"version":"13.0b/18.0a"},{"town":"西十条南二十五丁目","koaza":"","lat":42.902343,"lng":143.191933,"version":"13.0b/18.0a"},{"town":"西十条南二十六丁目","koaza":"","lat":42.901201,"lng":143.19225,"version":"13.0b/18.0a"},{"town":"西十条南二十七丁目","koaza":"","lat":42.900078,"lng":143.192273,"version":"13.0b/18.0a"},{"town":"西十条南二十八丁目","koaza":"","lat":42.898949,"lng":143.19241,"version":"13.0b/18.0a"},{"town":"西十条南二十九丁目","koaza":"","lat":42.897784,"lng":143.192554,"version":"13.0b/18.0a"},{"town":"西十条南二丁目","koaza":"","lat":42.929157,"lng":143.188464,"version":"13.0b/18.0a"},{"town":"西十条南三十丁目","koaza":"","lat":42.89667,"lng":143.192719,"version":"13.0b/18.0a"},{"town":"西十条南三十一丁目","koaza":"","lat":42.895502,"lng":143.192897,"version":"13.0b/18.0a"},{"town":"西十条南三十二丁目","koaza":"","lat":42.894252,"lng":143.193044,"version":"13.0b/18.0a"},{"town":"西十条南三十三丁目","koaza":"","lat":42.89314,"lng":143.193275,"version":"13.0b/18.0a"},{"town":"西十条南三十四丁目","koaza":"","lat":42.891884,"lng":143.193402,"version":"13.0b/18.0a"},{"town":"西十条南三十九丁目","koaza":"","lat":42.885171,"lng":143.194096,"version":"13.0b/18.0a"},{"town":"西十条南三丁目","koaza":"","lat":42.927957,"lng":143.188678,"version":"13.0b/18.0a"},{"town":"西十条南四十丁目","koaza":"","lat":42.883506,"lng":143.194428,"version":"13.0b/18.0a"},{"town":"西十条南四十一丁目","koaza":"","lat":42.881962,"lng":143.194586,"version":"13.0b/18.0a"},{"town":"西十条南四丁目","koaza":"","lat":42.926803,"lng":143.188832,"version":"13.0b/18.0a"},{"town":"西十条南五丁目","koaza":"","lat":42.92565,"lng":143.188902,"version":"13.0b/18.0a"},{"town":"西十条南六丁目","koaza":"","lat":42.924516,"lng":143.189227,"version":"13.0b/18.0a"},{"town":"西十条南八丁目","koaza":"","lat":42.922208,"lng":143.189907,"version":"13.0b/18.0a"},{"town":"西十条南九丁目","koaza":"","lat":42.921096,"lng":143.189427,"version":"13.0b/18.0a"},{"town":"西十一条北十丁目","koaza":"","lat":42.947073,"lng":143.184557,"version":"13.0b/18.0a"},{"town":"西十一条北一丁目","koaza":"","lat":42.931462,"lng":143.186606,"version":"13.0b/18.0a"},{"town":"西十一条北二丁目","koaza":"","lat":42.932644,"lng":143.186467,"version":"13.0b/18.0a"},{"town":"西十一条北三丁目","koaza":"","lat":42.933843,"lng":143.186317,"version":"13.0b/18.0a"},{"town":"西十一条北四丁目","koaza":"","lat":42.935097,"lng":143.186151,"version":"13.0b/18.0a"},{"town":"西十一条北五丁目","koaza":"","lat":42.936421,"lng":143.185962,"version":"13.0b/18.0a"},{"town":"西十一条北六丁目","koaza":"","lat":42.937669,"lng":143.185774,"version":"13.0b/18.0a"},{"town":"西十一条北七丁目","koaza":"","lat":42.939508,"lng":143.185522,"version":"13.0b/18.0a"},{"town":"西十一条北八丁目","koaza":"","lat":42.94205,"lng":143.185204,"version":"13.0b/18.0a"},{"town":"西十一条北九丁目","koaza":"","lat":42.944354,"lng":143.184911,"version":"13.0b/18.0a"},{"town":"西十一条南十丁目","koaza":"","lat":42.919745,"lng":143.187952,"version":"13.0b/18.0a"},{"town":"西十一条南十一丁目","koaza":"","lat":42.918593,"lng":143.188082,"version":"13.0b/18.0a"},{"town":"西十一条南十二丁目","koaza":"","lat":42.91744,"lng":143.188241,"version":"13.0b/18.0a"},{"town":"西十一条南十三丁目","koaza":"","lat":42.91628,"lng":143.188401,"version":"13.0b/18.0a"},{"town":"西十一条南十四丁目","koaza":"","lat":42.915118,"lng":143.188562,"version":"13.0b/18.0a"},{"town":"西十一条南十五丁目","koaza":"","lat":42.913966,"lng":143.188722,"version":"13.0b/18.0a"},{"town":"西十一条南十六丁目","koaza":"","lat":42.912816,"lng":143.188879,"version":"13.0b/18.0a"},{"town":"西十一条南十七丁目","koaza":"","lat":42.911658,"lng":143.189036,"version":"13.0b/18.0a"},{"town":"西十一条南十八丁目","koaza":"","lat":42.910419,"lng":143.189083,"version":"13.0b/18.0a"},{"town":"西十一条南十九丁目","koaza":"","lat":42.909602,"lng":143.189689,"version":"13.0b/18.0a"},{"town":"西十一条南一丁目","koaza":"","lat":42.930214,"lng":143.186727,"version":"13.0b/18.0a"},{"town":"西十一条南二十四丁目","koaza":"","lat":42.903324,"lng":143.190141,"version":"13.0b/18.0a"},{"town":"西十一条南二十五丁目","koaza":"","lat":42.902294,"lng":143.190371,"version":"13.0b/18.0a"},{"town":"西十一条南二十六丁目","koaza":"","lat":42.901089,"lng":143.190376,"version":"13.0b/18.0a"},{"town":"西十一条南二十七丁目","koaza":"","lat":42.899936,"lng":143.190483,"version":"13.0b/18.0a"},{"town":"西十一条南二十八丁目","koaza":"","lat":42.898823,"lng":143.190617,"version":"13.0b/18.0a"},{"town":"西十一条南二十九丁目","koaza":"","lat":42.89766,"lng":143.190816,"version":"13.0b/18.0a"},{"town":"西十一条南二丁目","koaza":"","lat":42.929043,"lng":143.18686,"version":"13.0b/18.0a"},{"town":"西十一条南三十丁目","koaza":"","lat":42.896546,"lng":143.191003,"version":"13.0b/18.0a"},{"town":"西十一条南三十一丁目","koaza":"","lat":42.895384,"lng":143.191167,"version":"13.0b/18.0a"},{"town":"西十一条南三十二丁目","koaza":"","lat":42.894156,"lng":143.191332,"version":"13.0b/18.0a"},{"town":"西十一条南三十三丁目","koaza":"","lat":42.89304,"lng":143.191555,"version":"13.0b/18.0a"},{"town":"西十一条南三十四丁目","koaza":"","lat":42.89174,"lng":143.191679,"version":"13.0b/18.0a"},{"town":"西十一条南三十九丁目","koaza":"","lat":42.884532,"lng":143.19239,"version":"13.0b/18.0a"},{"town":"西十一条南三丁目","koaza":"","lat":42.927849,"lng":143.187069,"version":"13.0b/18.0a"},{"town":"西十一条南四十丁目","koaza":"","lat":42.883371,"lng":143.192317,"version":"13.0b/18.0a"},{"town":"西十一条南四十一丁目","koaza":"","lat":42.881815,"lng":143.192483,"version":"13.0b/18.0a"},{"town":"西十一条南四丁目","koaza":"","lat":42.926659,"lng":143.187242,"version":"13.0b/18.0a"},{"town":"西十一条南五丁目","koaza":"","lat":42.925576,"lng":143.187338,"version":"13.0b/18.0a"},{"town":"西十一条南六丁目","koaza":"","lat":42.924813,"lng":143.188247,"version":"13.0b/18.0a"},{"town":"西十一条南九丁目","koaza":"","lat":42.920573,"lng":143.188251,"version":"13.0b/18.0a"},{"town":"西十二条北十丁目","koaza":"","lat":42.947891,"lng":143.182362,"version":"13.0b/18.0a"},{"town":"西十二条北一丁目","koaza":"","lat":42.931259,"lng":143.184737,"version":"13.0b/18.0a"},{"town":"西十二条北二丁目","koaza":"","lat":42.932391,"lng":143.184377,"version":"13.0b/18.0a"},{"town":"西十二条北三丁目","koaza":"","lat":42.933714,"lng":143.184439,"version":"13.0b/18.0a"},{"town":"西十二条北四丁目","koaza":"","lat":42.934963,"lng":143.184285,"version":"13.0b/18.0a"},{"town":"西十二条北五丁目","koaza":"","lat":42.936288,"lng":143.184115,"version":"13.0b/18.0a"},{"town":"西十二条北六丁目","koaza":"","lat":42.937543,"lng":143.183944,"version":"13.0b/18.0a"},{"town":"西十二条北七丁目","koaza":"","lat":42.939383,"lng":143.1837,"version":"13.0b/18.0a"},{"town":"西十二条北八丁目","koaza":"","lat":42.941924,"lng":143.18337,"version":"13.0b/18.0a"},{"town":"西十二条北九丁目","koaza":"","lat":42.944228,"lng":143.183081,"version":"13.0b/18.0a"},{"town":"西十二条南十丁目","koaza":"","lat":42.919461,"lng":143.186359,"version":"13.0b/18.0a"},{"town":"西十二条南十一丁目","koaza":"","lat":42.918475,"lng":143.186477,"version":"13.0b/18.0a"},{"town":"西十二条南十二丁目","koaza":"","lat":42.917324,"lng":143.186625,"version":"13.0b/18.0a"},{"town":"西十二条南十三丁目","koaza":"","lat":42.916166,"lng":143.186777,"version":"13.0b/18.0a"},{"town":"西十二条南十四丁目","koaza":"","lat":42.915001,"lng":143.186929,"version":"13.0b/18.0a"},{"town":"西十二条南十五丁目","koaza":"","lat":42.913851,"lng":143.1871,"version":"13.0b/18.0a"},{"town":"西十二条南十六丁目","koaza":"","lat":42.912688,"lng":143.187228,"version":"13.0b/18.0a"},{"town":"西十二条南十七丁目","koaza":"","lat":42.911533,"lng":143.187336,"version":"13.0b/18.0a"},{"town":"西十二条南十八丁目","koaza":"","lat":42.910537,"lng":143.187951,"version":"13.0b/18.0a"},{"town":"西十二条南一丁目","koaza":"","lat":42.93009,"lng":143.184854,"version":"13.0b/18.0a"},{"town":"西十二条南二十四丁目","koaza":"","lat":42.902919,"lng":143.189281,"version":"13.0b/18.0a"},{"town":"西十二条南二十五丁目","koaza":"","lat":42.902167,"lng":143.189115,"version":"13.0b/18.0a"},{"town":"西十二条南二十六丁目","koaza":"","lat":42.900988,"lng":143.188553,"version":"13.0b/18.0a"},{"town":"西十二条南二十七丁目","koaza":"","lat":42.899809,"lng":143.18865,"version":"13.0b/18.0a"},{"town":"西十二条南二十八丁目","koaza":"","lat":42.898692,"lng":143.18879,"version":"13.0b/18.0a"},{"town":"西十二条南二十九丁目","koaza":"","lat":42.897529,"lng":143.188992,"version":"13.0b/18.0a"},{"town":"西十二条南二丁目","koaza":"","lat":42.928923,"lng":143.18499,"version":"13.0b/18.0a"},{"town":"西十二条南三十丁目","koaza":"","lat":42.896413,"lng":143.189176,"version":"13.0b/18.0a"},{"town":"西十二条南三十一丁目","koaza":"","lat":42.895244,"lng":143.189327,"version":"13.0b/18.0a"},{"town":"西十二条南三十二丁目","koaza":"","lat":42.894014,"lng":143.189497,"version":"13.0b/18.0a"},{"town":"西十二条南三十三丁目","koaza":"","lat":42.892876,"lng":143.18963,"version":"13.0b/18.0a"},{"town":"西十二条南三十四丁目","koaza":"","lat":42.891653,"lng":143.189749,"version":"13.0b/18.0a"},{"town":"西十二条南三十九丁目","koaza":"","lat":42.885493,"lng":143.189838,"version":"13.0b/18.0a"},{"town":"西十二条南三丁目","koaza":"","lat":42.927674,"lng":143.185176,"version":"13.0b/18.0a"},{"town":"西十二条南四十丁目","koaza":"","lat":42.883336,"lng":143.190617,"version":"13.0b/18.0a"},{"town":"西十二条南四十一丁目","koaza":"","lat":42.881699,"lng":143.190817,"version":"13.0b/18.0a"},{"town":"西十二条南四丁目","koaza":"","lat":42.926481,"lng":143.185333,"version":"13.0b/18.0a"},{"town":"西十二条南五丁目","koaza":"","lat":42.925721,"lng":143.18618,"version":"13.0b/18.0a"},{"town":"西十二条南六丁目","koaza":"","lat":42.924123,"lng":143.185647,"version":"13.0b/18.0a"},{"town":"西十二条南七丁目","koaza":"","lat":42.922969,"lng":143.185843,"version":"13.0b/18.0a"},{"town":"西十二条南八丁目","koaza":"","lat":42.921864,"lng":143.186196,"version":"13.0b/18.0a"},{"town":"西十二条南九丁目","koaza":"","lat":42.920712,"lng":143.186615,"version":"13.0b/18.0a"},{"town":"西十三条北十丁目","koaza":"","lat":42.946952,"lng":143.180414,"version":"13.0b/18.0a"},{"town":"西十三条北一丁目","koaza":"","lat":42.931358,"lng":143.182446,"version":"13.0b/18.0a"},{"town":"西十三条北二丁目","koaza":"","lat":42.93245,"lng":143.182299,"version":"13.0b/18.0a"},{"town":"西十三条北三丁目","koaza":"","lat":42.933571,"lng":143.182147,"version":"13.0b/18.0a"},{"town":"西十三条北四丁目","koaza":"","lat":42.934801,"lng":143.181979,"version":"13.0b/18.0a"},{"town":"西十三条北五丁目","koaza":"","lat":42.936126,"lng":143.181799,"version":"13.0b/18.0a"},{"town":"西十三条北六丁目","koaza":"","lat":42.937381,"lng":143.181628,"version":"13.0b/18.0a"},{"town":"西十三条北七丁目","koaza":"","lat":42.939217,"lng":143.181384,"version":"13.0b/18.0a"},{"town":"西十三条北八丁目","koaza":"","lat":42.941716,"lng":143.180828,"version":"13.0b/18.0a"},{"town":"西十三条北九丁目","koaza":"","lat":42.944067,"lng":143.18078,"version":"13.0b/18.0a"},{"town":"西十三条南十丁目","koaza":"","lat":42.919388,"lng":143.184258,"version":"13.0b/18.0a"},{"town":"西十三条南十一丁目","koaza":"","lat":42.918277,"lng":143.184338,"version":"13.0b/18.0a"},{"town":"西十三条南十二丁目","koaza":"","lat":42.917134,"lng":143.18444,"version":"13.0b/18.0a"},{"town":"西十三条南十三丁目","koaza":"","lat":42.916008,"lng":143.184583,"version":"13.0b/18.0a"},{"town":"西十三条南十四丁目","koaza":"","lat":42.91484,"lng":143.18473,"version":"13.0b/18.0a"},{"town":"西十三条南十五丁目","koaza":"","lat":42.913697,"lng":143.185007,"version":"13.0b/18.0a"},{"town":"西十三条南十六丁目","koaza":"","lat":42.912545,"lng":143.185083,"version":"13.0b/18.0a"},{"town":"西十三条南十七丁目","koaza":"","lat":42.911381,"lng":143.185243,"version":"13.0b/18.0a"},{"town":"西十三条南一丁目","koaza":"","lat":42.929941,"lng":143.182633,"version":"13.0b/18.0a"},{"town":"西十三条南二十七丁目","koaza":"","lat":42.899855,"lng":143.186346,"version":"13.0b/18.0a"},{"town":"西十三条南二十八丁目","koaza":"","lat":42.898668,"lng":143.186865,"version":"13.0b/18.0a"},{"town":"西十三条南二十九丁目","koaza":"","lat":42.897347,"lng":143.186993,"version":"13.0b/18.0a"},{"town":"西十三条南二丁目","koaza":"","lat":42.928711,"lng":143.182794,"version":"13.0b/18.0a"},{"town":"西十三条南三十丁目","koaza":"","lat":42.896187,"lng":143.187054,"version":"13.0b/18.0a"},{"town":"西十三条南三十一丁目","koaza":"","lat":42.895043,"lng":143.187256,"version":"13.0b/18.0a"},{"town":"西十三条南三十二丁目","koaza":"","lat":42.893824,"lng":143.187418,"version":"13.0b/18.0a"},{"town":"西十三条南三十三丁目","koaza":"","lat":42.892619,"lng":143.187579,"version":"13.0b/18.0a"},{"town":"西十三条南三十四丁目","koaza":"","lat":42.891415,"lng":143.187782,"version":"13.0b/18.0a"},{"town":"西十三条南三十五丁目","koaza":"","lat":42.890049,"lng":143.187023,"version":"13.0b/18.0a"},{"town":"西十三条南三十六丁目","koaza":"","lat":42.888887,"lng":143.187279,"version":"13.0b/18.0a"},{"town":"西十三条南三十九丁目","koaza":"","lat":42.884888,"lng":143.188666,"version":"13.0b/18.0a"},{"town":"西十三条南三丁目","koaza":"","lat":42.927523,"lng":143.182952,"version":"13.0b/18.0a"},{"town":"西十三条南四十丁目","koaza":"","lat":42.883256,"lng":143.189089,"version":"13.0b/18.0a"},{"town":"西十三条南四十一丁目","koaza":"","lat":42.881622,"lng":143.1896,"version":"13.0b/18.0a"},{"town":"西十三条南四丁目","koaza":"","lat":42.926231,"lng":143.182681,"version":"13.0b/18.0a"},{"town":"西十三条南六丁目","koaza":"","lat":42.923951,"lng":143.183419,"version":"13.0b/18.0a"},{"town":"西十三条南七丁目","koaza":"","lat":42.9228,"lng":143.183703,"version":"13.0b/18.0a"},{"town":"西十三条南八丁目","koaza":"","lat":42.921705,"lng":143.183856,"version":"13.0b/18.0a"},{"town":"西十三条南九丁目","koaza":"","lat":42.920607,"lng":143.184005,"version":"13.0b/18.0a"},{"town":"西十四条北十丁目","koaza":"","lat":42.946184,"lng":143.178642,"version":"13.0b/18.0a"},{"town":"西十四条北一丁目","koaza":"","lat":42.930959,"lng":143.180227,"version":"13.0b/18.0a"},{"town":"西十四条北二丁目","koaza":"","lat":42.932228,"lng":143.180039,"version":"13.0b/18.0a"},{"town":"西十四条北三丁目","koaza":"","lat":42.933415,"lng":143.179895,"version":"13.0b/18.0a"},{"town":"西十四条北四丁目","koaza":"","lat":42.934647,"lng":143.179748,"version":"13.0b/18.0a"},{"town":"西十四条北五丁目","koaza":"","lat":42.935973,"lng":143.179578,"version":"13.0b/18.0a"},{"town":"西十四条北六丁目","koaza":"","lat":42.937223,"lng":143.179402,"version":"13.0b/18.0a"},{"town":"西十四条北七丁目","koaza":"","lat":42.939053,"lng":143.179139,"version":"13.0b/18.0a"},{"town":"西十四条北八丁目","koaza":"","lat":42.941592,"lng":143.178796,"version":"13.0b/18.0a"},{"town":"西十四条北九丁目","koaza":"","lat":42.943913,"lng":143.178502,"version":"13.0b/18.0a"},{"town":"西十四条南十丁目","koaza":"","lat":42.919216,"lng":143.181917,"version":"13.0b/18.0a"},{"town":"西十四条南十一丁目","koaza":"","lat":42.918042,"lng":143.181991,"version":"13.0b/18.0a"},{"town":"西十四条南十二丁目","koaza":"","lat":42.916955,"lng":143.182005,"version":"13.0b/18.0a"},{"town":"西十四条南十三丁目","koaza":"","lat":42.915807,"lng":143.182148,"version":"13.0b/18.0a"},{"town":"西十四条南十四丁目","koaza":"","lat":42.914601,"lng":143.182524,"version":"13.0b/18.0a"},{"town":"西十四条南十五丁目","koaza":"","lat":42.913511,"lng":143.18258,"version":"13.0b/18.0a"},{"town":"西十四条南十六丁目","koaza":"","lat":42.912377,"lng":143.182702,"version":"13.0b/18.0a"},{"town":"西十四条南十七丁目","koaza":"","lat":42.911208,"lng":143.182838,"version":"13.0b/18.0a"},{"town":"西十四条南一丁目","koaza":"","lat":42.929787,"lng":143.180387,"version":"13.0b/18.0a"},{"town":"西十四条南二十八丁目","koaza":"","lat":42.898113,"lng":143.18429,"version":"13.0b/18.0a"},{"town":"西十四条南二十九丁目","koaza":"","lat":42.89737,"lng":143.184276,"version":"13.0b/18.0a"},{"town":"西十四条南二丁目","koaza":"","lat":42.928517,"lng":143.180542,"version":"13.0b/18.0a"},{"town":"西十四条南三十丁目","koaza":"","lat":42.896024,"lng":143.184445,"version":"13.0b/18.0a"},{"town":"西十四条南三十一丁目","koaza":"","lat":42.894745,"lng":143.184688,"version":"13.0b/18.0a"},{"town":"西十四条南三十二丁目","koaza":"","lat":42.893586,"lng":143.184809,"version":"13.0b/18.0a"},{"town":"西十四条南三十三丁目","koaza":"","lat":42.892515,"lng":143.18493,"version":"13.0b/18.0a"},{"town":"西十四条南三十四丁目","koaza":"","lat":42.891252,"lng":143.185092,"version":"13.0b/18.0a"},{"town":"西十四条南三十五丁目","koaza":"","lat":42.889967,"lng":143.185724,"version":"13.0b/18.0a"},{"town":"西十四条南三十六丁目","koaza":"","lat":42.888696,"lng":143.185884,"version":"13.0b/18.0a"},{"town":"西十四条南三十七丁目","koaza":"","lat":42.887535,"lng":143.185457,"version":"13.0b/18.0a"},{"town":"西十四条南三十九丁目","koaza":"","lat":42.88478,"lng":143.187035,"version":"13.0b/18.0a"},{"town":"西十四条南三丁目","koaza":"","lat":42.927273,"lng":143.180699,"version":"13.0b/18.0a"},{"town":"西十四条南四十丁目","koaza":"","lat":42.883013,"lng":143.187082,"version":"13.0b/18.0a"},{"town":"西十四条南四十一丁目","koaza":"","lat":42.881719,"lng":143.187303,"version":"13.0b/18.0a"},{"town":"西十四条南四丁目","koaza":"","lat":42.926417,"lng":143.18099,"version":"13.0b/18.0a"},{"town":"西十四条南五丁目","koaza":"","lat":42.925141,"lng":143.180901,"version":"13.0b/18.0a"},{"town":"西十四条南六丁目","koaza":"","lat":42.924125,"lng":143.181559,"version":"13.0b/18.0a"},{"town":"西十四条南七丁目","koaza":"","lat":42.922634,"lng":143.181508,"version":"13.0b/18.0a"},{"town":"西十四条南八丁目","koaza":"","lat":42.92156,"lng":143.181652,"version":"13.0b/18.0a"},{"town":"西十四条南九丁目","koaza":"","lat":42.920474,"lng":143.181801,"version":"13.0b/18.0a"},{"town":"西十五条北一丁目","koaza":"","lat":42.930804,"lng":143.178005,"version":"13.0b/18.0a"},{"town":"西十五条北二丁目","koaza":"","lat":42.932178,"lng":143.177599,"version":"13.0b/18.0a"},{"town":"西十五条北三丁目","koaza":"","lat":42.933247,"lng":143.177672,"version":"13.0b/18.0a"},{"town":"西十五条北四丁目","koaza":"","lat":42.934488,"lng":143.177529,"version":"13.0b/18.0a"},{"town":"西十五条北五丁目","koaza":"","lat":42.935815,"lng":143.177364,"version":"13.0b/18.0a"},{"town":"西十五条北六丁目","koaza":"","lat":42.937068,"lng":143.17719,"version":"13.0b/18.0a"},{"town":"西十五条北七丁目","koaza":"","lat":42.938903,"lng":143.17692,"version":"13.0b/18.0a"},{"town":"西十五条北八丁目","koaza":"","lat":42.941028,"lng":143.176624,"version":"13.0b/18.0a"},{"town":"西十五条北九丁目","koaza":"","lat":42.943599,"lng":143.176248,"version":"13.0b/18.0a"},{"town":"西十五条南十丁目","koaza":"","lat":42.91903,"lng":143.179697,"version":"13.0b/18.0a"},{"town":"西十五条南十一丁目","koaza":"","lat":42.917848,"lng":143.179841,"version":"13.0b/18.0a"},{"town":"西十五条南十二丁目","koaza":"","lat":42.916737,"lng":143.179883,"version":"13.0b/18.0a"},{"town":"西十五条南十三丁目","koaza":"","lat":42.915706,"lng":143.180013,"version":"13.0b/18.0a"},{"town":"西十五条南十四丁目","koaza":"","lat":42.914468,"lng":143.180203,"version":"13.0b/18.0a"},{"town":"西十五条南十五丁目","koaza":"","lat":42.913384,"lng":143.180335,"version":"13.0b/18.0a"},{"town":"西十五条南十六丁目","koaza":"","lat":42.912192,"lng":143.180473,"version":"13.0b/18.0a"},{"town":"西十五条南十七丁目","koaza":"","lat":42.911072,"lng":143.180623,"version":"13.0b/18.0a"},{"town":"西十五条南一丁目","koaza":"","lat":42.929505,"lng":143.178173,"version":"13.0b/18.0a"},{"town":"西十五条南二十八丁目","koaza":"","lat":42.89795,"lng":143.18199,"version":"13.0b/18.0a"},{"town":"西十五条南二丁目","koaza":"","lat":42.928235,"lng":143.178329,"version":"13.0b/18.0a"},{"town":"西十五条南三十丁目","koaza":"","lat":42.895915,"lng":143.18224,"version":"13.0b/18.0a"},{"town":"西十五条南三十一丁目","koaza":"","lat":42.894696,"lng":143.182469,"version":"13.0b/18.0a"},{"town":"西十五条南三十二丁目","koaza":"","lat":42.893507,"lng":143.182631,"version":"13.0b/18.0a"},{"town":"西十五条南三十五丁目","koaza":"","lat":42.889909,"lng":143.183468,"version":"13.0b/18.0a"},{"town":"西十五条南三十六丁目","koaza":"","lat":42.888749,"lng":143.183634,"version":"13.0b/18.0a"},{"town":"西十五条南三十七丁目","koaza":"","lat":42.886798,"lng":143.183722,"version":"13.0b/18.0a"},{"town":"西十五条南三十八丁目","koaza":"","lat":42.885842,"lng":143.18393,"version":"13.0b/18.0a"},{"town":"西十五条南三十九丁目","koaza":"","lat":42.884654,"lng":143.184662,"version":"13.0b/18.0a"},{"town":"西十五条南三丁目","koaza":"","lat":42.927137,"lng":143.17848,"version":"13.0b/18.0a"},{"town":"西十五条南四十丁目","koaza":"","lat":42.883019,"lng":143.184534,"version":"13.0b/18.0a"},{"town":"西十五条南四十一丁目","koaza":"","lat":42.881318,"lng":143.185171,"version":"13.0b/18.0a"},{"town":"西十五条南四丁目","koaza":"","lat":42.926178,"lng":143.178619,"version":"13.0b/18.0a"},{"town":"西十五条南五丁目","koaza":"","lat":42.924993,"lng":143.178598,"version":"13.0b/18.0a"},{"town":"西十五条南六丁目","koaza":"","lat":42.923637,"lng":143.17906,"version":"13.0b/18.0a"},{"town":"西十五条南七丁目","koaza":"","lat":42.922456,"lng":143.179218,"version":"13.0b/18.0a"},{"town":"西十五条南八丁目","koaza":"","lat":42.921401,"lng":143.179365,"version":"13.0b/18.0a"},{"town":"西十五条南九丁目","koaza":"","lat":42.920304,"lng":143.179544,"version":"13.0b/18.0a"},{"town":"西十六条北一丁目","koaza":"","lat":42.932338,"lng":143.173255,"version":"13.0b/18.0a"},{"town":"西十六条北二丁目","koaza":"","lat":42.937213,"lng":143.173727,"version":"13.0b/18.0a"},{"town":"西十六条北三丁目","koaza":"","lat":42.942398,"lng":143.171887,"version":"13.0b/18.0a"},{"town":"西十六条南一丁目","koaza":"","lat":42.92751,"lng":143.173899,"version":"13.0b/18.0a"},{"town":"西十六条南二丁目","koaza":"","lat":42.9226,"lng":143.175124,"version":"13.0b/18.0a"},{"town":"西十六条南三十五丁目","koaza":"","lat":42.889151,"lng":143.181138,"version":"13.0b/18.0a"},{"town":"西十六条南三十六丁目","koaza":"","lat":42.888479,"lng":143.18179,"version":"13.0b/18.0a"},{"town":"西十六条南三十七丁目","koaza":"","lat":42.886924,"lng":143.181517,"version":"13.0b/18.0a"},{"town":"西十六条南三十八丁目","koaza":"","lat":42.885687,"lng":143.181652,"version":"13.0b/18.0a"},{"town":"西十六条南三十九丁目","koaza":"","lat":42.884034,"lng":143.18126,"version":"13.0b/18.0a"},{"town":"西十六条南四十丁目","koaza":"","lat":42.882932,"lng":143.18209,"version":"13.0b/18.0a"},{"town":"西十六条南四十一丁目","koaza":"","lat":42.881231,"lng":143.182329,"version":"13.0b/18.0a"},{"town":"西十六条南四丁目","koaza":"","lat":42.91239,"lng":143.17593,"version":"13.0b/18.0a"},{"town":"西十六条南五丁目","koaza":"","lat":42.907597,"lng":143.176563,"version":"13.0b/18.0a"},{"town":"西十七条北一丁目","koaza":"","lat":42.931858,"lng":143.167152,"version":"13.0b/18.0a"},{"town":"西十七条北二丁目","koaza":"","lat":42.936825,"lng":143.165791,"version":"13.0b/18.0a"},{"town":"西十七条北三丁目","koaza":"","lat":42.940242,"lng":143.165352,"version":"13.0b/18.0a"},{"town":"西十七条北四丁目","koaza":"","lat":42.945176,"lng":143.163517,"version":"13.0b/18.0a"},{"town":"西十七条南一丁目","koaza":"","lat":42.927559,"lng":143.16704,"version":"13.0b/18.0a"},{"town":"西十七条南三十五丁目","koaza":"","lat":42.889426,"lng":143.178634,"version":"13.0b/18.0a"},{"town":"西十七条南三十六丁目","koaza":"","lat":42.887616,"lng":143.178658,"version":"13.0b/18.0a"},{"town":"西十七条南三十七丁目","koaza":"","lat":42.886945,"lng":143.179505,"version":"13.0b/18.0a"},{"town":"西十七条南三十八丁目","koaza":"","lat":42.885602,"lng":143.179748,"version":"13.0b/18.0a"},{"town":"西十七条南三十九丁目","koaza":"","lat":42.884329,"lng":143.179209,"version":"13.0b/18.0a"},{"town":"西十七条南三丁目","koaza":"","lat":42.91696,"lng":143.168458,"version":"13.0b/18.0a"},{"town":"西十七条南四十丁目","koaza":"","lat":42.882732,"lng":143.180094,"version":"13.0b/18.0a"},{"town":"西十七条南四十一丁目","koaza":"","lat":42.881035,"lng":143.179739,"version":"13.0b/18.0a"},{"town":"西十七条南四丁目","koaza":"","lat":42.91197,"lng":143.169146,"version":"13.0b/18.0a"},{"town":"西十七条南五丁目","koaza":"","lat":42.907494,"lng":143.169408,"version":"13.0b/18.0a"},{"town":"西十七条南六丁目","koaza":"","lat":42.902093,"lng":143.169756,"version":"13.0b/18.0a"},{"town":"西十八条北一丁目","koaza":"","lat":42.931354,"lng":143.159611,"version":"13.0b/18.0a"},{"town":"西十八条北二丁目","koaza":"","lat":42.936332,"lng":143.158935,"version":"13.0b/18.0a"},{"town":"西十八条北三丁目","koaza":"","lat":42.939715,"lng":143.158489,"version":"13.0b/18.0a"},{"town":"西十八条北四丁目","koaza":"","lat":42.945134,"lng":143.15829,"version":"13.0b/18.0a"},{"town":"西十八条南一丁目","koaza":"","lat":42.926345,"lng":143.160355,"version":"13.0b/18.0a"},{"town":"西十八条南二丁目","koaza":"","lat":42.921434,"lng":143.160995,"version":"13.0b/18.0a"},{"town":"西十八条南三十五丁目","koaza":"","lat":42.889599,"lng":143.176309,"version":"13.0b/18.0a"},{"town":"西十八条南三十六丁目","koaza":"","lat":42.887959,"lng":143.176629,"version":"13.0b/18.0a"},{"town":"西十八条南三十七丁目","koaza":"","lat":42.8862,"lng":143.176701,"version":"13.0b/18.0a"},{"town":"西十八条南三十八丁目","koaza":"","lat":42.885669,"lng":143.177827,"version":"13.0b/18.0a"},{"town":"西十八条南三十九丁目","koaza":"","lat":42.883296,"lng":143.177352,"version":"13.0b/18.0a"},{"town":"西十八条南三丁目","koaza":"","lat":42.91649,"lng":143.161681,"version":"13.0b/18.0a"},{"town":"西十八条南四十丁目","koaza":"","lat":42.881818,"lng":143.177637,"version":"13.0b/18.0a"},{"town":"西十八条南四十一丁目","koaza":"","lat":42.880253,"lng":143.177412,"version":"13.0b/18.0a"},{"town":"西十八条南四丁目","koaza":"","lat":42.911483,"lng":143.162381,"version":"13.0b/18.0a"},{"town":"西十八条南五丁目","koaza":"","lat":42.906025,"lng":143.163105,"version":"13.0b/18.0a"},{"town":"西十八条南六丁目","koaza":"","lat":42.900855,"lng":143.163773,"version":"13.0b/18.0a"},{"town":"西十九条北一丁目","koaza":"","lat":42.930865,"lng":143.152798,"version":"13.0b/18.0a"},{"town":"西十九条北二丁目","koaza":"","lat":42.935846,"lng":143.152134,"version":"13.0b/18.0a"},{"town":"西十九条北三丁目","koaza":"","lat":42.944398,"lng":143.151074,"version":"13.0b/18.0a"},{"town":"西十九条南一丁目","koaza":"","lat":42.925748,"lng":143.153647,"version":"13.0b/18.0a"},{"town":"西十九条南二丁目","koaza":"","lat":42.921234,"lng":143.154202,"version":"13.0b/18.0a"},{"town":"西十九条南三十五丁目","koaza":"","lat":42.889152,"lng":143.174802,"version":"13.0b/18.0a"},{"town":"西十九条南三十六丁目","koaza":"","lat":42.887909,"lng":143.174595,"version":"13.0b/18.0a"},{"town":"西十九条南三十七丁目","koaza":"","lat":42.886706,"lng":143.174751,"version":"13.0b/18.0a"},{"town":"西十九条南三十八丁目","koaza":"","lat":42.885379,"lng":143.174849,"version":"13.0b/18.0a"},{"town":"西十九条南三丁目","koaza":"","lat":42.91598,"lng":143.154938,"version":"13.0b/18.0a"},{"town":"西十九条南四十一丁目","koaza":"","lat":42.880483,"lng":143.17586,"version":"13.0b/18.0a"},{"town":"西十九条南四十二丁目","koaza":"","lat":42.878704,"lng":143.173858,"version":"13.0b/18.0a"},{"town":"西十九条南四丁目","koaza":"","lat":42.911011,"lng":143.155582,"version":"13.0b/18.0a"},{"town":"西十九条南五丁目","koaza":"","lat":42.905389,"lng":143.155785,"version":"13.0b/18.0a"},{"town":"西十九条南六丁目","koaza":"","lat":42.90023,"lng":143.158948,"version":"13.0b/18.0a"},{"town":"西一条北一丁目","koaza":"","lat":42.93253,"lng":143.202314,"version":"13.0b/18.0a"},{"town":"西一条北二丁目","koaza":"","lat":42.934411,"lng":143.202068,"version":"13.0b/18.0a"},{"town":"西一条南十丁目","koaza":"","lat":42.920914,"lng":143.203855,"version":"13.0b/18.0a"},{"town":"西一条南十一丁目","koaza":"","lat":42.919751,"lng":143.204013,"version":"13.0b/18.0a"},{"town":"西一条南十二丁目","koaza":"","lat":42.918528,"lng":143.204147,"version":"13.0b/18.0a"},{"town":"西一条南十三丁目","koaza":"","lat":42.917371,"lng":143.204309,"version":"13.0b/18.0a"},{"town":"西一条南十四丁目","koaza":"","lat":42.916259,"lng":143.204474,"version":"13.0b/18.0a"},{"town":"西一条南十五丁目","koaza":"","lat":42.91511,"lng":143.204613,"version":"13.0b/18.0a"},{"town":"西一条南十六丁目","koaza":"","lat":42.913955,"lng":143.204753,"version":"13.0b/18.0a"},{"town":"西一条南十七丁目","koaza":"","lat":42.912797,"lng":143.204902,"version":"13.0b/18.0a"},{"town":"西一条南十八丁目","koaza":"","lat":42.911638,"lng":143.205055,"version":"13.0b/18.0a"},{"town":"西一条南十九丁目","koaza":"","lat":42.910441,"lng":143.205217,"version":"13.0b/18.0a"},{"town":"西一条南一丁目","koaza":"","lat":42.931358,"lng":143.20246,"version":"13.0b/18.0a"},{"town":"西一条南二十丁目","koaza":"","lat":42.909209,"lng":143.205389,"version":"13.0b/18.0a"},{"town":"西一条南二十一丁目","koaza":"","lat":42.908012,"lng":143.205561,"version":"13.0b/18.0a"},{"town":"西一条南二十二丁目","koaza":"","lat":42.906853,"lng":143.205718,"version":"13.0b/18.0a"},{"town":"西一条南二十三丁目","koaza":"","lat":42.905697,"lng":143.205871,"version":"13.0b/18.0a"},{"town":"西一条南二十四丁目","koaza":"","lat":42.90455,"lng":143.206026,"version":"13.0b/18.0a"},{"town":"西一条南二十五丁目","koaza":"","lat":42.903398,"lng":143.20618,"version":"13.0b/18.0a"},{"town":"西一条南二十六丁目","koaza":"","lat":42.902233,"lng":143.206344,"version":"13.0b/18.0a"},{"town":"西一条南二十七丁目","koaza":"","lat":42.901028,"lng":143.20651,"version":"13.0b/18.0a"},{"town":"西一条南二十八丁目","koaza":"","lat":42.899936,"lng":143.206649,"version":"13.0b/18.0a"},{"town":"西一条南二十九丁目","koaza":"","lat":42.898766,"lng":143.206796,"version":"13.0b/18.0a"},{"town":"西一条南二丁目","koaza":"","lat":42.930169,"lng":143.202629,"version":"13.0b/18.0a"},{"town":"西一条南三十丁目","koaza":"","lat":42.89753,"lng":143.206711,"version":"13.0b/18.0a"},{"town":"西一条南三十一丁目","koaza":"","lat":42.896568,"lng":143.206408,"version":"13.0b/18.0a"},{"town":"西一条南三十二丁目","koaza":"","lat":42.895512,"lng":143.206613,"version":"13.0b/18.0a"},{"town":"西一条南三十三丁目","koaza":"","lat":42.894221,"lng":143.20687,"version":"13.0b/18.0a"},{"town":"西一条南三十五丁目","koaza":"","lat":42.891291,"lng":143.207742,"version":"13.0b/18.0a"},{"town":"西一条南三十六丁目","koaza":"","lat":42.889432,"lng":143.207649,"version":"13.0b/18.0a"},{"town":"西一条南三丁目","koaza":"","lat":42.929007,"lng":143.202783,"version":"13.0b/18.0a"},{"town":"西一条南四丁目","koaza":"","lat":42.927859,"lng":143.202927,"version":"13.0b/18.0a"},{"town":"西一条南五丁目","koaza":"","lat":42.926704,"lng":143.203082,"version":"13.0b/18.0a"},{"town":"西一条南六丁目","koaza":"","lat":42.925552,"lng":143.203236,"version":"13.0b/18.0a"},{"town":"西一条南七丁目","koaza":"","lat":42.924394,"lng":143.203393,"version":"13.0b/18.0a"},{"town":"西一条南八丁目","koaza":"","lat":42.923232,"lng":143.203543,"version":"13.0b/18.0a"},{"town":"西一条南九丁目","koaza":"","lat":42.922076,"lng":143.203694,"version":"13.0b/18.0a"},{"town":"西二十条北一丁目","koaza":"","lat":42.930397,"lng":143.146076,"version":"13.0b/18.0a"},{"town":"西二十条北二丁目","koaza":"","lat":42.936109,"lng":143.14532,"version":"13.0b/18.0a"},{"town":"西二十条北三丁目","koaza":"","lat":42.941789,"lng":143.144648,"version":"13.0b/18.0a"},{"town":"西二十条北四丁目","koaza":"","lat":42.946605,"lng":143.144031,"version":"13.0b/18.0a"},{"town":"西二十条北五丁目","koaza":"","lat":42.94962,"lng":143.143538,"version":"13.0b/18.0a"},{"town":"西二十条南一丁目","koaza":"","lat":42.92539,"lng":143.146818,"version":"13.0b/18.0a"},{"town":"西二十条南二丁目","koaza":"","lat":42.920425,"lng":143.147454,"version":"13.0b/18.0a"},{"town":"西二十条南三丁目","koaza":"","lat":42.915498,"lng":143.148173,"version":"13.0b/18.0a"},{"town":"西二十条南四丁目","koaza":"","lat":42.910546,"lng":143.148809,"version":"13.0b/18.0a"},{"town":"西二十条南五丁目","koaza":"","lat":42.905549,"lng":143.149473,"version":"13.0b/18.0a"},{"town":"西二十条南六丁目","koaza":"","lat":42.900606,"lng":143.148448,"version":"13.0b/18.0a"},{"town":"西二十一条北一丁目","koaza":"","lat":42.929907,"lng":143.13914,"version":"13.0b/18.0a"},{"town":"西二十一条北二丁目","koaza":"","lat":42.93487,"lng":143.138677,"version":"13.0b/18.0a"},{"town":"西二十一条北三丁目","koaza":"","lat":42.941096,"lng":143.137896,"version":"13.0b/18.0a"},{"town":"西二十一条北四丁目","koaza":"","lat":42.9461,"lng":143.137243,"version":"13.0b/18.0a"},{"town":"西二十一条北五丁目","koaza":"","lat":42.949482,"lng":143.13675,"version":"13.0b/18.0a"},{"town":"西二十一条南一丁目","koaza":"","lat":42.924929,"lng":143.139976,"version":"13.0b/18.0a"},{"town":"西二十一条南二丁目","koaza":"","lat":42.919927,"lng":143.140684,"version":"13.0b/18.0a"},{"town":"西二十一条南三丁目","koaza":"","lat":42.915012,"lng":143.141435,"version":"13.0b/18.0a"},{"town":"西二十一条南四丁目","koaza":"","lat":42.909383,"lng":143.142175,"version":"13.0b/18.0a"},{"town":"西二十一条南五丁目","koaza":"","lat":42.905084,"lng":143.142753,"version":"13.0b/18.0a"},{"town":"西二十一条南六丁目","koaza":"","lat":42.899566,"lng":143.144083,"version":"13.0b/18.0a"},{"town":"西二十二条北一丁目","koaza":"","lat":42.929423,"lng":143.13241,"version":"13.0b/18.0a"},{"town":"西二十二条北二丁目","koaza":"","lat":42.934065,"lng":143.132579,"version":"13.0b/18.0a"},{"town":"西二十二条北三丁目","koaza":"","lat":42.940775,"lng":143.131073,"version":"13.0b/18.0a"},{"town":"西二十二条北四丁目","koaza":"","lat":42.9456,"lng":143.130433,"version":"13.0b/18.0a"},{"town":"西二十二条北五丁目","koaza":"","lat":42.949714,"lng":143.130295,"version":"13.0b/18.0a"},{"town":"西二十二条南一丁目","koaza":"","lat":42.924464,"lng":143.133245,"version":"13.0b/18.0a"},{"town":"西二十二条南二丁目","koaza":"","lat":42.919486,"lng":143.13392,"version":"13.0b/18.0a"},{"town":"西二十二条南三丁目","koaza":"","lat":42.914499,"lng":143.134665,"version":"13.0b/18.0a"},{"town":"西二十二条南四丁目","koaza":"","lat":42.909542,"lng":143.135318,"version":"13.0b/18.0a"},{"town":"西二十二条南五丁目","koaza":"","lat":42.904507,"lng":143.135956,"version":"13.0b/18.0a"},{"town":"西二十二条南六丁目","koaza":"","lat":42.899502,"lng":143.136614,"version":"13.0b/18.0a"},{"town":"西二十三条北一丁目","koaza":"","lat":42.928947,"lng":143.125835,"version":"13.0b/18.0a"},{"town":"西二十三条北二丁目","koaza":"","lat":42.934168,"lng":143.125132,"version":"13.0b/18.0a"},{"town":"西二十三条北三丁目","koaza":"","lat":42.940316,"lng":143.124317,"version":"13.0b/18.0a"},{"town":"西二十三条北四丁目","koaza":"","lat":42.945082,"lng":143.123717,"version":"13.0b/18.0a"},{"town":"西二十三条北五丁目","koaza":"","lat":42.946878,"lng":143.125499,"version":"13.0b/18.0a"},{"town":"西二十三条南一丁目","koaza":"","lat":42.923981,"lng":143.126527,"version":"13.0b/18.0a"},{"town":"西二十三条南二丁目","koaza":"","lat":42.919002,"lng":143.127181,"version":"13.0b/18.0a"},{"town":"西二十三条南三丁目","koaza":"","lat":42.914051,"lng":143.127844,"version":"13.0b/18.0a"},{"town":"西二十三条南四丁目","koaza":"","lat":42.909039,"lng":143.128505,"version":"13.0b/18.0a"},{"town":"西二十三条南五丁目","koaza":"","lat":42.904636,"lng":143.129757,"version":"13.0b/18.0a"},{"town":"西二十三条南六丁目","koaza":"","lat":42.899004,"lng":143.129846,"version":"13.0b/18.0a"},{"town":"西二十四条北一丁目","koaza":"","lat":42.928448,"lng":143.119113,"version":"13.0b/18.0a"},{"town":"西二十四条北二丁目","koaza":"","lat":42.933441,"lng":143.118471,"version":"13.0b/18.0a"},{"town":"西二十四条北三丁目","koaza":"","lat":42.938557,"lng":143.118619,"version":"13.0b/18.0a"},{"town":"西二十四条北四丁目","koaza":"","lat":42.943221,"lng":143.117642,"version":"13.0b/18.0a"},{"town":"西二十四条南一丁目","koaza":"","lat":42.923517,"lng":143.119754,"version":"13.0b/18.0a"},{"town":"西二十四条南二丁目","koaza":"","lat":42.918517,"lng":143.12038,"version":"13.0b/18.0a"},{"town":"西二十四条南三丁目","koaza":"","lat":42.913545,"lng":143.121036,"version":"13.0b/18.0a"},{"town":"西二十四条南四丁目","koaza":"","lat":42.908595,"lng":143.121709,"version":"13.0b/18.0a"},{"town":"西二十四条南五丁目","koaza":"","lat":42.903631,"lng":143.122389,"version":"13.0b/18.0a"},{"town":"西二十四条南六丁目","koaza":"","lat":42.898557,"lng":143.123064,"version":"13.0b/18.0a"},{"town":"西二十五条北一丁目","koaza":"","lat":42.927784,"lng":143.112499,"version":"13.0b/18.0a"},{"town":"西二十五条北二丁目","koaza":"","lat":42.932496,"lng":143.113626,"version":"13.0b/18.0a"},{"town":"西二十五条北三丁目","koaza":"","lat":42.936407,"lng":143.112633,"version":"13.0b/18.0a"},{"town":"西二十五条南一丁目","koaza":"","lat":42.923032,"lng":143.113049,"version":"13.0b/18.0a"},{"town":"西二十五条南二丁目","koaza":"","lat":42.918036,"lng":143.113527,"version":"13.0b/18.0a"},{"town":"西二十五条南三丁目","koaza":"","lat":42.913045,"lng":143.11421,"version":"13.0b/18.0a"},{"town":"西二十五条南四丁目","koaza":"","lat":42.908081,"lng":143.1149,"version":"13.0b/18.0a"},{"town":"西二十五条南五丁目","koaza":"","lat":42.903153,"lng":143.115586,"version":"13.0b/18.0a"},{"town":"西二十五条南六丁目","koaza":"","lat":42.898108,"lng":143.116267,"version":"13.0b/18.0a"},{"town":"西二条北一丁目","koaza":"","lat":42.932439,"lng":143.20075,"version":"13.0b/18.0a"},{"town":"西二条北二丁目","koaza":"","lat":42.933627,"lng":143.200633,"version":"13.0b/18.0a"},{"town":"西二条北三丁目","koaza":"","lat":42.935277,"lng":143.200408,"version":"13.0b/18.0a"},{"town":"西二条南十丁目","koaza":"","lat":42.920813,"lng":143.202285,"version":"13.0b/18.0a"},{"town":"西二条南十一丁目","koaza":"","lat":42.919654,"lng":143.202442,"version":"13.0b/18.0a"},{"town":"西二条南十二丁目","koaza":"","lat":42.918559,"lng":143.202533,"version":"13.0b/18.0a"},{"town":"西二条南十三丁目","koaza":"","lat":42.917241,"lng":143.202431,"version":"13.0b/18.0a"},{"town":"西二条南十四丁目","koaza":"","lat":42.916306,"lng":143.202733,"version":"13.0b/18.0a"},{"town":"西二条南十五丁目","koaza":"","lat":42.915218,"lng":143.202816,"version":"13.0b/18.0a"},{"town":"西二条南十六丁目","koaza":"","lat":42.913841,"lng":143.203188,"version":"13.0b/18.0a"},{"town":"西二条南十七丁目","koaza":"","lat":42.912683,"lng":143.203339,"version":"13.0b/18.0a"},{"town":"西二条南十八丁目","koaza":"","lat":42.911521,"lng":143.203494,"version":"13.0b/18.0a"},{"town":"西二条南十九丁目","koaza":"","lat":42.910327,"lng":143.203657,"version":"13.0b/18.0a"},{"town":"西二条南一丁目","koaza":"","lat":42.931244,"lng":143.200899,"version":"13.0b/18.0a"},{"town":"西二条南二十丁目","koaza":"","lat":42.909098,"lng":143.203824,"version":"13.0b/18.0a"},{"town":"西二条南二十一丁目","koaza":"","lat":42.907899,"lng":143.203984,"version":"13.0b/18.0a"},{"town":"西二条南二十二丁目","koaza":"","lat":42.906741,"lng":143.204141,"version":"13.0b/18.0a"},{"town":"西二条南二十三丁目","koaza":"","lat":42.905586,"lng":143.204298,"version":"13.0b/18.0a"},{"town":"西二条南二十四丁目","koaza":"","lat":42.90444,"lng":143.204456,"version":"13.0b/18.0a"},{"town":"西二条南二十五丁目","koaza":"","lat":42.903291,"lng":143.204609,"version":"13.0b/18.0a"},{"town":"西二条南二十六丁目","koaza":"","lat":42.902129,"lng":143.204763,"version":"13.0b/18.0a"},{"town":"西二条南二十七丁目","koaza":"","lat":42.900921,"lng":143.204922,"version":"13.0b/18.0a"},{"town":"西二条南二十八丁目","koaza":"","lat":42.899774,"lng":143.205069,"version":"13.0b/18.0a"},{"town":"西二条南二十九丁目","koaza":"","lat":42.898658,"lng":143.205221,"version":"13.0b/18.0a"},{"town":"西二条南二丁目","koaza":"","lat":42.930066,"lng":143.201067,"version":"13.0b/18.0a"},{"town":"西二条南三十丁目","koaza":"","lat":42.897549,"lng":143.205366,"version":"13.0b/18.0a"},{"town":"西二条南三十一丁目","koaza":"","lat":42.896612,"lng":143.205464,"version":"13.0b/18.0a"},{"town":"西二条南三十二丁目","koaza":"","lat":42.895504,"lng":143.205433,"version":"13.0b/18.0a"},{"town":"西二条南三十三丁目","koaza":"","lat":42.894063,"lng":143.205763,"version":"13.0b/18.0a"},{"town":"西二条南三十四丁目","koaza":"","lat":42.892794,"lng":143.205741,"version":"13.0b/18.0a"},{"town":"西二条南三十五丁目","koaza":"","lat":42.891369,"lng":143.206465,"version":"13.0b/18.0a"},{"town":"西二条南三十六丁目","koaza":"","lat":42.890015,"lng":143.2062,"version":"13.0b/18.0a"},{"town":"西二条南三十七丁目","koaza":"","lat":42.888891,"lng":143.206356,"version":"13.0b/18.0a"},{"town":"西二条南三十八丁目","koaza":"","lat":42.887908,"lng":143.206648,"version":"13.0b/18.0a"},{"town":"西二条南三丁目","koaza":"","lat":42.9289,"lng":143.20121,"version":"13.0b/18.0a"},{"town":"西二条南四丁目","koaza":"","lat":42.927744,"lng":143.201353,"version":"13.0b/18.0a"},{"town":"西二条南五丁目","koaza":"","lat":42.926593,"lng":143.201508,"version":"13.0b/18.0a"},{"town":"西二条南六丁目","koaza":"","lat":42.925437,"lng":143.201663,"version":"13.0b/18.0a"},{"town":"西二条南七丁目","koaza":"","lat":42.924276,"lng":143.20182,"version":"13.0b/18.0a"},{"town":"西二条南八丁目","koaza":"","lat":42.923115,"lng":143.201976,"version":"13.0b/18.0a"},{"town":"西二条南九丁目","koaza":"","lat":42.921961,"lng":143.202131,"version":"13.0b/18.0a"},{"town":"西三条北一丁目","koaza":"","lat":42.932319,"lng":143.199122,"version":"13.0b/18.0a"},{"town":"西三条北二丁目","koaza":"","lat":42.933497,"lng":143.198991,"version":"13.0b/18.0a"},{"town":"西三条北三丁目","koaza":"","lat":42.934662,"lng":143.198837,"version":"13.0b/18.0a"},{"town":"西三条北四丁目","koaza":"","lat":42.937581,"lng":143.198166,"version":"13.0b/18.0a"},{"town":"西三条南十丁目","koaza":"","lat":42.920708,"lng":143.200671,"version":"13.0b/18.0a"},{"town":"西三条南十一丁目","koaza":"","lat":42.919433,"lng":143.200873,"version":"13.0b/18.0a"},{"town":"西三条南十二丁目","koaza":"","lat":42.918345,"lng":143.201053,"version":"13.0b/18.0a"},{"town":"西三条南十三丁目","koaza":"","lat":42.916948,"lng":143.200856,"version":"13.0b/18.0a"},{"town":"西三条南十四丁目","koaza":"","lat":42.915868,"lng":143.201374,"version":"13.0b/18.0a"},{"town":"西三条南十五丁目","koaza":"","lat":42.914797,"lng":143.201686,"version":"13.0b/18.0a"},{"town":"西三条南十六丁目","koaza":"","lat":42.913829,"lng":143.20175,"version":"13.0b/18.0a"},{"town":"西三条南十七丁目","koaza":"","lat":42.912567,"lng":143.201768,"version":"13.0b/18.0a"},{"town":"西三条南十八丁目","koaza":"","lat":42.911405,"lng":143.201923,"version":"13.0b/18.0a"},{"town":"西三条南十九丁目","koaza":"","lat":42.910214,"lng":143.202084,"version":"13.0b/18.0a"},{"town":"西三条南一丁目","koaza":"","lat":42.931122,"lng":143.19929,"version":"13.0b/18.0a"},{"town":"西三条南二十丁目","koaza":"","lat":42.908985,"lng":143.202244,"version":"13.0b/18.0a"},{"town":"西三条南二十一丁目","koaza":"","lat":42.907787,"lng":143.202402,"version":"13.0b/18.0a"},{"town":"西三条南二十二丁目","koaza":"","lat":42.90663,"lng":143.202562,"version":"13.0b/18.0a"},{"town":"西三条南二十三丁目","koaza":"","lat":42.905473,"lng":143.202717,"version":"13.0b/18.0a"},{"town":"西三条南二十四丁目","koaza":"","lat":42.90432,"lng":143.202877,"version":"13.0b/18.0a"},{"town":"西三条南二十五丁目","koaza":"","lat":42.903177,"lng":143.203033,"version":"13.0b/18.0a"},{"town":"西三条南二十六丁目","koaza":"","lat":42.902022,"lng":143.203185,"version":"13.0b/18.0a"},{"town":"西三条南二十七丁目","koaza":"","lat":42.900814,"lng":143.203324,"version":"13.0b/18.0a"},{"town":"西三条南二十八丁目","koaza":"","lat":42.899662,"lng":143.203452,"version":"13.0b/18.0a"},{"town":"西三条南二十九丁目","koaza":"","lat":42.898438,"lng":143.203509,"version":"13.0b/18.0a"},{"town":"西三条南二丁目","koaza":"","lat":42.929953,"lng":143.199463,"version":"13.0b/18.0a"},{"town":"西三条南三十丁目","koaza":"","lat":42.897439,"lng":143.203842,"version":"13.0b/18.0a"},{"town":"西三条南三十一丁目","koaza":"","lat":42.896175,"lng":143.204057,"version":"13.0b/18.0a"},{"town":"西三条南三十二丁目","koaza":"","lat":42.895204,"lng":143.204042,"version":"13.0b/18.0a"},{"town":"西三条南三十三丁目","koaza":"","lat":42.893968,"lng":143.204225,"version":"13.0b/18.0a"},{"town":"西三条南三十四丁目","koaza":"","lat":42.892693,"lng":143.204291,"version":"13.0b/18.0a"},{"town":"西三条南三十五丁目","koaza":"","lat":42.89144,"lng":143.204842,"version":"13.0b/18.0a"},{"town":"西三条南三十六丁目","koaza":"","lat":42.890016,"lng":143.204571,"version":"13.0b/18.0a"},{"town":"西三条南三十七丁目","koaza":"","lat":42.88879,"lng":143.204857,"version":"13.0b/18.0a"},{"town":"西三条南三十八丁目","koaza":"","lat":42.88761,"lng":143.204932,"version":"13.0b/18.0a"},{"town":"西三条南三丁目","koaza":"","lat":42.928789,"lng":143.199616,"version":"13.0b/18.0a"},{"town":"西三条南四丁目","koaza":"","lat":42.927626,"lng":143.19977,"version":"13.0b/18.0a"},{"town":"西三条南五丁目","koaza":"","lat":42.926476,"lng":143.19993,"version":"13.0b/18.0a"},{"town":"西三条南六丁目","koaza":"","lat":42.925307,"lng":143.200105,"version":"13.0b/18.0a"},{"town":"西三条南七丁目","koaza":"","lat":42.924149,"lng":143.200282,"version":"13.0b/18.0a"},{"town":"西三条南八丁目","koaza":"","lat":42.923001,"lng":143.200445,"version":"13.0b/18.0a"},{"town":"西三条南九丁目","koaza":"","lat":42.921844,"lng":143.200563,"version":"13.0b/18.0a"},{"town":"西四条北一丁目","koaza":"","lat":42.932204,"lng":143.197554,"version":"13.0b/18.0a"},{"town":"西四条北二丁目","koaza":"","lat":42.933382,"lng":143.197398,"version":"13.0b/18.0a"},{"town":"西四条北三丁目","koaza":"","lat":42.934547,"lng":143.197232,"version":"13.0b/18.0a"},{"town":"西四条北四丁目","koaza":"","lat":42.935848,"lng":143.197058,"version":"13.0b/18.0a"},{"town":"西四条北五丁目","koaza":"","lat":42.937192,"lng":143.196898,"version":"13.0b/18.0a"},{"town":"西四条北六丁目","koaza":"","lat":42.94191,"lng":143.196325,"version":"13.0b/18.0a"},{"town":"西四条南十丁目","koaza":"","lat":42.920593,"lng":143.199095,"version":"13.0b/18.0a"},{"town":"西四条南十一丁目","koaza":"","lat":42.919427,"lng":143.199309,"version":"13.0b/18.0a"},{"town":"西四条南十二丁目","koaza":"","lat":42.91782,"lng":143.199534,"version":"13.0b/18.0a"},{"town":"西四条南十三丁目","koaza":"","lat":42.916647,"lng":143.19998,"version":"13.0b/18.0a"},{"town":"西四条南十四丁目","koaza":"","lat":42.915961,"lng":143.199672,"version":"13.0b/18.0a"},{"town":"西四条南十五丁目","koaza":"","lat":42.91509,"lng":143.20031,"version":"13.0b/18.0a"},{"town":"西四条南十六丁目","koaza":"","lat":42.913746,"lng":143.200033,"version":"13.0b/18.0a"},{"town":"西四条南十七丁目","koaza":"","lat":42.912451,"lng":143.200187,"version":"13.0b/18.0a"},{"town":"西四条南十八丁目","koaza":"","lat":42.911287,"lng":143.200339,"version":"13.0b/18.0a"},{"town":"西四条南十九丁目","koaza":"","lat":42.910099,"lng":143.200498,"version":"13.0b/18.0a"},{"town":"西四条南一丁目","koaza":"","lat":42.931007,"lng":143.19772,"version":"13.0b/18.0a"},{"town":"西四条南二十丁目","koaza":"","lat":42.908876,"lng":143.200662,"version":"13.0b/18.0a"},{"town":"西四条南二十一丁目","koaza":"","lat":42.907679,"lng":143.200823,"version":"13.0b/18.0a"},{"town":"西四条南二十二丁目","koaza":"","lat":42.906518,"lng":143.200971,"version":"13.0b/18.0a"},{"town":"西四条南二十三丁目","koaza":"","lat":42.905359,"lng":143.201127,"version":"13.0b/18.0a"},{"town":"西四条南二十四丁目","koaza":"","lat":42.904203,"lng":143.201299,"version":"13.0b/18.0a"},{"town":"西四条南二十五丁目","koaza":"","lat":42.903063,"lng":143.201458,"version":"13.0b/18.0a"},{"town":"西四条南二十六丁目","koaza":"","lat":42.901901,"lng":143.201614,"version":"13.0b/18.0a"},{"town":"西四条南二十七丁目","koaza":"","lat":42.900716,"lng":143.201935,"version":"13.0b/18.0a"},{"town":"西四条南二十八丁目","koaza":"","lat":42.899568,"lng":143.20206,"version":"13.0b/18.0a"},{"town":"西四条南二十九丁目","koaza":"","lat":42.898441,"lng":143.20224,"version":"13.0b/18.0a"},{"town":"西四条南二丁目","koaza":"","lat":42.929842,"lng":143.19789,"version":"13.0b/18.0a"},{"town":"西四条南三十丁目","koaza":"","lat":42.897331,"lng":143.202434,"version":"13.0b/18.0a"},{"town":"西四条南三十一丁目","koaza":"","lat":42.896038,"lng":143.202591,"version":"13.0b/18.0a"},{"town":"西四条南三十二丁目","koaza":"","lat":42.894808,"lng":143.20273,"version":"13.0b/18.0a"},{"town":"西四条南三十三丁目","koaza":"","lat":42.893858,"lng":143.202853,"version":"13.0b/18.0a"},{"town":"西四条南三十四丁目","koaza":"","lat":42.892618,"lng":143.203019,"version":"13.0b/18.0a"},{"town":"西四条南三十五丁目","koaza":"","lat":42.891092,"lng":143.203274,"version":"13.0b/18.0a"},{"town":"西四条南三十六丁目","koaza":"","lat":42.889956,"lng":143.203421,"version":"13.0b/18.0a"},{"town":"西四条南三十七丁目","koaza":"","lat":42.888978,"lng":143.203716,"version":"13.0b/18.0a"},{"town":"西四条南三十八丁目","koaza":"","lat":42.887696,"lng":143.203756,"version":"13.0b/18.0a"},{"town":"西四条南三丁目","koaza":"","lat":42.928682,"lng":143.198054,"version":"13.0b/18.0a"},{"town":"西四条南四丁目","koaza":"","lat":42.927518,"lng":143.198209,"version":"13.0b/18.0a"},{"town":"西四条南五丁目","koaza":"","lat":42.926364,"lng":143.198359,"version":"13.0b/18.0a"},{"town":"西四条南六丁目","koaza":"","lat":42.925174,"lng":143.198515,"version":"13.0b/18.0a"},{"town":"西四条南七丁目","koaza":"","lat":42.924015,"lng":143.198673,"version":"13.0b/18.0a"},{"town":"西四条南八丁目","koaza":"","lat":42.922885,"lng":143.198831,"version":"13.0b/18.0a"},{"town":"西四条南九丁目","koaza":"","lat":42.92173,"lng":143.198962,"version":"13.0b/18.0a"},{"town":"西五条北一丁目","koaza":"","lat":42.932086,"lng":143.195999,"version":"13.0b/18.0a"},{"town":"西五条北二丁目","koaza":"","lat":42.93327,"lng":143.195843,"version":"13.0b/18.0a"},{"town":"西五条北三丁目","koaza":"","lat":42.934428,"lng":143.195685,"version":"13.0b/18.0a"},{"town":"西五条北四丁目","koaza":"","lat":42.935721,"lng":143.195525,"version":"13.0b/18.0a"},{"town":"西五条北五丁目","koaza":"","lat":42.93707,"lng":143.195334,"version":"13.0b/18.0a"},{"town":"西五条北六丁目","koaza":"","lat":42.938311,"lng":143.195165,"version":"13.0b/18.0a"},{"town":"西五条北七丁目","koaza":"","lat":42.94017,"lng":143.194908,"version":"13.0b/18.0a"},{"town":"西五条北八丁目","koaza":"","lat":42.942719,"lng":143.194548,"version":"13.0b/18.0a"},{"town":"西五条北九丁目","koaza":"","lat":42.945302,"lng":143.194202,"version":"13.0b/18.0a"},{"town":"西五条南十丁目","koaza":"","lat":42.920467,"lng":143.197543,"version":"13.0b/18.0a"},{"town":"西五条南十一丁目","koaza":"","lat":42.919309,"lng":143.197622,"version":"13.0b/18.0a"},{"town":"西五条南十二丁目","koaza":"","lat":42.9179,"lng":143.197924,"version":"13.0b/18.0a"},{"town":"西五条南十三丁目","koaza":"","lat":42.916972,"lng":143.198021,"version":"13.0b/18.0a"},{"town":"西五条南十四丁目","koaza":"","lat":42.915812,"lng":143.198168,"version":"13.0b/18.0a"},{"town":"西五条南十五丁目","koaza":"","lat":42.914619,"lng":143.198207,"version":"13.0b/18.0a"},{"town":"西五条南十六丁目","koaza":"","lat":42.913836,"lng":143.198613,"version":"13.0b/18.0a"},{"town":"西五条南十七丁目","koaza":"","lat":42.912339,"lng":143.198665,"version":"13.0b/18.0a"},{"town":"西五条南十八丁目","koaza":"","lat":42.911173,"lng":143.19875,"version":"13.0b/18.0a"},{"town":"西五条南十九丁目","koaza":"","lat":42.909983,"lng":143.19893,"version":"13.0b/18.0a"},{"town":"西五条南一丁目","koaza":"","lat":42.930889,"lng":143.196163,"version":"13.0b/18.0a"},{"town":"西五条南二十丁目","koaza":"","lat":42.908766,"lng":143.199095,"version":"13.0b/18.0a"},{"town":"西五条南二十一丁目","koaza":"","lat":42.907571,"lng":143.19925,"version":"13.0b/18.0a"},{"town":"西五条南二十二丁目","koaza":"","lat":42.906403,"lng":143.1994,"version":"13.0b/18.0a"},{"town":"西五条南二十三丁目","koaza":"","lat":42.905245,"lng":143.199561,"version":"13.0b/18.0a"},{"town":"西五条南二十四丁目","koaza":"","lat":42.904089,"lng":143.199729,"version":"13.0b/18.0a"},{"town":"西五条南二十五丁目","koaza":"","lat":42.902952,"lng":143.199888,"version":"13.0b/18.0a"},{"town":"西五条南二十六丁目","koaza":"","lat":42.901794,"lng":143.200043,"version":"13.0b/18.0a"},{"town":"西五条南二十七丁目","koaza":"","lat":42.900611,"lng":143.200383,"version":"13.0b/18.0a"},{"town":"西五条南二十八丁目","koaza":"","lat":42.899467,"lng":143.200533,"version":"13.0b/18.0a"},{"town":"西五条南二十九丁目","koaza":"","lat":42.898341,"lng":143.200683,"version":"13.0b/18.0a"},{"town":"西五条南二丁目","koaza":"","lat":42.929727,"lng":143.19633,"version":"13.0b/18.0a"},{"town":"西五条南三十丁目","koaza":"","lat":42.897217,"lng":143.200831,"version":"13.0b/18.0a"},{"town":"西五条南三十一丁目","koaza":"","lat":42.895817,"lng":143.201037,"version":"13.0b/18.0a"},{"town":"西五条南三十二丁目","koaza":"","lat":42.894615,"lng":143.200967,"version":"13.0b/18.0a"},{"town":"西五条南三十三丁目","koaza":"","lat":42.89373,"lng":143.201114,"version":"13.0b/18.0a"},{"town":"西五条南三十四丁目","koaza":"","lat":42.892488,"lng":143.201289,"version":"13.0b/18.0a"},{"town":"西五条南三十五丁目","koaza":"","lat":42.891101,"lng":143.201429,"version":"13.0b/18.0a"},{"town":"西五条南三十六丁目","koaza":"","lat":42.889847,"lng":143.201545,"version":"13.0b/18.0a"},{"town":"西五条南三十七丁目","koaza":"","lat":42.888492,"lng":143.201721,"version":"13.0b/18.0a"},{"town":"西五条南三十八丁目","koaza":"","lat":42.887201,"lng":143.201886,"version":"13.0b/18.0a"},{"town":"西五条南三十九丁目","koaza":"","lat":42.885877,"lng":143.202,"version":"13.0b/18.0a"},{"town":"西五条南三丁目","koaza":"","lat":42.928571,"lng":143.196487,"version":"13.0b/18.0a"},{"town":"西五条南四十丁目","koaza":"","lat":42.88418,"lng":143.201645,"version":"13.0b/18.0a"},{"town":"西五条南四十一丁目","koaza":"","lat":42.882517,"lng":143.202427,"version":"13.0b/18.0a"},{"town":"西五条南四丁目","koaza":"","lat":42.927413,"lng":143.196636,"version":"13.0b/18.0a"},{"town":"西五条南五丁目","koaza":"","lat":42.926255,"lng":143.19678,"version":"13.0b/18.0a"},{"town":"西五条南六丁目","koaza":"","lat":42.925056,"lng":143.196926,"version":"13.0b/18.0a"},{"town":"西五条南七丁目","koaza":"","lat":42.923892,"lng":143.197064,"version":"13.0b/18.0a"},{"town":"西五条南八丁目","koaza":"","lat":42.922771,"lng":143.197218,"version":"13.0b/18.0a"},{"town":"西五条南九丁目","koaza":"","lat":42.92161,"lng":143.197372,"version":"13.0b/18.0a"},{"town":"西六条北一丁目","koaza":"","lat":42.931975,"lng":143.194433,"version":"13.0b/18.0a"},{"town":"西六条北二丁目","koaza":"","lat":42.933155,"lng":143.194269,"version":"13.0b/18.0a"},{"town":"西六条北三丁目","koaza":"","lat":42.934308,"lng":143.194121,"version":"13.0b/18.0a"},{"town":"西六条北四丁目","koaza":"","lat":42.935621,"lng":143.19411,"version":"13.0b/18.0a"},{"town":"西六条北五丁目","koaza":"","lat":42.936956,"lng":143.193768,"version":"13.0b/18.0a"},{"town":"西六条北六丁目","koaza":"","lat":42.938202,"lng":143.193607,"version":"13.0b/18.0a"},{"town":"西六条北七丁目","koaza":"","lat":42.940064,"lng":143.193343,"version":"13.0b/18.0a"},{"town":"西六条北八丁目","koaza":"","lat":42.94261,"lng":143.192976,"version":"13.0b/18.0a"},{"town":"西六条北九丁目","koaza":"","lat":42.94539,"lng":143.192598,"version":"13.0b/18.0a"},{"town":"西六条南十丁目","koaza":"","lat":42.920225,"lng":143.196019,"version":"13.0b/18.0a"},{"town":"西六条南十一丁目","koaza":"","lat":42.91915,"lng":143.19614,"version":"13.0b/18.0a"},{"town":"西六条南十二丁目","koaza":"","lat":42.918018,"lng":143.196296,"version":"13.0b/18.0a"},{"town":"西六条南十三丁目","koaza":"","lat":42.916856,"lng":143.196445,"version":"13.0b/18.0a"},{"town":"西六条南十四丁目","koaza":"","lat":42.915696,"lng":143.196594,"version":"13.0b/18.0a"},{"town":"西六条南十五丁目","koaza":"","lat":42.914536,"lng":143.196749,"version":"13.0b/18.0a"},{"town":"西六条南十六丁目","koaza":"","lat":42.913372,"lng":143.196787,"version":"13.0b/18.0a"},{"town":"西六条南十七丁目","koaza":"","lat":42.91234,"lng":143.197356,"version":"13.0b/18.0a"},{"town":"西六条南十八丁目","koaza":"","lat":42.911108,"lng":143.19776,"version":"13.0b/18.0a"},{"town":"西六条南十九丁目","koaza":"","lat":42.909901,"lng":143.197926,"version":"13.0b/18.0a"},{"town":"西六条南一丁目","koaza":"","lat":42.930778,"lng":143.194593,"version":"13.0b/18.0a"},{"town":"西六条南二十丁目","koaza":"","lat":42.908674,"lng":143.197949,"version":"13.0b/18.0a"},{"town":"西六条南二十一丁目","koaza":"","lat":42.907482,"lng":143.197973,"version":"13.0b/18.0a"},{"town":"西六条南二十二丁目","koaza":"","lat":42.906306,"lng":143.19805,"version":"13.0b/18.0a"},{"town":"西六条南二十三丁目","koaza":"","lat":42.905146,"lng":143.19801,"version":"13.0b/18.0a"},{"town":"西六条南二十四丁目","koaza":"","lat":42.903987,"lng":143.198123,"version":"13.0b/18.0a"},{"town":"西六条南二十五丁目","koaza":"","lat":42.902831,"lng":143.198241,"version":"13.0b/18.0a"},{"town":"西六条南二十六丁目","koaza":"","lat":42.901668,"lng":143.19836,"version":"13.0b/18.0a"},{"town":"西六条南二十七丁目","koaza":"","lat":42.900361,"lng":143.198296,"version":"13.0b/18.0a"},{"town":"西六条南二十八丁目","koaza":"","lat":42.899338,"lng":143.198593,"version":"13.0b/18.0a"},{"town":"西六条南二十九丁目","koaza":"","lat":42.898199,"lng":143.198564,"version":"13.0b/18.0a"},{"town":"西六条南二丁目","koaza":"","lat":42.92961,"lng":143.194749,"version":"13.0b/18.0a"},{"town":"西六条南三十丁目","koaza":"","lat":42.897073,"lng":143.198679,"version":"13.0b/18.0a"},{"town":"西六条南三十一丁目","koaza":"","lat":42.895386,"lng":143.199016,"version":"13.0b/18.0a"},{"town":"西六条南三十二丁目","koaza":"","lat":42.894438,"lng":143.198738,"version":"13.0b/18.0a"},{"town":"西六条南三十三丁目","koaza":"","lat":42.89356,"lng":143.198873,"version":"13.0b/18.0a"},{"town":"西六条南三十四丁目","koaza":"","lat":42.89232,"lng":143.199047,"version":"13.0b/18.0a"},{"town":"西六条南三十九丁目","koaza":"","lat":42.885744,"lng":143.200543,"version":"13.0b/18.0a"},{"town":"西六条南三丁目","koaza":"","lat":42.928458,"lng":143.194898,"version":"13.0b/18.0a"},{"town":"西六条南四十丁目","koaza":"","lat":42.884077,"lng":143.200595,"version":"13.0b/18.0a"},{"town":"西六条南四十一丁目","koaza":"","lat":42.882606,"lng":143.200796,"version":"13.0b/18.0a"},{"town":"西六条南四丁目","koaza":"","lat":42.927303,"lng":143.195048,"version":"13.0b/18.0a"},{"town":"西六条南五丁目","koaza":"","lat":42.926141,"lng":143.195202,"version":"13.0b/18.0a"},{"town":"西六条南六丁目","koaza":"","lat":42.924942,"lng":143.195369,"version":"13.0b/18.0a"},{"town":"西六条南七丁目","koaza":"","lat":42.923778,"lng":143.195525,"version":"13.0b/18.0a"},{"town":"西六条南八丁目","koaza":"","lat":42.922629,"lng":143.195701,"version":"13.0b/18.0a"},{"town":"西六条南九丁目","koaza":"","lat":42.92146,"lng":143.195866,"version":"13.0b/18.0a"},{"town":"西七条北一丁目","koaza":"","lat":42.931868,"lng":143.192877,"version":"13.0b/18.0a"},{"town":"西七条北二丁目","koaza":"","lat":42.933075,"lng":143.192719,"version":"13.0b/18.0a"},{"town":"西七条北三丁目","koaza":"","lat":42.934127,"lng":143.192577,"version":"13.0b/18.0a"},{"town":"西七条北四丁目","koaza":"","lat":42.935504,"lng":143.192381,"version":"13.0b/18.0a"},{"town":"西七条北五丁目","koaza":"","lat":42.936844,"lng":143.192197,"version":"13.0b/18.0a"},{"town":"西七条北六丁目","koaza":"","lat":42.938095,"lng":143.192026,"version":"13.0b/18.0a"},{"town":"西七条北七丁目","koaza":"","lat":42.939954,"lng":143.191756,"version":"13.0b/18.0a"},{"town":"西七条北八丁目","koaza":"","lat":42.942497,"lng":143.19139,"version":"13.0b/18.0a"},{"town":"西七条北九丁目","koaza":"","lat":42.945473,"lng":143.190974,"version":"13.0b/18.0a"},{"town":"西七条南十丁目","koaza":"","lat":42.920212,"lng":143.194442,"version":"13.0b/18.0a"},{"town":"西七条南十一丁目","koaza":"","lat":42.919071,"lng":143.194574,"version":"13.0b/18.0a"},{"town":"西七条南十二丁目","koaza":"","lat":42.917899,"lng":143.194726,"version":"13.0b/18.0a"},{"town":"西七条南十三丁目","koaza":"","lat":42.91674,"lng":143.194877,"version":"13.0b/18.0a"},{"town":"西七条南十四丁目","koaza":"","lat":42.915584,"lng":143.195027,"version":"13.0b/18.0a"},{"town":"西七条南十五丁目","koaza":"","lat":42.914424,"lng":143.195176,"version":"13.0b/18.0a"},{"town":"西七条南十六丁目","koaza":"","lat":42.913262,"lng":143.195323,"version":"13.0b/18.0a"},{"town":"西七条南十七丁目","koaza":"","lat":42.912227,"lng":143.195541,"version":"13.0b/18.0a"},{"town":"西七条南十八丁目","koaza":"","lat":42.910763,"lng":143.197193,"version":"13.0b/18.0a"},{"town":"西七条南十九丁目","koaza":"","lat":42.909674,"lng":143.196833,"version":"13.0b/18.0a"},{"town":"西七条南一丁目","koaza":"","lat":42.930674,"lng":143.193047,"version":"13.0b/18.0a"},{"town":"西七条南二十丁目","koaza":"","lat":42.90864,"lng":143.197026,"version":"13.0b/18.0a"},{"town":"西七条南二十一丁目","koaza":"","lat":42.907394,"lng":143.197149,"version":"13.0b/18.0a"},{"town":"西七条南二十二丁目","koaza":"","lat":42.906257,"lng":143.197021,"version":"13.0b/18.0a"},{"town":"西七条南二十三丁目","koaza":"","lat":42.905264,"lng":143.196861,"version":"13.0b/18.0a"},{"town":"西七条南二十四丁目","koaza":"","lat":42.904366,"lng":143.196581,"version":"13.0b/18.0a"},{"town":"西七条南二十五丁目","koaza":"","lat":42.902719,"lng":143.196631,"version":"13.0b/18.0a"},{"town":"西七条南二十六丁目","koaza":"","lat":42.901546,"lng":143.19675,"version":"13.0b/18.0a"},{"town":"西七条南二十七丁目","koaza":"","lat":42.900406,"lng":143.196753,"version":"13.0b/18.0a"},{"town":"西七条南二十八丁目","koaza":"","lat":42.899253,"lng":143.196857,"version":"13.0b/18.0a"},{"town":"西七条南二十九丁目","koaza":"","lat":42.89808,"lng":143.196821,"version":"13.0b/18.0a"},{"town":"西七条南二丁目","koaza":"","lat":42.929501,"lng":143.193212,"version":"13.0b/18.0a"},{"town":"西七条南三十丁目","koaza":"","lat":42.896958,"lng":143.196941,"version":"13.0b/18.0a"},{"town":"西七条南三十一丁目","koaza":"","lat":42.895547,"lng":143.196994,"version":"13.0b/18.0a"},{"town":"西七条南三十二丁目","koaza":"","lat":42.894438,"lng":143.19722,"version":"13.0b/18.0a"},{"town":"西七条南三十三丁目","koaza":"","lat":42.893362,"lng":143.197347,"version":"13.0b/18.0a"},{"town":"西七条南三十四丁目","koaza":"","lat":42.892331,"lng":143.197538,"version":"13.0b/18.0a"},{"town":"西七条南三十九丁目","koaza":"","lat":42.885645,"lng":143.199217,"version":"13.0b/18.0a"},{"town":"西七条南三丁目","koaza":"","lat":42.92834,"lng":143.193343,"version":"13.0b/18.0a"},{"town":"西七条南四十丁目","koaza":"","lat":42.883993,"lng":143.199414,"version":"13.0b/18.0a"},{"town":"西七条南四十一丁目","koaza":"","lat":42.882343,"lng":143.199521,"version":"13.0b/18.0a"},{"town":"西七条南四丁目","koaza":"","lat":42.927305,"lng":143.193449,"version":"13.0b/18.0a"},{"town":"西七条南五丁目","koaza":"","lat":42.926027,"lng":143.193617,"version":"13.0b/18.0a"},{"town":"西七条南六丁目","koaza":"","lat":42.924831,"lng":143.193807,"version":"13.0b/18.0a"},{"town":"西七条南七丁目","koaza":"","lat":42.923669,"lng":143.194003,"version":"13.0b/18.0a"},{"town":"西七条南八丁目","koaza":"","lat":42.922486,"lng":143.194098,"version":"13.0b/18.0a"},{"town":"西七条南九丁目","koaza":"","lat":42.921565,"lng":143.193954,"version":"13.0b/18.0a"},{"town":"西八条北一丁目","koaza":"","lat":42.931762,"lng":143.191238,"version":"13.0b/18.0a"},{"town":"西八条北二丁目","koaza":"","lat":42.933015,"lng":143.191076,"version":"13.0b/18.0a"},{"town":"西八条北三丁目","koaza":"","lat":42.934187,"lng":143.190916,"version":"13.0b/18.0a"},{"town":"西八条北四丁目","koaza":"","lat":42.935403,"lng":143.190738,"version":"13.0b/18.0a"},{"town":"西八条北五丁目","koaza":"","lat":42.936728,"lng":143.190556,"version":"13.0b/18.0a"},{"town":"西八条北六丁目","koaza":"","lat":42.937984,"lng":143.190383,"version":"13.0b/18.0a"},{"town":"西八条北七丁目","koaza":"","lat":42.939842,"lng":143.19014,"version":"13.0b/18.0a"},{"town":"西八条北八丁目","koaza":"","lat":42.942383,"lng":143.189788,"version":"13.0b/18.0a"},{"town":"西八条北九丁目","koaza":"","lat":42.945582,"lng":143.189322,"version":"13.0b/18.0a"},{"town":"西八条南十丁目","koaza":"","lat":42.920077,"lng":143.192728,"version":"13.0b/18.0a"},{"town":"西八条南十一丁目","koaza":"","lat":42.918936,"lng":143.192901,"version":"13.0b/18.0a"},{"town":"西八条南十二丁目","koaza":"","lat":42.917777,"lng":143.19305,"version":"13.0b/18.0a"},{"town":"西八条南十三丁目","koaza":"","lat":42.916618,"lng":143.193202,"version":"13.0b/18.0a"},{"town":"西八条南十四丁目","koaza":"","lat":42.915464,"lng":143.193351,"version":"13.0b/18.0a"},{"town":"西八条南十五丁目","koaza":"","lat":42.914304,"lng":143.1935,"version":"13.0b/18.0a"},{"town":"西八条南十六丁目","koaza":"","lat":42.913146,"lng":143.193642,"version":"13.0b/18.0a"},{"town":"西八条南十七丁目","koaza":"","lat":42.911992,"lng":143.193787,"version":"13.0b/18.0a"},{"town":"西八条南十八丁目","koaza":"","lat":42.910835,"lng":143.193817,"version":"13.0b/18.0a"},{"town":"西八条南十九丁目","koaza":"","lat":42.910079,"lng":143.193518,"version":"13.0b/18.0a"},{"town":"西八条南一丁目","koaza":"","lat":42.93056,"lng":143.191412,"version":"13.0b/18.0a"},{"town":"西八条南二十四丁目","koaza":"","lat":42.903946,"lng":143.195133,"version":"13.0b/18.0a"},{"town":"西八条南二十五丁目","koaza":"","lat":42.902603,"lng":143.195092,"version":"13.0b/18.0a"},{"town":"西八条南二十六丁目","koaza":"","lat":42.901333,"lng":143.195409,"version":"13.0b/18.0a"},{"town":"西八条南二十七丁目","koaza":"","lat":42.900301,"lng":143.195287,"version":"13.0b/18.0a"},{"town":"西八条南二十八丁目","koaza":"","lat":42.899165,"lng":143.195424,"version":"13.0b/18.0a"},{"town":"西八条南二十九丁目","koaza":"","lat":42.897998,"lng":143.195573,"version":"13.0b/18.0a"},{"town":"西八条南二丁目","koaza":"","lat":42.929386,"lng":143.19158,"version":"13.0b/18.0a"},{"town":"西八条南三十丁目","koaza":"","lat":42.896873,"lng":143.195725,"version":"13.0b/18.0a"},{"town":"西八条南三十一丁目","koaza":"","lat":42.895666,"lng":143.195876,"version":"13.0b/18.0a"},{"town":"西八条南三十二丁目","koaza":"","lat":42.894421,"lng":143.19608,"version":"13.0b/18.0a"},{"town":"西八条南三十三丁目","koaza":"","lat":42.893278,"lng":143.196212,"version":"13.0b/18.0a"},{"town":"西八条南三十四丁目","koaza":"","lat":42.892043,"lng":143.196398,"version":"13.0b/18.0a"},{"town":"西八条南三十九丁目","koaza":"","lat":42.885375,"lng":143.197659,"version":"13.0b/18.0a"},{"town":"西八条南三丁目","koaza":"","lat":42.928197,"lng":143.191716,"version":"13.0b/18.0a"},{"town":"西八条南四十丁目","koaza":"","lat":42.884046,"lng":143.197718,"version":"13.0b/18.0a"},{"town":"西八条南四十一丁目","koaza":"","lat":42.882232,"lng":143.197873,"version":"13.0b/18.0a"},{"town":"西八条南四丁目","koaza":"","lat":42.92704,"lng":143.191844,"version":"13.0b/18.0a"},{"town":"西八条南五丁目","koaza":"","lat":42.925888,"lng":143.192002,"version":"13.0b/18.0a"},{"town":"西八条南六丁目","koaza":"","lat":42.924691,"lng":143.192211,"version":"13.0b/18.0a"},{"town":"西八条南七丁目","koaza":"","lat":42.923575,"lng":143.19243,"version":"13.0b/18.0a"},{"town":"西八条南八丁目","koaza":"","lat":42.922712,"lng":143.192435,"version":"13.0b/18.0a"},{"town":"西八条南九丁目","koaza":"","lat":42.921493,"lng":143.191992,"version":"13.0b/18.0a"},{"town":"西九条北十丁目","koaza":"","lat":42.946844,"lng":143.187802,"version":"13.0b/18.0a"},{"town":"西九条北一丁目","koaza":"","lat":42.931651,"lng":143.189827,"version":"13.0b/18.0a"},{"town":"西九条北二丁目","koaza":"","lat":42.932916,"lng":143.189657,"version":"13.0b/18.0a"},{"town":"西九条北三丁目","koaza":"","lat":42.934077,"lng":143.189506,"version":"13.0b/18.0a"},{"town":"西九条北四丁目","koaza":"","lat":42.935312,"lng":143.189343,"version":"13.0b/18.0a"},{"town":"西九条北五丁目","koaza":"","lat":42.936636,"lng":143.189159,"version":"13.0b/18.0a"},{"town":"西九条北六丁目","koaza":"","lat":42.937888,"lng":143.18899,"version":"13.0b/18.0a"},{"town":"西九条北七丁目","koaza":"","lat":42.939749,"lng":143.188769,"version":"13.0b/18.0a"},{"town":"西九条北八丁目","koaza":"","lat":42.942287,"lng":143.188433,"version":"13.0b/18.0a"},{"town":"西九条北九丁目","koaza":"","lat":42.944569,"lng":143.188098,"version":"13.0b/18.0a"},{"town":"西九条南十丁目","koaza":"","lat":42.919949,"lng":143.190993,"version":"13.0b/18.0a"},{"town":"西九条南十一丁目","koaza":"","lat":42.918819,"lng":143.191221,"version":"13.0b/18.0a"},{"town":"西九条南十二丁目","koaza":"","lat":42.917659,"lng":143.191392,"version":"13.0b/18.0a"},{"town":"西九条南十三丁目","koaza":"","lat":42.916501,"lng":143.191541,"version":"13.0b/18.0a"},{"town":"西九条南十四丁目","koaza":"","lat":42.915345,"lng":143.19169,"version":"13.0b/18.0a"},{"town":"西九条南十五丁目","koaza":"","lat":42.91419,"lng":143.191838,"version":"13.0b/18.0a"},{"town":"西九条南十六丁目","koaza":"","lat":42.913036,"lng":143.191985,"version":"13.0b/18.0a"},{"town":"西九条南十七丁目","koaza":"","lat":42.91188,"lng":143.192134,"version":"13.0b/18.0a"},{"town":"西九条南十八丁目","koaza":"","lat":42.910713,"lng":143.192282,"version":"13.0b/18.0a"},{"town":"西九条南十九丁目","koaza":"","lat":42.909607,"lng":143.192486,"version":"13.0b/18.0a"},{"town":"西九条南一丁目","koaza":"","lat":42.93044,"lng":143.189817,"version":"13.0b/18.0a"},{"town":"西九条南二十四丁目","koaza":"","lat":42.903162,"lng":143.194053,"version":"13.0b/18.0a"},{"town":"西九条南二十五丁目","koaza":"","lat":42.902472,"lng":143.193714,"version":"13.0b/18.0a"},{"town":"西九条南二十六丁目","koaza":"","lat":42.901337,"lng":143.193828,"version":"13.0b/18.0a"},{"town":"西九条南二十七丁目","koaza":"","lat":42.900202,"lng":143.193828,"version":"13.0b/18.0a"},{"town":"西九条南二十八丁目","koaza":"","lat":42.899064,"lng":143.19397,"version":"13.0b/18.0a"},{"town":"西九条南二十九丁目","koaza":"","lat":42.897899,"lng":143.194115,"version":"13.0b/18.0a"},{"town":"西九条南二丁目","koaza":"","lat":42.929268,"lng":143.189983,"version":"13.0b/18.0a"},{"town":"西九条南三十丁目","koaza":"","lat":42.896776,"lng":143.194279,"version":"13.0b/18.0a"},{"town":"西九条南三十一丁目","koaza":"","lat":42.895587,"lng":143.194436,"version":"13.0b/18.0a"},{"town":"西九条南三十二丁目","koaza":"","lat":42.894345,"lng":143.194848,"version":"13.0b/18.0a"},{"town":"西九条南三十三丁目","koaza":"","lat":42.893218,"lng":143.194886,"version":"13.0b/18.0a"},{"town":"西九条南三十四丁目","koaza":"","lat":42.891943,"lng":143.194868,"version":"13.0b/18.0a"},{"town":"西九条南三十九丁目","koaza":"","lat":42.885289,"lng":143.195932,"version":"13.0b/18.0a"},{"town":"西九条南三丁目","koaza":"","lat":42.928059,"lng":143.190169,"version":"13.0b/18.0a"},{"town":"西九条南四十丁目","koaza":"","lat":42.883608,"lng":143.196184,"version":"13.0b/18.0a"},{"town":"西九条南四十一丁目","koaza":"","lat":42.882154,"lng":143.196331,"version":"13.0b/18.0a"},{"town":"西九条南四丁目","koaza":"","lat":42.926907,"lng":143.19031,"version":"13.0b/18.0a"},{"town":"西九条南五丁目","koaza":"","lat":42.925753,"lng":143.19043,"version":"13.0b/18.0a"},{"town":"西九条南六丁目","koaza":"","lat":42.924567,"lng":143.190615,"version":"13.0b/18.0a"},{"town":"西九条南七丁目","koaza":"","lat":42.923392,"lng":143.191225,"version":"13.0b/18.0a"},{"town":"西九条南八丁目","koaza":"","lat":42.922427,"lng":143.19099,"version":"13.0b/18.0a"},{"town":"西九条南九丁目","koaza":"","lat":42.921148,"lng":143.19081,"version":"13.0b/18.0a"},{"town":"柏林台北町一丁目","koaza":"","lat":42.926025,"lng":143.164372,"version":"13.0b/18.0a"},{"town":"柏林台北町二丁目","koaza":"","lat":42.925907,"lng":143.165871,"version":"13.0b/18.0a"},{"town":"柏林台北町三丁目","koaza":"","lat":42.925625,"lng":143.167607,"version":"13.0b/18.0a"},{"town":"柏林台北町四丁目","koaza":"","lat":42.925343,"lng":143.169642,"version":"13.0b/18.0a"},{"town":"柏林台北町五丁目","koaza":"","lat":42.925016,"lng":143.171769,"version":"13.0b/18.0a"},{"town":"柏林台中町一丁目","koaza":"","lat":42.924329,"lng":143.167217,"version":"13.0b/18.0a"},{"town":"柏林台中町二丁目","koaza":"","lat":42.92404,"lng":143.169789,"version":"13.0b/18.0a"},{"town":"柏林台中町三丁目","koaza":"","lat":42.923438,"lng":143.168683,"version":"13.0b/18.0a"},{"town":"柏林台中町四丁目","koaza":"","lat":42.922279,"lng":143.169694,"version":"13.0b/18.0a"},{"town":"柏林台中町五丁目","koaza":"","lat":42.922416,"lng":143.167718,"version":"13.0b/18.0a"},{"town":"柏林台西町一丁目","koaza":"","lat":42.922136,"lng":143.16555,"version":"13.0b/18.0a"},{"town":"柏林台西町二丁目","koaza":"","lat":42.92311,"lng":143.164817,"version":"13.0b/18.0a"},{"town":"柏林台西町三丁目","koaza":"","lat":42.924861,"lng":143.164483,"version":"13.0b/18.0a"},{"town":"柏林台西町四丁目","koaza":"","lat":42.924907,"lng":143.1655,"version":"13.0b/18.0a"},{"town":"柏林台西町五丁目","koaza":"","lat":42.923404,"lng":143.165782,"version":"13.0b/18.0a"},{"town":"柏林台東町一丁目","koaza":"","lat":42.924274,"lng":143.172557,"version":"13.0b/18.0a"},{"town":"柏林台東町二丁目","koaza":"","lat":42.923895,"lng":143.171532,"version":"13.0b/18.0a"},{"town":"柏林台東町三丁目","koaza":"","lat":42.922339,"lng":143.171773,"version":"13.0b/18.0a"},{"town":"柏林台東町四丁目","koaza":"","lat":42.92113,"lng":143.17184,"version":"13.0b/18.0a"},{"town":"柏林台東町五丁目","koaza":"","lat":42.920276,"lng":143.17218,"version":"13.0b/18.0a"},{"town":"柏林台南町一丁目","koaza":"","lat":42.920166,"lng":143.17035,"version":"13.0b/18.0a"},{"town":"柏林台南町二丁目","koaza":"","lat":42.920009,"lng":143.168058,"version":"13.0b/18.0a"},{"town":"柏林台南町三丁目","koaza":"","lat":42.919852,"lng":143.165757,"version":"13.0b/18.0a"},{"town":"柏林台南町四丁目","koaza":"","lat":42.92095,"lng":143.165612,"version":"13.0b/18.0a"},{"town":"柏林台南町五丁目","koaza":"","lat":42.921058,"lng":143.167888,"version":"13.0b/18.0a"},{"town":"柏林台南町六丁目","koaza":"","lat":42.921153,"lng":143.169634,"version":"13.0b/18.0a"},{"town":"柏林台南町七丁目","koaza":"","lat":42.9212,"lng":143.17083,"version":"13.0b/18.0a"},{"town":"美栄町","koaza":"","lat":42.783932,"lng":143.094593,"version":"13.0b/18.0a"},{"town":"美栄町西","koaza":"","lat":42.780924,"lng":143.062667,"version":"13.0b/18.0a"},{"town":"美栄町西三線","koaza":"","lat":42.756807,"lng":143.083863,"version":"13.0b/18.0a"},{"town":"美栄町西四線","koaza":"","lat":42.758675,"lng":143.079584,"version":"13.0b/18.0a"},{"town":"美栄町西五線","koaza":"","lat":42.761193,"lng":143.073603,"version":"13.0b/18.0a"},{"town":"美栄町西六線","koaza":"","lat":42.766804,"lng":143.070249,"version":"13.0b/18.0a"},{"town":"美栄町西七線","koaza":"","lat":42.768267,"lng":143.063828,"version":"13.0b/18.0a"},{"town":"美栄町西八線","koaza":"","lat":42.770653,"lng":143.058353,"version":"13.0b/18.0a"},{"town":"東十条北一丁目","koaza":"","lat":42.933956,"lng":143.220795,"version":"13.0b/18.0a"},{"town":"東十条北二丁目","koaza":"","lat":42.935355,"lng":143.220159,"version":"13.0b/18.0a"},{"town":"東十条南十丁目","koaza":"","lat":42.922236,"lng":143.222329,"version":"13.0b/18.0a"},{"town":"東十条南十一丁目","koaza":"","lat":42.921074,"lng":143.222489,"version":"13.0b/18.0a"},{"town":"東十条南十二丁目","koaza":"","lat":42.919916,"lng":143.222647,"version":"13.0b/18.0a"},{"town":"東十条南十三丁目","koaza":"","lat":42.918844,"lng":143.222794,"version":"13.0b/18.0a"},{"town":"東十条南十四丁目","koaza":"","lat":42.91766,"lng":143.222902,"version":"13.0b/18.0a"},{"town":"東十条南十五丁目","koaza":"","lat":42.916398,"lng":143.223094,"version":"13.0b/18.0a"},{"town":"東十条南十六丁目","koaza":"","lat":42.915254,"lng":143.223255,"version":"13.0b/18.0a"},{"town":"東十条南十七丁目","koaza":"","lat":42.914055,"lng":143.223424,"version":"13.0b/18.0a"},{"town":"東十条南十八丁目","koaza":"","lat":42.912963,"lng":143.223599,"version":"13.0b/18.0a"},{"town":"東十条南十九丁目","koaza":"","lat":42.911641,"lng":143.223534,"version":"13.0b/18.0a"},{"town":"東十条南一丁目","koaza":"","lat":42.932716,"lng":143.220964,"version":"13.0b/18.0a"},{"town":"東十条南二十丁目","koaza":"","lat":42.908338,"lng":143.22426,"version":"13.0b/18.0a"},{"town":"東十条南二丁目","koaza":"","lat":42.931382,"lng":143.221117,"version":"13.0b/18.0a"},{"town":"東十条南三丁目","koaza":"","lat":42.930188,"lng":143.221313,"version":"13.0b/18.0a"},{"town":"東十条南四丁目","koaza":"","lat":42.928944,"lng":143.221379,"version":"13.0b/18.0a"},{"town":"東十条南五丁目","koaza":"","lat":42.927591,"lng":143.221611,"version":"13.0b/18.0a"},{"town":"東十条南六丁目","koaza":"","lat":42.92648,"lng":143.221781,"version":"13.0b/18.0a"},{"town":"東十条南七丁目","koaza":"","lat":42.925449,"lng":143.2219,"version":"13.0b/18.0a"},{"town":"東十条南八丁目","koaza":"","lat":42.924545,"lng":143.222016,"version":"13.0b/18.0a"},{"town":"東十条南九丁目","koaza":"","lat":42.923395,"lng":143.222169,"version":"13.0b/18.0a"},{"town":"東十一条北一丁目","koaza":"","lat":42.934126,"lng":143.223065,"version":"13.0b/18.0a"},{"town":"東十一条北二丁目","koaza":"","lat":42.935564,"lng":143.222492,"version":"13.0b/18.0a"},{"town":"東十一条南十丁目","koaza":"","lat":42.92239,"lng":143.224566,"version":"13.0b/18.0a"},