[{"town":"字大谷","koaza":"","lat":43.705849,"lng":143.782392,"version":"13.0b/18.0a"},{"town":"字開盛","koaza":"","lat":43.68841,"lng":143.717685,"version":"13.0b/18.0a"},{"town":"字柏丘","koaza":"","lat":43.749644,"lng":143.759373,"version":"13.0b/18.0a"},{"town":"字協成","koaza":"","lat":43.696617,"lng":143.733435,"version":"13.0b/18.0a"},{"town":"字清住","koaza":"","lat":43.716334,"lng":143.711712,"version":"13.0b/18.0a"},{"town":"字駒里","koaza":"","lat":43.759368,"lng":143.684665,"version":"13.0b/18.0a"},{"town":"字高園","koaza":"","lat":43.744861,"lng":143.724915,"version":"13.0b/18.0a"},{"town":"字常盤","koaza":"","lat":43.675011,"lng":143.694163,"version":"13.0b/18.0a"},{"town":"字豊坂","koaza":"","lat":43.700398,"lng":143.687071,"version":"13.0b/18.0a"},{"town":"字西富","koaza":"","lat":43.720893,"lng":143.690745,"version":"13.0b/18.0a"},{"town":"字日出","koaza":"","lat":43.745496,"lng":143.790713,"version":"13.0b/18.0a"},{"town":"旭町","koaza":"","lat":43.724005,"lng":143.739991,"version":"13.0b/18.0a"},{"town":"字福野","koaza":"","lat":43.770971,"lng":143.770012,"version":"13.0b/18.0a"},{"town":"字北栄","koaza":"","lat":43.733629,"lng":143.687598,"version":"13.0b/18.0a"},{"town":"字穂波","koaza":"","lat":43.731949,"lng":143.764602,"version":"13.0b/18.0a"},{"town":"字実郷","koaza":"","lat":43.72044,"lng":143.756195,"version":"13.0b/18.0a"},{"town":"字美園","koaza":"","lat":43.641891,"lng":143.652983,"version":"13.0b/18.0a"},{"town":"字緑丘","koaza":"","lat":43.69929,"lng":143.758459,"version":"13.0b/18.0a"},{"town":"字弥生","koaza":"","lat":43.76395,"lng":143.725756,"version":"13.0b/18.0a"},{"town":"大町","koaza":"","lat":43.727913,"lng":143.736058,"version":"13.0b/18.0a"},{"town":"栄町","koaza":"","lat":43.724112,"lng":143.735377,"version":"13.0b/18.0a"},{"town":"末広町","koaza":"","lat":43.717516,"lng":143.737754,"version":"13.0b/18.0a"},{"town":"仲町","koaza":"","lat":43.723989,"lng":143.737592,"version":"13.0b/18.0a"},{"town":"西幸町","koaza":"","lat":43.730909,"lng":143.735779,"version":"13.0b/18.0a"},{"town":"東幸町","koaza":"","lat":43.732058,"lng":143.742189,"version":"13.0b/18.0a"},{"town":"東町","koaza":"","lat":43.7251,"lng":143.744621,"version":"13.0b/18.0a"},{"town":"元町","koaza":"","lat":43.728097,"lng":143.739534,"version":"13.0b/18.0a"},{"town":"若富町","koaza":"","lat":43.725161,"lng":143.73065,"version":"13.0b/18.0a"},{"town":"若葉町","koaza":"","lat":43.730211,"lng":143.730006,"version":"13.0b/18.0a"},{"town":"字大谷","koaza":"","lat":43.705849,"lng":143.782392,"version":"14.0b/19.0a"},{"town":"字開盛","koaza":"","lat":43.68841,"lng":143.717685,"version":"14.0b/19.0a"},{"town":"字柏丘","koaza":"","lat":43.749644,"lng":143.759373,"version":"14.0b/19.0a"},{"town":"字協成","koaza":"","lat":43.696617,"lng":143.733435,"version":"14.0b/19.0a"},{"town":"字清住","koaza":"","lat":43.716334,"lng":143.711712,"version":"14.0b/19.0a"},{"town":"字駒里","koaza":"","lat":43.759368,"lng":143.684665,"version":"14.0b/19.0a"},{"town":"字高園","koaza":"","lat":43.744861,"lng":143.724915,"version":"14.0b/19.0a"},{"town":"字常盤","koaza":"","lat":43.675011,"lng":143.694163,"version":"14.0b/19.0a"},{"town":"字豊坂","koaza":"","lat":43.700398,"lng":143.687071,"version":"14.0b/19.0a"},{"town":"字西富","koaza":"","lat":43.720893,"lng":143.690745,"version":"14.0b/19.0a"},{"town":"字日出","koaza":"","lat":43.745496,"lng":143.790713,"version":"14.0b/19.0a"},{"town":"旭町","koaza":"","lat":43.724005,"lng":143.739991,"version":"14.0b/19.0a"},{"town":"字福野","koaza":"","lat":43.770971,"lng":143.770012,"version":"14.0b/19.0a"},{"town":"字北栄","koaza":"","lat":43.733629,"lng":143.687598,"version":"14.0b/19.0a"},{"town":"字穂波","koaza":"","lat":43.731949,"lng":143.764602,"version":"14.0b/19.0a"},{"town":"字実郷","koaza":"","lat":43.72044,"lng":143.756195,"version":"14.0b/19.0a"},{"town":"字美園","koaza":"","lat":43.641891,"lng":143.652983,"version":"14.0b/19.0a"},{"town":"字緑丘","koaza":"","lat":43.69929,"lng":143.758459,"version":"14.0b/19.0a"},{"town":"字弥生","koaza":"","lat":43.76395,"lng":143.725756,"version":"14.0b/19.0a"},{"town":"大町","koaza":"","lat":43.727913,"lng":143.736058,"version":"14.0b/19.0a"},{"town":"栄町","koaza":"","lat":43.724112,"lng":143.735377,"version":"14.0b/19.0a"},{"town":"末広町","koaza":"","lat":43.717516,"lng":143.737754,"version":"14.0b/19.0a"},{"town":"仲町","koaza":"","lat":43.723989,"lng":143.737592,"version":"14.0b/19.0a"},{"town":"西幸町","koaza":"","lat":43.730909,"lng":143.735779,"version":"14.0b/19.0a"},{"town":"東幸町","koaza":"","lat":43.732058,"lng":143.742189,"version":"14.0b/19.0a"},{"town":"東町","koaza":"","lat":43.7251,"lng":143.744621,"version":"14.0b/19.0a"},{"town":"元町","koaza":"","lat":43.728097,"lng":143.739534,"version":"14.0b/19.0a"},{"town":"若富町","koaza":"","lat":43.725161,"lng":143.73065,"version":"14.0b/19.0a"},{"town":"若葉町","koaza":"","lat":43.730211,"lng":143.730006,"version":"14.0b/19.0a"}]