[{"town":"曙十条一丁目","koaza":"","lat":43.145554,"lng":141.239503,"version":"13.0b/18.0a"},{"town":"曙十条二丁目","koaza":"","lat":43.144291,"lng":141.236678,"version":"13.0b/18.0a"},{"town":"曙十一条一丁目","koaza":"","lat":43.147641,"lng":141.239318,"version":"13.0b/18.0a"},{"town":"曙十一条二丁目","koaza":"","lat":43.144458,"lng":141.233451,"version":"13.0b/18.0a"},{"town":"曙十二条一丁目","koaza":"","lat":43.149135,"lng":141.236995,"version":"13.0b/18.0a"},{"town":"曙十二条二丁目","koaza":"","lat":43.146564,"lng":141.232507,"version":"13.0b/18.0a"},{"town":"曙一条一丁目","koaza":"","lat":43.12368,"lng":141.240255,"version":"13.0b/18.0a"},{"town":"曙一条二丁目","koaza":"","lat":43.124733,"lng":141.236626,"version":"13.0b/18.0a"},{"town":"曙一条三丁目","koaza":"","lat":43.12799,"lng":141.225819,"version":"13.0b/18.0a"},{"town":"曙二条一丁目","koaza":"","lat":43.126896,"lng":141.240089,"version":"13.0b/18.0a"},{"town":"曙二条二丁目","koaza":"","lat":43.127391,"lng":141.237893,"version":"13.0b/18.0a"},{"town":"曙二条三丁目","koaza":"","lat":43.126883,"lng":141.233556,"version":"13.0b/18.0a"},{"town":"曙二条四丁目","koaza":"","lat":43.129916,"lng":141.22738,"version":"13.0b/18.0a"},{"town":"曙二条五丁目","koaza":"","lat":43.131666,"lng":141.22198,"version":"13.0b/18.0a"},{"town":"曙三条一丁目","koaza":"","lat":43.12947,"lng":141.24019,"version":"13.0b/18.0a"},{"town":"曙三条二丁目","koaza":"","lat":43.12933,"lng":141.237271,"version":"13.0b/18.0a"},{"town":"曙三条三丁目","koaza":"","lat":43.129433,"lng":141.232986,"version":"13.0b/18.0a"},{"town":"曙四条一丁目","koaza":"","lat":43.131356,"lng":141.240129,"version":"13.0b/18.0a"},{"town":"曙四条二丁目","koaza":"","lat":43.13123,"lng":141.237197,"version":"13.0b/18.0a"},{"town":"曙四条三丁目","koaza":"","lat":43.131011,"lng":141.233191,"version":"13.0b/18.0a"},{"town":"曙五条一丁目","koaza":"","lat":43.133701,"lng":141.240482,"version":"13.0b/18.0a"},{"town":"曙五条二丁目","koaza":"","lat":43.13361,"lng":141.237565,"version":"13.0b/18.0a"},{"town":"曙五条三丁目","koaza":"","lat":43.133577,"lng":141.233501,"version":"13.0b/18.0a"},{"town":"曙五条四丁目","koaza":"","lat":43.134703,"lng":141.229267,"version":"13.0b/18.0a"},{"town":"曙五条五丁目","koaza":"","lat":43.134702,"lng":141.223913,"version":"13.0b/18.0a"},{"town":"曙六条一丁目","koaza":"","lat":43.136164,"lng":141.240105,"version":"13.0b/18.0a"},{"town":"曙六条二丁目","koaza":"","lat":43.136093,"lng":141.237172,"version":"13.0b/18.0a"},{"town":"曙六条三丁目","koaza":"","lat":43.136112,"lng":141.233786,"version":"13.0b/18.0a"},{"town":"曙七条一丁目","koaza":"","lat":43.138445,"lng":141.240016,"version":"13.0b/18.0a"},{"town":"曙七条二丁目","koaza":"","lat":43.139355,"lng":141.236864,"version":"13.0b/18.0a"},{"town":"曙七条三丁目","koaza":"","lat":43.137954,"lng":141.234121,"version":"13.0b/18.0a"},{"town":"曙八条一丁目","koaza":"","lat":43.141119,"lng":141.239908,"version":"13.0b/18.0a"},{"town":"曙八条二丁目","koaza":"","lat":43.140719,"lng":141.23751,"version":"13.0b/18.0a"},{"town":"曙九条一丁目","koaza":"","lat":43.143864,"lng":141.239777,"version":"13.0b/18.0a"},{"town":"曙九条二丁目","koaza":"","lat":43.143242,"lng":141.236854,"version":"13.0b/18.0a"},{"town":"明日風一丁目","koaza":"","lat":43.138592,"lng":141.234402,"version":"13.0b/18.0a"},{"town":"明日風二丁目","koaza":"","lat":43.138906,"lng":141.22841,"version":"13.0b/18.0a"},{"town":"明日風三丁目","koaza":"","lat":43.139258,"lng":141.224689,"version":"13.0b/18.0a"},{"town":"明日風四丁目","koaza":"","lat":43.141815,"lng":141.226427,"version":"13.0b/18.0a"},{"town":"明日風五丁目","koaza":"","lat":43.143091,"lng":141.230067,"version":"13.0b/18.0a"},{"town":"明日風六丁目","koaza":"","lat":43.141724,"lng":141.233151,"version":"13.0b/18.0a"},{"town":"稲穂一条一丁目","koaza":"","lat":43.123692,"lng":141.233461,"version":"13.0b/18.0a"},{"town":"稲穂一条二丁目","koaza":"","lat":43.12454,"lng":141.228746,"version":"13.0b/18.0a"},{"town":"稲穂一条三丁目","koaza":"","lat":43.125473,"lng":141.226282,"version":"13.0b/18.0a"},{"town":"稲穂一条四丁目","koaza":"","lat":43.12672,"lng":141.224058,"version":"13.0b/18.0a"},{"town":"稲穂一条五丁目","koaza":"","lat":43.128065,"lng":141.221792,"version":"13.0b/18.0a"},{"town":"稲穂一条六丁目","koaza":"","lat":43.1296,"lng":141.218134,"version":"13.0b/18.0a"},{"town":"稲穂一条七丁目","koaza":"","lat":43.131368,"lng":141.214461,"version":"13.0b/18.0a"},{"town":"稲穂一条八丁目","koaza":"","lat":43.131563,"lng":141.206623,"version":"13.0b/18.0a"},{"town":"稲穂二条一丁目","koaza":"","lat":43.121847,"lng":141.233806,"version":"13.0b/18.0a"},{"town":"稲穂二条二丁目","koaza":"","lat":43.122845,"lng":141.229453,"version":"13.0b/18.0a"},{"town":"稲穂二条三丁目","koaza":"","lat":43.123492,"lng":141.225806,"version":"13.0b/18.0a"},{"town":"稲穂二条四丁目","koaza":"","lat":43.124839,"lng":141.223333,"version":"13.0b/18.0a"},{"town":"稲穂二条五丁目","koaza":"","lat":43.126336,"lng":141.220726,"version":"13.0b/18.0a"},{"town":"稲穂二条六丁目","koaza":"","lat":43.127656,"lng":141.217616,"version":"13.0b/18.0a"},{"town":"稲穂二条七丁目","koaza":"","lat":43.129624,"lng":141.21349,"version":"13.0b/18.0a"},{"town":"稲穂二条八丁目","koaza":"","lat":43.130715,"lng":141.210375,"version":"13.0b/18.0a"},{"town":"稲穂三条一丁目","koaza":"","lat":43.120658,"lng":141.233094,"version":"13.0b/18.0a"},{"town":"稲穂三条二丁目","koaza":"","lat":43.120933,"lng":141.229814,"version":"13.0b/18.0a"},{"town":"稲穂三条三丁目","koaza":"","lat":43.12195,"lng":141.226791,"version":"13.0b/18.0a"},{"town":"稲穂三条四丁目","koaza":"","lat":43.122848,"lng":141.223323,"version":"13.0b/18.0a"},{"town":"稲穂三条五丁目","koaza":"","lat":43.124422,"lng":141.220399,"version":"13.0b/18.0a"},{"town":"稲穂三条六丁目","koaza":"","lat":43.126258,"lng":141.216345,"version":"13.0b/18.0a"},{"town":"稲穂三条七丁目","koaza":"","lat":43.127972,"lng":141.212752,"version":"13.0b/18.0a"},{"town":"稲穂四条一丁目","koaza":"","lat":43.118868,"lng":141.232191,"version":"13.0b/18.0a"},{"town":"稲穂四条二丁目","koaza":"","lat":43.118849,"lng":141.228623,"version":"13.0b/18.0a"},{"town":"稲穂四条三丁目","koaza":"","lat":43.119864,"lng":141.224901,"version":"13.0b/18.0a"},{"town":"稲穂四条四丁目","koaza":"","lat":43.121269,"lng":141.221792,"version":"13.0b/18.0a"},{"town":"稲穂四条五丁目","koaza":"","lat":43.122787,"lng":141.218257,"version":"13.0b/18.0a"},{"town":"稲穂四条六丁目","koaza":"","lat":43.124636,"lng":141.215119,"version":"13.0b/18.0a"},{"town":"稲穂四条七丁目","koaza":"","lat":43.125891,"lng":141.211392,"version":"13.0b/18.0a"},{"town":"稲穂五条二丁目","koaza":"","lat":43.117301,"lng":141.226951,"version":"13.0b/18.0a"},{"town":"稲穂五条三丁目","koaza":"","lat":43.117795,"lng":141.223351,"version":"13.0b/18.0a"},{"town":"稲穂五条四丁目","koaza":"","lat":43.119582,"lng":141.220588,"version":"13.0b/18.0a"},{"town":"稲穂五条五丁目","koaza":"","lat":43.120982,"lng":141.21781,"version":"13.0b/18.0a"},{"town":"稲穂五条六丁目","koaza":"","lat":43.122781,"lng":141.21364,"version":"13.0b/18.0a"},{"town":"稲穂五条七丁目","koaza":"","lat":43.123878,"lng":141.211083,"version":"13.0b/18.0a"},{"town":"金山一条一丁目","koaza":"","lat":43.128412,"lng":141.209584,"version":"13.0b/18.0a"},{"town":"金山一条二丁目","koaza":"","lat":43.129222,"lng":141.206439,"version":"13.0b/18.0a"},{"town":"金山一条三丁目","koaza":"","lat":43.129756,"lng":141.202973,"version":"13.0b/18.0a"},{"town":"金山一条四丁目","koaza":"","lat":43.129759,"lng":141.199914,"version":"13.0b/18.0a"},{"town":"金山二条一丁目","koaza":"","lat":43.125972,"lng":141.208223,"version":"13.0b/18.0a"},{"town":"金山二条二丁目","koaza":"","lat":43.126488,"lng":141.205468,"version":"13.0b/18.0a"},{"town":"金山二条三丁目","koaza":"","lat":43.126907,"lng":141.202676,"version":"13.0b/18.0a"},{"town":"金山二条四丁目","koaza":"","lat":43.127306,"lng":141.200209,"version":"13.0b/18.0a"},{"town":"金山三条一丁目","koaza":"","lat":43.124215,"lng":141.208079,"version":"13.0b/18.0a"},{"town":"金山三条二丁目","koaza":"","lat":43.124043,"lng":141.204347,"version":"13.0b/18.0a"},{"town":"金山三条三丁目","koaza":"","lat":43.124106,"lng":141.202105,"version":"13.0b/18.0a"},{"town":"新発寒一条三丁目","koaza":"","lat":43.107551,"lng":141.267756,"version":"13.0b/18.0a"},{"town":"新発寒二条一丁目","koaza":"","lat":43.106136,"lng":141.272813,"version":"13.0b/18.0a"},{"town":"新発寒二条三丁目","koaza":"","lat":43.108718,"lng":141.268952,"version":"13.0b/18.0a"},{"town":"新発寒二条四丁目","koaza":"","lat":43.109777,"lng":141.267149,"version":"13.0b/18.0a"},{"town":"新発寒二条五丁目","koaza":"","lat":43.110744,"lng":141.266784,"version":"13.0b/18.0a"},{"town":"新発寒三条一丁目","koaza":"","lat":43.10767,"lng":141.274176,"version":"13.0b/18.0a"},{"town":"新発寒三条二丁目","koaza":"","lat":43.108844,"lng":141.272374,"version":"13.0b/18.0a"},{"town":"新発寒三条三丁目","koaza":"","lat":43.110038,"lng":141.270477,"version":"13.0b/18.0a"},{"town":"新発寒三条四丁目","koaza":"","lat":43.111134,"lng":141.268756,"version":"13.0b/18.0a"},{"town":"新発寒三条五丁目","koaza":"","lat":43.112229,"lng":141.267115,"version":"13.0b/18.0a"},{"town":"新発寒四条一丁目","koaza":"","lat":43.109389,"lng":141.276086,"version":"13.0b/18.0a"},{"town":"新発寒四条二丁目","koaza":"","lat":43.110445,"lng":141.274223,"version":"13.0b/18.0a"},{"town":"新発寒四条三丁目","koaza":"","lat":43.111779,"lng":141.272468,"version":"13.0b/18.0a"},{"town":"新発寒四条四丁目","koaza":"","lat":43.11285,"lng":141.270704,"version":"13.0b/18.0a"},{"town":"新発寒四条五丁目","koaza":"","lat":43.1141,"lng":141.269226,"version":"13.0b/18.0a"},{"town":"新発寒四条六丁目","koaza":"","lat":43.115539,"lng":141.267555,"version":"13.0b/18.0a"},{"town":"新発寒五条一丁目","koaza":"","lat":43.111563,"lng":141.278542,"version":"13.0b/18.0a"},{"town":"新発寒五条二丁目","koaza":"","lat":43.112772,"lng":141.27688,"version":"13.0b/18.0a"},{"town":"新発寒五条三丁目","koaza":"","lat":43.113905,"lng":141.27536,"version":"13.0b/18.0a"},{"town":"新発寒五条四丁目","koaza":"","lat":43.115069,"lng":141.273855,"version":"13.0b/18.0a"},{"town":"新発寒五条五丁目","koaza":"","lat":43.116257,"lng":141.272154,"version":"13.0b/18.0a"},{"town":"新発寒五条六丁目","koaza":"","lat":43.117211,"lng":141.270114,"version":"13.0b/18.0a"},{"town":"新発寒五条七丁目","koaza":"","lat":43.118734,"lng":141.269099,"version":"13.0b/18.0a"},{"town":"新発寒五条八丁目","koaza":"","lat":43.119408,"lng":141.267502,"version":"13.0b/18.0a"},{"town":"新発寒五条九丁目","koaza":"","lat":43.121401,"lng":141.266699,"version":"13.0b/18.0a"},{"town":"新発寒六条十丁目","koaza":"","lat":43.12517,"lng":141.267328,"version":"13.0b/18.0a"},{"town":"新発寒六条一丁目","koaza":"","lat":43.114217,"lng":141.281461,"version":"13.0b/18.0a"},{"town":"新発寒六条二丁目","koaza":"","lat":43.115402,"lng":141.279854,"version":"13.0b/18.0a"},{"town":"新発寒六条三丁目","koaza":"","lat":43.116324,"lng":141.278516,"version":"13.0b/18.0a"},{"town":"新発寒六条四丁目","koaza":"","lat":43.117413,"lng":141.277201,"version":"13.0b/18.0a"},{"town":"新発寒六条五丁目","koaza":"","lat":43.118918,"lng":141.276029,"version":"13.0b/18.0a"},{"town":"新発寒六条六丁目","koaza":"","lat":43.119818,"lng":141.273629,"version":"13.0b/18.0a"},{"town":"新発寒六条七丁目","koaza":"","lat":43.120616,"lng":141.272068,"version":"13.0b/18.0a"},{"town":"新発寒六条八丁目","koaza":"","lat":43.121943,"lng":141.270899,"version":"13.0b/18.0a"},{"town":"新発寒六条九丁目","koaza":"","lat":43.123283,"lng":141.269238,"version":"13.0b/18.0a"},{"town":"新発寒七条十丁目","koaza":"","lat":43.126723,"lng":141.270043,"version":"13.0b/18.0a"},{"town":"新発寒七条十一丁目","koaza":"","lat":43.128899,"lng":141.267678,"version":"13.0b/18.0a"},{"town":"新発寒七条一丁目","koaza":"","lat":43.116451,"lng":141.283989,"version":"13.0b/18.0a"},{"town":"新発寒七条二丁目","koaza":"","lat":43.11724,"lng":141.282342,"version":"13.0b/18.0a"},{"town":"新発寒七条三丁目","koaza":"","lat":43.11859,"lng":141.281344,"version":"13.0b/18.0a"},{"town":"新発寒七条四丁目","koaza":"","lat":43.11948,"lng":141.279797,"version":"13.0b/18.0a"},{"town":"新発寒七条五丁目","koaza":"","lat":43.120696,"lng":141.278654,"version":"13.0b/18.0a"},{"town":"新発寒七条六丁目","koaza":"","lat":43.121519,"lng":141.276566,"version":"13.0b/18.0a"},{"town":"新発寒七条七丁目","koaza":"","lat":43.122756,"lng":141.275188,"version":"13.0b/18.0a"},{"town":"新発寒七条八丁目","koaza":"","lat":43.123715,"lng":141.273507,"version":"13.0b/18.0a"},{"town":"新発寒七条九丁目","koaza":"","lat":43.125266,"lng":141.271981,"version":"13.0b/18.0a"},{"town":"手稲稲穂","koaza":"","lat":43.122867,"lng":141.21073,"version":"13.0b/18.0a"},{"town":"手稲金山","koaza":"","lat":43.099857,"lng":141.187182,"version":"13.0b/18.0a"},{"town":"手稲富丘","koaza":"","lat":43.094698,"lng":141.248587,"version":"13.0b/18.0a"},{"town":"手稲星置","koaza":"","lat":43.136885,"lng":141.189973,"version":"13.0b/18.0a"},{"town":"手稲本町","koaza":"","lat":43.104316,"lng":141.217527,"version":"13.0b/18.0a"},{"town":"手稲本町一条一丁目","koaza":"","lat":43.11691,"lng":141.246351,"version":"13.0b/18.0a"},{"town":"手稲本町一条二丁目","koaza":"","lat":43.117727,"lng":141.245182,"version":"13.0b/18.0a"},{"town":"手稲本町一条三丁目","koaza":"","lat":43.119025,"lng":141.244328,"version":"13.0b/18.0a"},{"town":"手稲本町一条四丁目","koaza":"","lat":43.120458,"lng":141.242782,"version":"13.0b/18.0a"},{"town":"手稲本町二条一丁目","koaza":"","lat":43.11579,"lng":141.244867,"version":"13.0b/18.0a"},{"town":"手稲本町二条二丁目","koaza":"","lat":43.116946,"lng":141.243066,"version":"13.0b/18.0a"},{"town":"手稲本町二条三丁目","koaza":"","lat":43.118262,"lng":141.241676,"version":"13.0b/18.0a"},{"town":"手稲本町二条四丁目","koaza":"","lat":43.120108,"lng":141.240734,"version":"13.0b/18.0a"},{"town":"手稲本町二条五丁目","koaza":"","lat":43.121715,"lng":141.23855,"version":"13.0b/18.0a"},{"town":"手稲本町三条一丁目","koaza":"","lat":43.114611,"lng":141.242961,"version":"13.0b/18.0a"},{"town":"手稲本町三条二丁目","koaza":"","lat":43.115636,"lng":141.241469,"version":"13.0b/18.0a"},{"town":"手稲本町三条三丁目","koaza":"","lat":43.117472,"lng":141.239847,"version":"13.0b/18.0a"},{"town":"手稲本町三条四丁目","koaza":"","lat":43.11981,"lng":141.236234,"version":"13.0b/18.0a"},{"town":"手稲本町四条一丁目","koaza":"","lat":43.113411,"lng":141.241348,"version":"13.0b/18.0a"},{"town":"手稲本町四条二丁目","koaza":"","lat":43.114923,"lng":141.239456,"version":"13.0b/18.0a"},{"town":"手稲本町四条三丁目","koaza":"","lat":43.116729,"lng":141.238266,"version":"13.0b/18.0a"},{"town":"手稲本町四条四丁目","koaza":"","lat":43.118505,"lng":141.235263,"version":"13.0b/18.0a"},{"town":"手稲本町五条一丁目","koaza":"","lat":43.112245,"lng":141.239799,"version":"13.0b/18.0a"},{"town":"手稲本町五条二丁目","koaza":"","lat":43.114153,"lng":141.23782,"version":"13.0b/18.0a"},{"town":"手稲本町五条三丁目","koaza":"","lat":43.116146,"lng":141.235935,"version":"13.0b/18.0a"},{"town":"手稲本町五条四丁目","koaza":"","lat":43.117133,"lng":141.233476,"version":"13.0b/18.0a"},{"town":"手稲本町六条三丁目","koaza":"","lat":43.114352,"lng":141.234224,"version":"13.0b/18.0a"},{"town":"手稲本町六条四丁目","koaza":"","lat":43.116368,"lng":141.230151,"version":"13.0b/18.0a"},{"town":"手稲前田","koaza":"","lat":43.144536,"lng":141.25769,"version":"13.0b/18.0a"},{"town":"手稲山口","koaza":"","lat":43.1493,"lng":141.219501,"version":"13.0b/18.0a"},{"town":"富丘一条三丁目","koaza":"","lat":43.109019,"lng":141.25737,"version":"13.0b/18.0a"},{"town":"富丘一条四丁目","koaza":"","lat":43.110492,"lng":141.255843,"version":"13.0b/18.0a"},{"town":"富丘一条五丁目","koaza":"","lat":43.111199,"lng":141.252677,"version":"13.0b/18.0a"},{"town":"富丘一条六丁目","koaza":"","lat":43.113856,"lng":141.251353,"version":"13.0b/18.0a"},{"town":"富丘一条七丁目","koaza":"","lat":43.115802,"lng":141.248757,"version":"13.0b/18.0a"},{"town":"富丘二条二丁目","koaza":"","lat":43.1011,"lng":141.253753,"version":"13.0b/18.0a"},{"town":"富丘二条三丁目","koaza":"","lat":43.105571,"lng":141.254123,"version":"13.0b/18.0a"},{"town":"富丘二条四丁目","koaza":"","lat":43.107295,"lng":141.252381,"version":"13.0b/18.0a"},{"town":"富丘二条五丁目","koaza":"","lat":43.11068,"lng":141.249883,"version":"13.0b/18.0a"},{"town":"富丘二条六丁目","koaza":"","lat":43.113145,"lng":141.248271,"version":"13.0b/18.0a"},{"town":"富丘二条七丁目","koaza":"","lat":43.11492,"lng":141.246435,"version":"13.0b/18.0a"},{"town":"富丘三条一丁目","koaza":"","lat":43.097685,"lng":141.253907,"version":"13.0b/18.0a"},{"town":"富丘三条二丁目","koaza":"","lat":43.100953,"lng":141.252025,"version":"13.0b/18.0a"},{"town":"富丘三条三丁目","koaza":"","lat":43.103766,"lng":141.250862,"version":"13.0b/18.0a"},{"town":"富丘三条四丁目","koaza":"","lat":43.10596,"lng":141.24943,"version":"13.0b/18.0a"},{"town":"富丘三条五丁目","koaza":"","lat":43.109196,"lng":141.248009,"version":"13.0b/18.0a"},{"town":"富丘三条六丁目","koaza":"","lat":43.111352,"lng":141.246782,"version":"13.0b/18.0a"},{"town":"富丘三条七丁目","koaza":"","lat":43.113308,"lng":141.244813,"version":"13.0b/18.0a"},{"town":"富丘四条一丁目","koaza":"","lat":43.097264,"lng":141.251907,"version":"13.0b/18.0a"},{"town":"富丘四条二丁目","koaza":"","lat":43.100587,"lng":141.250476,"version":"13.0b/18.0a"},{"town":"富丘四条三丁目","koaza":"","lat":43.103146,"lng":141.249312,"version":"13.0b/18.0a"},{"town":"富丘四条四丁目","koaza":"","lat":43.10533,"lng":141.247073,"version":"13.0b/18.0a"},{"town":"富丘四条五丁目","koaza":"","lat":43.108619,"lng":141.245304,"version":"13.0b/18.0a"},{"town":"富丘四条六丁目","koaza":"","lat":43.110756,"lng":141.244016,"version":"13.0b/18.0a"},{"town":"富丘四条七丁目","koaza":"","lat":43.112364,"lng":141.242857,"version":"13.0b/18.0a"},{"town":"富丘五条二丁目","koaza":"","lat":43.100093,"lng":141.248945,"version":"13.0b/18.0a"},{"town":"富丘五条三丁目","koaza":"","lat":43.102125,"lng":141.248143,"version":"13.0b/18.0a"},{"town":"富丘五条四丁目","koaza":"","lat":43.104328,"lng":141.245411,"version":"13.0b/18.0a"},{"town":"富丘五条五丁目","koaza":"","lat":43.108097,"lng":141.242867,"version":"13.0b/18.0a"},{"town":"富丘五条六丁目","koaza":"","lat":43.109961,"lng":141.242206,"version":"13.0b/18.0a"},{"town":"富丘五条七丁目","koaza":"","lat":43.110949,"lng":141.240987,"version":"13.0b/18.0a"},{"town":"富丘六条二丁目","koaza":"","lat":43.099847,"lng":141.247415,"version":"13.0b/18.0a"},{"town":"富丘六条三丁目","koaza":"","lat":43.102101,"lng":141.24486,"version":"13.0b/18.0a"},{"town":"富丘六条四丁目","koaza":"","lat":43.105152,"lng":141.241507,"version":"13.0b/18.0a"},{"town":"富丘六条七丁目","koaza":"","lat":43.109381,"lng":141.238648,"version":"13.0b/18.0a"},{"town":"西宮の沢","koaza":"","lat":43.087886,"lng":141.250723,"version":"13.0b/18.0a"},{"town":"西宮の沢一条一丁目","koaza":"","lat":43.103216,"lng":141.269707,"version":"13.0b/18.0a"},{"town":"西宮の沢一条三丁目","koaza":"","lat":43.105829,"lng":141.265388,"version":"13.0b/18.0a"},{"town":"西宮の沢一条四丁目","koaza":"","lat":43.107429,"lng":141.261946,"version":"13.0b/18.0a"},{"town":"西宮の沢一条五丁目","koaza":"","lat":43.108787,"lng":141.259532,"version":"13.0b/18.0a"},{"town":"西宮の沢二条一丁目","koaza":"","lat":43.101169,"lng":141.267529,"version":"13.0b/18.0a"},{"town":"西宮の沢二条二丁目","koaza":"","lat":43.10246,"lng":141.265754,"version":"13.0b/18.0a"},{"town":"西宮の沢二条三丁目","koaza":"","lat":43.104065,"lng":141.263301,"version":"13.0b/18.0a"},{"town":"西宮の沢二条四丁目","koaza":"","lat":43.104817,"lng":141.259847,"version":"13.0b/18.0a"},{"town":"西宮の沢二条五丁目","koaza":"","lat":43.107034,"lng":141.257721,"version":"13.0b/18.0a"},{"town":"西宮の沢三条一丁目","koaza":"","lat":43.099339,"lng":141.264926,"version":"13.0b/18.0a"},{"town":"西宮の沢三条二丁目","koaza":"","lat":43.100287,"lng":141.262694,"version":"13.0b/18.0a"},{"town":"西宮の沢三条三丁目","koaza":"","lat":43.101732,"lng":141.261138,"version":"13.0b/18.0a"},{"town":"西宮の沢四条一丁目","koaza":"","lat":43.096713,"lng":141.262343,"version":"13.0b/18.0a"},{"town":"西宮の沢四条二丁目","koaza":"","lat":43.097939,"lng":141.260163,"version":"13.0b/18.0a"},{"town":"西宮の沢四条三丁目","koaza":"","lat":43.099774,"lng":141.258231,"version":"13.0b/18.0a"},{"town":"西宮の沢四条四丁目","koaza":"","lat":43.10213,"lng":141.257066,"version":"13.0b/18.0a"},{"town":"西宮の沢四条五丁目","koaza":"","lat":43.105484,"lng":141.256793,"version":"13.0b/18.0a"},{"town":"西宮の沢五条一丁目","koaza":"","lat":43.093609,"lng":141.260224,"version":"13.0b/18.0a"},{"town":"西宮の沢五条二丁目","koaza":"","lat":43.096073,"lng":141.257587,"version":"13.0b/18.0a"},{"town":"西宮の沢六条一丁目","koaza":"","lat":43.090329,"lng":141.256515,"version":"13.0b/18.0a"},{"town":"西宮の沢六条二丁目","koaza":"","lat":43.092639,"lng":141.256423,"version":"13.0b/18.0a"},{"town":"星置一条一丁目","koaza":"","lat":43.133469,"lng":141.216499,"version":"13.0b/18.0a"},{"town":"星置一条二丁目","koaza":"","lat":43.1338,"lng":141.212926,"version":"13.0b/18.0a"},{"town":"星置一条三丁目","koaza":"","lat":43.13361,"lng":141.210915,"version":"13.0b/18.0a"},{"town":"星置一条四丁目","koaza":"","lat":43.133549,"lng":141.208421,"version":"13.0b/18.0a"},{"town":"星置一条五丁目","koaza":"","lat":43.133515,"lng":141.205502,"version":"13.0b/18.0a"},{"town":"星置一条六丁目","koaza":"","lat":43.133833,"lng":141.202204,"version":"13.0b/18.0a"},{"town":"星置一条七丁目","koaza":"","lat":43.134194,"lng":141.198726,"version":"13.0b/18.0a"},{"town":"星置一条八丁目","koaza":"","lat":43.134336,"lng":141.195309,"version":"13.0b/18.0a"},{"town":"星置一条九丁目","koaza":"","lat":43.134352,"lng":141.192271,"version":"13.0b/18.0a"},{"town":"星置二条一丁目","koaza":"","lat":43.135783,"lng":141.218072,"version":"13.0b/18.0a"},{"town":"星置二条二丁目","koaza":"","lat":43.136718,"lng":141.213651,"version":"13.0b/18.0a"},{"town":"星置二条三丁目","koaza":"","lat":43.136844,"lng":141.210612,"version":"13.0b/18.0a"},{"town":"星置二条四丁目","koaza":"","lat":43.136549,"lng":141.208236,"version":"13.0b/18.0a"},{"town":"星置二条五丁目","koaza":"","lat":43.136509,"lng":141.205326,"version":"13.0b/18.0a"},{"town":"星置二条六丁目","koaza":"","lat":43.136449,"lng":141.201632,"version":"13.0b/18.0a"},{"town":"星置二条七丁目","koaza":"","lat":43.13623,"lng":141.198958,"version":"13.0b/18.0a"},{"town":"星置二条八丁目","koaza":"","lat":43.136815,"lng":141.195316,"version":"13.0b/18.0a"},{"town":"星置二条九丁目","koaza":"","lat":43.136813,"lng":141.192712,"version":"13.0b/18.0a"},{"town":"星置三条一丁目","koaza":"","lat":43.13887,"lng":141.220336,"version":"13.0b/18.0a"},{"town":"星置三条四丁目","koaza":"","lat":43.138865,"lng":141.208252,"version":"13.0b/18.0a"},{"town":"星置三条五丁目","koaza":"","lat":43.139555,"lng":141.205705,"version":"13.0b/18.0a"},{"town":"星置三条六丁目","koaza":"","lat":43.139144,"lng":141.201425,"version":"13.0b/18.0a"},{"town":"星置三条七丁目","koaza":"","lat":43.138673,"lng":141.197945,"version":"13.0b/18.0a"},{"town":"星置三条八丁目","koaza":"","lat":43.138945,"lng":141.195217,"version":"13.0b/18.0a"},{"town":"星置三条九丁目","koaza":"","lat":43.139033,"lng":141.191685,"version":"13.0b/18.0a"},{"town":"星置南一丁目","koaza":"","lat":43.130396,"lng":141.198002,"version":"13.0b/18.0a"},{"town":"星置南二丁目","koaza":"","lat":43.128393,"lng":141.198179,"version":"13.0b/18.0a"},{"town":"星置南三丁目","koaza":"","lat":43.132217,"lng":141.196494,"version":"13.0b/18.0a"},{"town":"星置南四丁目","koaza":"","lat":43.132729,"lng":141.192581,"version":"13.0b/18.0a"},{"town":"前田十条十丁目","koaza":"","lat":43.131712,"lng":141.263543,"version":"13.0b/18.0a"},{"town":"前田十条十一丁目","koaza":"","lat":43.133585,"lng":141.261458,"version":"13.0b/18.0a"},{"town":"前田十条十二丁目","koaza":"","lat":43.135161,"lng":141.259249,"version":"13.0b/18.0a"},{"town":"前田十条十三丁目","koaza":"","lat":43.135989,"lng":141.257796,"version":"13.0b/18.0a"},{"town":"前田十条十四丁目","koaza":"","lat":43.136794,"lng":141.256836,"version":"13.0b/18.0a"},{"town":"前田十条十五丁目","koaza":"","lat":43.138468,"lng":141.254125,"version":"13.0b/18.0a"},{"town":"前田十条十六丁目","koaza":"","lat":43.140006,"lng":141.251833,"version":"13.0b/18.0a"},{"town":"前田十条十七丁目","koaza":"","lat":43.141764,"lng":141.249815,"version":"13.0b/18.0a"},{"town":"前田十条十八丁目","koaza":"","lat":43.143233,"lng":141.247807,"version":"13.0b/18.0a"},{"town":"前田十条十九丁目","koaza":"","lat":43.144476,"lng":141.244407,"version":"13.0b/18.0a"},{"town":"前田十条二十丁目","koaza":"","lat":43.147038,"lng":141.242683,"version":"13.0b/18.0a"},{"town":"前田十条九丁目","koaza":"","lat":43.129451,"lng":141.26525,"version":"13.0b/18.0a"},{"town":"前田十一条十丁目","koaza":"","lat":43.133214,"lng":141.26558,"version":"13.0b/18.0a"},{"town":"前田十二条十丁目","koaza":"","lat":43.134091,"lng":141.268134,"version":"13.0b/18.0a"},{"town":"前田十三条十丁目","koaza":"","lat":43.135307,"lng":141.269202,"version":"13.0b/18.0a"},{"town":"前田一条十丁目","koaza":"","lat":43.11914,"lng":141.24765,"version":"13.0b/18.0a"},{"town":"前田一条十一丁目","koaza":"","lat":43.120946,"lng":141.244945,"version":"13.0b/18.0a"},{"town":"前田一条十二丁目","koaza":"","lat":43.122545,"lng":141.243475,"version":"13.0b/18.0a"},{"town":"前田一条一丁目","koaza":"","lat":43.107935,"lng":141.265268,"version":"13.0b/18.0a"},{"town":"前田一条二丁目","koaza":"","lat":43.109188,"lng":141.26414,"version":"13.0b/18.0a"},{"town":"前田一条三丁目","koaza":"","lat":43.110111,"lng":141.262177,"version":"13.0b/18.0a"},{"town":"前田一条四丁目","koaza":"","lat":43.111962,"lng":141.259549,"version":"13.0b/18.0a"},{"town":"前田一条五丁目","koaza":"","lat":43.115228,"lng":141.258114,"version":"13.0b/18.0a"},{"town":"前田一条六丁目","koaza":"","lat":43.113894,"lng":141.254989,"version":"13.0b/18.0a"},{"town":"前田一条七丁目","koaza":"","lat":43.115339,"lng":141.253738,"version":"13.0b/18.0a"},{"town":"前田一条八丁目","koaza":"","lat":43.116431,"lng":141.251842,"version":"13.0b/18.0a"},{"town":"前田一条九丁目","koaza":"","lat":43.117763,"lng":141.249774,"version":"13.0b/18.0a"},{"town":"前田二条十丁目","koaza":"","lat":43.120677,"lng":141.249485,"version":"13.0b/18.0a"},{"town":"前田二条十一丁目","koaza":"","lat":43.122741,"lng":141.247641,"version":"13.0b/18.0a"},{"town":"前田二条十二丁目","koaza":"","lat":43.124239,"lng":141.245321,"version":"13.0b/18.0a"},{"town":"前田二条十三丁目","koaza":"","lat":43.12577,"lng":141.243219,"version":"13.0b/18.0a"},{"town":"前田二条一丁目","koaza":"","lat":43.109517,"lng":141.266112,"version":"13.0b/18.0a"},{"town":"前田二条二丁目","koaza":"","lat":43.110529,"lng":141.26561,"version":"13.0b/18.0a"},{"town":"前田二条三丁目","koaza":"","lat":43.111807,"lng":141.263606,"version":"13.0b/18.0a"},{"town":"前田二条四丁目","koaza":"","lat":43.11356,"lng":141.261766,"version":"13.0b/18.0a"},{"town":"前田二条七丁目","koaza":"","lat":43.116813,"lng":141.255299,"version":"13.0b/18.0a"},{"town":"前田二条八丁目","koaza":"","lat":43.117963,"lng":141.253579,"version":"13.0b/18.0a"},{"town":"前田二条九丁目","koaza":"","lat":43.119003,"lng":141.251589,"version":"13.0b/18.0a"},{"town":"前田三条十丁目","koaza":"","lat":43.121505,"lng":141.25168,"version":"13.0b/18.0a"},{"town":"前田三条三丁目","koaza":"","lat":43.113595,"lng":141.264868,"version":"13.0b/18.0a"},{"town":"前田三条四丁目","koaza":"","lat":43.115062,"lng":141.26303,"version":"13.0b/18.0a"},{"town":"前田三条七丁目","koaza":"","lat":43.118142,"lng":141.256791,"version":"13.0b/18.0a"},{"town":"前田三条八丁目","koaza":"","lat":43.119096,"lng":141.25458,"version":"13.0b/18.0a"},{"town":"前田三条九丁目","koaza":"","lat":43.120058,"lng":141.253122,"version":"13.0b/18.0a"},{"town":"前田四条十丁目","koaza":"","lat":43.123527,"lng":141.252017,"version":"13.0b/18.0a"},{"town":"前田四条十一丁目","koaza":"","lat":43.124123,"lng":141.249686,"version":"13.0b/18.0a"},{"town":"前田四条十二丁目","koaza":"","lat":43.125166,"lng":141.247792,"version":"13.0b/18.0a"},{"town":"前田四条十三丁目","koaza":"","lat":43.126405,"lng":141.245832,"version":"13.0b/18.0a"},{"town":"前田四条十四丁目","koaza":"","lat":43.127735,"lng":141.243713,"version":"13.0b/18.0a"},{"town":"前田四条十五丁目","koaza":"","lat":43.129417,"lng":141.242754,"version":"13.0b/18.0a"},{"town":"前田四条四丁目","koaza":"","lat":43.11615,"lng":141.264662,"version":"13.0b/18.0a"},{"town":"前田四条五丁目","koaza":"","lat":43.117512,"lng":141.262245,"version":"13.0b/18.0a"},{"town":"前田四条六丁目","koaza":"","lat":43.118595,"lng":141.260551,"version":"13.0b/18.0a"},{"town":"前田四条七丁目","koaza":"","lat":43.119525,"lng":141.258214,"version":"13.0b/18.0a"},{"town":"前田四条八丁目","koaza":"","lat":43.120482,"lng":141.255732,"version":"13.0b/18.0a"},{"town":"前田四条九丁目","koaza":"","lat":43.122274,"lng":141.254491,"version":"13.0b/18.0a"},{"town":"前田五条十丁目","koaza":"","lat":43.124894,"lng":141.254176,"version":"13.0b/18.0a"},{"town":"前田五条十一丁目","koaza":"","lat":43.125732,"lng":141.25162,"version":"13.0b/18.0a"},{"town":"前田五条十二丁目","koaza":"","lat":43.126804,"lng":141.249598,"version":"13.0b/18.0a"},{"town":"前田五条十三丁目","koaza":"","lat":43.127957,"lng":141.247812,"version":"13.0b/18.0a"},{"town":"前田五条十四丁目","koaza":"","lat":43.129029,"lng":141.245783,"version":"13.0b/18.0a"},{"town":"前田五条十五丁目","koaza":"","lat":43.130746,"lng":141.243568,"version":"13.0b/18.0a"},{"town":"前田五条四丁目","koaza":"","lat":43.117591,"lng":141.265274,"version":"13.0b/18.0a"},{"town":"前田五条五丁目","koaza":"","lat":43.118665,"lng":141.263572,"version":"13.0b/18.0a"},{"town":"前田五条六丁目","koaza":"","lat":43.119757,"lng":141.261873,"version":"13.0b/18.0a"},{"town":"前田五条七丁目","koaza":"","lat":43.121124,"lng":141.259973,"version":"13.0b/18.0a"},{"town":"前田五条八丁目","koaza":"","lat":43.121496,"lng":141.257843,"version":"13.0b/18.0a"},{"town":"前田五条九丁目","koaza":"","lat":43.12301,"lng":141.257326,"version":"13.0b/18.0a"},{"town":"前田六条十丁目","koaza":"","lat":43.125967,"lng":141.255606,"version":"13.0b/18.0a"},{"town":"前田六条十一丁目","koaza":"","lat":43.127313,"lng":141.253661,"version":"13.0b/18.0a"},{"town":"前田六条十二丁目","koaza":"","lat":43.128218,"lng":141.251408,"version":"13.0b/18.0a"},{"town":"前田六条十三丁目","koaza":"","lat":43.129544,"lng":141.249937,"version":"13.0b/18.0a"},{"town":"前田六条十四丁目","koaza":"","lat":43.130777,"lng":141.247732,"version":"13.0b/18.0a"},{"town":"前田六条十五丁目","koaza":"","lat":43.13222,"lng":141.245522,"version":"13.0b/18.0a"},{"town":"前田六条十六丁目","koaza":"","lat":43.134086,"lng":141.242932,"version":"13.0b/18.0a"},{"town":"前田六条五丁目","koaza":"","lat":43.119556,"lng":141.264902,"version":"13.0b/18.0a"},{"town":"前田六条六丁目","koaza":"","lat":43.121065,"lng":141.263192,"version":"13.0b/18.0a"},{"town":"前田六条七丁目","koaza":"","lat":43.122103,"lng":141.261028,"version":"13.0b/18.0a"},{"town":"前田六条八丁目","koaza":"","lat":43.123117,"lng":141.259782,"version":"13.0b/18.0a"},{"town":"前田六条九丁目","koaza":"","lat":43.124439,"lng":141.25781,"version":"13.0b/18.0a"},{"town":"前田七条十丁目","koaza":"","lat":43.126835,"lng":141.257826,"version":"13.0b/18.0a"},{"town":"前田七条十一丁目","koaza":"","lat":43.129018,"lng":141.255316,"version":"13.0b/18.0a"},{"town":"前田七条十二丁目","koaza":"","lat":43.130879,"lng":141.254441,"version":"13.0b/18.0a"},{"town":"前田七条十三丁目","koaza":"","lat":43.131554,"lng":141.251862,"version":"13.0b/18.0a"},{"town":"前田七条十四丁目","koaza":"","lat":43.132499,"lng":141.25088,"version":"13.0b/18.0a"},{"town":"前田七条十五丁目","koaza":"","lat":43.134373,"lng":141.247916,"version":"13.0b/18.0a"},{"town":"前田七条十七丁目","koaza":"","lat":43.137489,"lng":141.243527,"version":"13.0b/18.0a"},{"town":"前田七条十八丁目","koaza":"","lat":43.138768,"lng":141.242452,"version":"13.0b/18.0a"},{"town":"前田七条六丁目","koaza":"","lat":43.12228,"lng":141.264987,"version":"13.0b/18.0a"},{"town":"前田七条七丁目","koaza":"","lat":43.122761,"lng":141.263116,"version":"13.0b/18.0a"},{"town":"前田七条八丁目","koaza":"","lat":43.124306,"lng":141.262012,"version":"13.0b/18.0a"},{"town":"前田七条九丁目","koaza":"","lat":43.125457,"lng":141.260019,"version":"13.0b/18.0a"},{"town":"前田八条十丁目","koaza":"","lat":43.128656,"lng":141.259543,"version":"13.0b/18.0a"},{"town":"前田八条十一丁目","koaza":"","lat":43.130647,"lng":141.258488,"version":"13.0b/18.0a"},{"town":"前田八条十二丁目","koaza":"","lat":43.132086,"lng":141.256264,"version":"13.0b/18.0a"},{"town":"前田八条十三丁目","koaza":"","lat":43.133414,"lng":141.254331,"version":"13.0b/18.0a"},{"town":"前田八条十四丁目","koaza":"","lat":43.133981,"lng":141.252926,"version":"13.0b/18.0a"},{"town":"前田八条十五丁目","koaza":"","lat":43.136084,"lng":141.250271,"version":"13.0b/18.0a"},{"town":"前田八条十七丁目","koaza":"","lat":43.139342,"lng":141.24629,"version":"13.0b/18.0a"},{"town":"前田八条十八丁目","koaza":"","lat":43.140636,"lng":141.244578,"version":"13.0b/18.0a"},{"town":"前田八条十九丁目","koaza":"","lat":43.140968,"lng":141.242324,"version":"13.0b/18.0a"},{"town":"前田八条八丁目","koaza":"","lat":43.125784,"lng":141.264172,"version":"13.0b/18.0a"},{"town":"前田八条九丁目","koaza":"","lat":43.127332,"lng":141.262431,"version":"13.0b/18.0a"},{"town":"前田九条十丁目","koaza":"","lat":43.1304,"lng":141.2616,"version":"13.0b/18.0a"},{"town":"前田九条十一丁目","koaza":"","lat":43.132016,"lng":141.259775,"version":"13.0b/18.0a"},{"town":"前田九条十二丁目","koaza":"","lat":43.133707,"lng":141.257535,"version":"13.0b/18.0a"},{"town":"前田九条十三丁目","koaza":"","lat":43.134703,"lng":141.256075,"version":"13.0b/18.0a"},{"town":"前田九条十四丁目","koaza":"","lat":43.135389,"lng":141.254879,"version":"13.0b/18.0a"},{"town":"前田九条十五丁目","koaza":"","lat":43.137295,"lng":141.252035,"version":"13.0b/18.0a"},{"town":"前田九条十六丁目","koaza":"","lat":43.139179,"lng":141.250181,"version":"13.0b/18.0a"},{"town":"前田九条十七丁目","koaza":"","lat":43.140732,"lng":141.248261,"version":"13.0b/18.0a"},{"town":"前田九条十八丁目","koaza":"","lat":43.142015,"lng":141.246566,"version":"13.0b/18.0a"},{"town":"前田九条十九丁目","koaza":"","lat":43.142848,"lng":141.243643,"version":"13.0b/18.0a"},{"town":"前田九条九丁目","koaza":"","lat":43.128575,"lng":141.264165,"version":"13.0b/18.0a"},{"town":"新発寒二条二丁目","koaza":"","lat":43.107489,"lng":141.270855,"version":"13.0b/18.0a"},{"town":"西宮の沢一条二丁目","koaza":"","lat":43.104368,"lng":141.267803,"version":"13.0b/18.0a"},{"town":"新発寒一条一丁目","koaza":"","lat":43.104766,"lng":141.270973,"version":"13.0b/18.0a"},{"town":"新発寒一条二丁目","koaza":"","lat":43.106062,"lng":141.26924,"version":"13.0b/18.0a"},{"town":"曙十条一丁目","koaza":"","lat":43.145554,"lng":141.239503,"version":"14.0b/19.0a"},{"town":"曙十条二丁目","koaza":"","lat":43.144291,"lng":141.236678,"version":"14.0b/19.0a"},{"town":"曙十一条一丁目","koaza":"","lat":43.147641,"lng":141.239318,"version":"14.0b/19.0a"},{"town":"曙十一条二丁目","koaza":"","lat":43.144458,"lng":141.233451,"version":"14.0b/19.0a"},{"town":"曙十二条一丁目","koaza":"","lat":43.149135,"lng":141.236995,"version":"14.0b/19.0a"},{"town":"曙十二条二丁目","koaza":"","lat":43.146564,"lng":141.232507,"version":"14.0b/19.0a"},{"town":"曙一条一丁目","koaza":"","lat":43.12368,"lng":141.240255,"version":"14.0b/19.0a"},{"town":"曙一条二丁目","koaza":"","lat":43.124733,"lng":141.236626,"version":"14.0b/19.0a"},{"town":"曙一条三丁目","koaza":"","lat":43.12799,"lng":141.225819,"version":"14.0b/19.0a"},{"town":"曙二条一丁目","koaza":"","lat":43.126896,"lng":141.240089,"version":"14.0b/19.0a"},{"town":"曙二条二丁目","koaza":"","lat":43.127391,"lng":141.237893,"version":"14.0b/19.0a"},{"town":"曙二条三丁目","koaza":"","lat":43.126883,"lng":141.233556,"version":"14.0b/19.0a"},{"town":"曙二条四丁目","koaza":"","lat":43.129916,"lng":141.22738,"version":"14.0b/19.0a"},{"town":"曙二条五丁目","koaza":"","lat":43.131666,"lng":141.22198,"version":"14.0b/19.0a"},{"town":"曙三条一丁目","koaza":"","lat":43.12947,"lng":141.24019,"version":"14.0b/19.0a"},{"town":"曙三条二丁目","koaza":"","lat":43.12933,"lng":141.237271,"version":"14.0b/19.0a"},{"town":"曙三条三丁目","koaza":"","lat":43.129433,"lng":141.232986,"version":"14.0b/19.0a"},{"town":"曙四条一丁目","koaza":"","lat":43.131356,"lng":141.240129,"version":"14.0b/19.0a"},{"town":"曙四条二丁目","koaza":"","lat":43.13123,"lng":141.237197,"version":"14.0b/19.0a"},{"town":"曙四条三丁目","koaza":"","lat":43.131011,"lng":141.233191,"version":"14.0b/19.0a"},{"town":"曙五条一丁目","koaza":"","lat":43.133701,"lng":141.240482,"version":"14.0b/19.0a"},{"town":"曙五条二丁目","koaza":"","lat":43.13361,"lng":141.237565,"version":"14.0b/19.0a"},{"town":"曙五条三丁目","koaza":"","lat":43.133577,"lng":141.233501,"version":"14.0b/19.0a"},{"town":"曙五条四丁目","koaza":"","lat":43.134703,"lng":141.229267,"version":"14.0b/19.0a"},{"town":"曙五条五丁目","koaza":"","lat":43.134702,"lng":141.223913,"version":"14.0b/19.0a"},{"town":"曙六条一丁目","koaza":"","lat":43.136164,"lng":141.240105,"version":"14.0b/19.0a"},{"town":"曙六条二丁目","koaza":"","lat":43.136093,"lng":141.237172,"version":"14.0b/19.0a"},{"town":"曙六条三丁目","koaza":"","lat":43.136112,"lng":141.233786,"version":"14.0b/19.0a"},{"town":"曙七条一丁目","koaza":"","lat":43.138445,"lng":141.240016,"version":"14.0b/19.0a"},{"town":"曙七条二丁目","koaza":"","lat":43.139355,"lng":141.236864,"version":"14.0b/19.0a"},{"town":"曙七条三丁目","koaza":"","lat":43.137954,"lng":141.234121,"version":"14.0b/19.0a"},{"town":"曙八条一丁目","koaza":"","lat":43.141119,"lng":141.239908,"version":"14.0b/19.0a"},{"town":"曙八条二丁目","koaza":"","lat":43.140719,"lng":141.23751,"version":"14.0b/19.0a"},{"town":"曙九条一丁目","koaza":"","lat":43.143864,"lng":141.239777,"version":"14.0b/19.0a"},{"town":"曙九条二丁目","koaza":"","lat":43.143242,"lng":141.236854,"version":"14.0b/19.0a"},{"town":"明日風一丁目","koaza":"","lat":43.138592,"lng":141.234402,"version":"14.0b/19.0a"},{"town":"明日風二丁目","koaza":"","lat":43.138906,"lng":141.22841,"version":"14.0b/19.0a"},{"town":"明日風三丁目","koaza":"","lat":43.139258,"lng":141.224689,"version":"14.0b/19.0a"},{"town":"明日風四丁目","koaza":"","lat":43.141815,"lng":141.226427,"version":"14.0b/19.0a"},{"town":"明日風五丁目","koaza":"","lat":43.143091,"lng":141.230067,"version":"14.0b/19.0a"},{"town":"明日風六丁目","koaza":"","lat":43.141724,"lng":141.233151,"version":"14.0b/19.0a"},{"town":"稲穂一条一丁目","koaza":"","lat":43.123692,"lng":141.233461,"version":"14.0b/19.0a"},{"town":"稲穂一条二丁目","koaza":"","lat":43.12454,"lng":141.228746,"version":"14.0b/19.0a"},{"town":"稲穂一条三丁目","koaza":"","lat":43.125473,"lng":141.226282,"version":"14.0b/19.0a"},{"town":"稲穂一条四丁目","koaza":"","lat":43.12672,"lng":141.224058,"version":"14.0b/19.0a"},{"town":"稲穂一条五丁目","koaza":"","lat":43.128065,"lng":141.221792,"version":"14.0b/19.0a"},{"town":"稲穂一条六丁目","koaza":"","lat":43.1296,"lng":141.218134,"version":"14.0b/19.0a"},{"town":"稲穂一条七丁目","koaza":"","lat":43.131368,"lng":141.214461,"version":"14.0b/19.0a"},{"town":"稲穂一条八丁目","koaza":"","lat":43.131563,"lng":141.206623,"version":"14.0b/19.0a"},{"town":"稲穂二条一丁目","koaza":"","lat":43.121847,"lng":141.233806,"version":"14.0b/19.0a"},{"town":"稲穂二条二丁目","koaza":"","lat":43.122845,"lng":141.229453,"version":"14.0b/19.0a"},{"town":"稲穂二条三丁目","koaza":"","lat":43.123492,"lng":141.225806,"version":"14.0b/19.0a"},{"town":"稲穂二条四丁目","koaza":"","lat":43.124839,"lng":141.223333,"version":"14.0b/19.0a"},{"town":"稲穂二条五丁目","koaza":"","lat":43.126336,"lng":141.220726,"version":"14.0b/19.0a"},{"town":"稲穂二条六丁目","koaza":"","lat":43.127656,"lng":141.217616,"version":"14.0b/19.0a"},{"town":"稲穂二条七丁目","koaza":"","lat":43.129624,"lng":141.21349,"version":"14.0b/19.0a"},{"town":"稲穂二条八丁目","koaza":"","lat":43.130715,"lng":141.210375,"version":"14.0b/19.0a"},{"town":"稲穂三条一丁目","koaza":"","lat":43.120658,"lng":141.233094,"version":"14.0b/19.0a"},{"town":"稲穂三条二丁目","koaza":"","lat":43.120933,"lng":141.229814,"version":"14.0b/19.0a"},{"town":"稲穂三条三丁目","koaza":"","lat":43.12195,"lng":141.226791,"version":"14.0b/19.0a"},{"town":"稲穂三条四丁目","koaza":"","lat":43.122848,"lng":141.223323,"version":"14.0b/19.0a"},{"town":"稲穂三条五丁目","koaza":"","lat":43.124422,"lng":141.220399,"version":"14.0b/19.0a"},{"town":"稲穂三条六丁目","koaza":"","lat":43.126258,"lng":141.216345,"version":"14.0b/19.0a"},{"town":"稲穂三条七丁目","koaza":"","lat":43.127972,"lng":141.212752,"version":"14.0b/19.0a"},{"town":"稲穂四条一丁目","koaza":"","lat":43.118868,"lng":141.232191,"version":"14.0b/19.0a"},{"town":"稲穂四条二丁目","koaza":"","lat":43.118849,"lng":141.228623,"version":"14.0b/19.0a"},{"town":"稲穂四条三丁目","koaza":"","lat":43.119864,"lng":141.224901,"version":"14.0b/19.0a"},{"town":"稲穂四条四丁目","koaza":"","lat":43.121269,"lng":141.221792,"version":"14.0b/19.0a"},{"town":"稲穂四条五丁目","koaza":"","lat":43.122787,"lng":141.218257,"version":"14.0b/19.0a"},{"town":"稲穂四条六丁目","koaza":"","lat":43.124636,"lng":141.215119,"version":"14.0b/19.0a"},{"town":"稲穂四条七丁目","koaza":"","lat":43.125891,"lng":141.211392,"version":"14.0b/19.0a"},{"town":"稲穂五条二丁目","koaza":"","lat":43.117301,"lng":141.226951,"version":"14.0b/19.0a"},{"town":"稲穂五条三丁目","koaza":"","lat":43.117795,"lng":141.223351,"version":"14.0b/19.0a"},{"town":"稲穂五条四丁目","koaza":"","lat":43.119582,"lng":141.220588,"version":"14.0b/19.0a"},{"town":"稲穂五条五丁目","koaza":"","lat":43.120982,"lng":141.21781,"version":"14.0b/19.0a"},{"town":"稲穂五条六丁目","koaza":"","lat":43.122781,"lng":141.21364,"version":"14.0b/19.0a"},{"town":"稲穂五条七丁目","koaza":"","lat":43.123878,"lng":141.211083,"version":"14.0b/19.0a"},{"town":"金山一条一丁目","koaza":"","lat":43.128412,"lng":141.209584,"version":"14.0b/19.0a"},{"town":"金山一条二丁目","koaza":"","lat":43.129222,"lng":141.206439,"version":"14.0b/19.0a"},{"town":"金山一条三丁目","koaza":"","lat":43.129756,"lng":141.202973,"version":"14.0b/19.0a"},{"town":"金山一条四丁目","koaza":"","lat":43.129759,"lng":141.199914,"version":"14.0b/19.0a"},{"town":"金山二条一丁目","koaza":"","lat":43.125972,"lng":141.208223,"version":"14.0b/19.0a"},{"town":"金山二条二丁目","koaza":"","lat":43.126488,"lng":141.205468,"version":"14.0b/19.0a"},{"town":"金山二条三丁目","koaza":"","lat":43.126907,"lng":141.202676,"version":"14.0b/19.0a"},{"town":"金山二条四丁目","koaza":"","lat":43.127306,"lng":141.200209,"version":"14.0b/19.0a"},{"town":"金山三条一丁目","koaza":"","lat":43.124215,"lng":141.208079,"version":"14.0b/19.0a"},{"town":"金山三条二丁目","koaza":"","lat":43.124043,"lng":141.204347,"version":"14.0b/19.0a"},{"town":"金山三条三丁目","koaza":"","lat":43.124106,"lng":141.202105,"version":"14.0b/19.0a"},{"town":"新発寒一条三丁目","koaza":"","lat":43.107551,"lng":141.267756,"version":"14.0b/19.0a"},{"town":"新発寒二条一丁目","koaza":"","lat":43.106136,"lng":141.272813,"version":"14.0b/19.0a"},{"town":"新発寒二条三丁目","koaza":"","lat":43.108718,"lng":141.268952,"version":"14.0b/19.0a"},{"town":"新発寒二条四丁目","koaza":"","lat":43.109777,"lng":141.267149,"version":"14.0b/19.0a"},{"town":"新発寒二条五丁目","koaza":"","lat":43.110744,"lng":141.266784,"version":"14.0b/19.0a"},{"town":"新発寒三条一丁目","koaza":"","lat":43.10767,"lng":141.274176,"version":"14.0b/19.0a"},{"town":"新発寒三条二丁目","koaza":"","lat":43.108844,"lng":141.272374,"version":"14.0b/19.0a"},{"town":"新発寒三条三丁目","koaza":"","lat":43.110038,"lng":141.270477,"version":"14.0b/19.0a"},{"town":"新発寒三条四丁目","koaza":"","lat":43.111134,"lng":141.268756,"version":"14.0b/19.0a"},{"town":"新発寒三条五丁目","koaza":"","lat":43.112229,"lng":141.267115,"version":"14.0b/19.0a"},{"town":"新発寒四条一丁目","koaza":"","lat":43.109389,"lng":141.276086,"version":"14.0b/19.0a"},{"town":"新発寒四条二丁目","koaza":"","lat":43.110445,"lng":141.274223,"version":"14.0b/19.0a"},{"town":"新発寒四条三丁目","koaza":"","lat":43.111779,"lng":141.272468,"version":"14.0b/19.0a"},{"town":"新発寒四条四丁目","koaza":"","lat":43.11285,"lng":141.270704,"version":"14.0b/19.0a"},{"town":"新発寒四条五丁目","koaza":"","lat":43.1141,"lng":141.269226,"version":"14.0b/19.0a"},{"town":"新発寒四条六丁目","koaza":"","lat":43.115539,"lng":141.267555,"version":"14.0b/19.0a"},{"town":"新発寒五条一丁目","koaza":"","lat":43.111563,"lng":141.278542,"version":"14.0b/19.0a"},{"town":"新発寒五条二丁目","koaza":"","lat":43.112772,"lng":141.27688,"version":"14.0b/19.0a"},{"town":"新発寒五条三丁目","koaza":"","lat":43.113905,"lng":141.27536,"version":"14.0b/19.0a"},{"town":"新発寒五条四丁目","koaza":"","lat":43.115069,"lng":141.273855,"version":"14.0b/19.0a"},{"town":"新発寒五条五丁目","koaza":"","lat":43.116257,"lng":141.272154,"version":"14.0b/19.0a"},{"town":"新発寒五条六丁目","koaza":"","lat":43.117211,"lng":141.270114,"version":"14.0b/19.0a"},{"town":"新発寒五条七丁目","koaza":"","lat":43.118734,"lng":141.269099,"version":"14.0b/19.0a"},{"town":"新発寒五条八丁目","koaza":"","lat":43.119408,"lng":141.267502,"version":"14.0b/19.0a"},{"town":"新発寒五条九丁目","koaza":"","lat":43.121401,"lng":141.266699,"version":"14.0b/19.0a"},{"town":"新発寒六条十丁目","koaza":"","lat":43.12517,"lng":141.267328,"version":"14.0b/19.0a"},{"town":"新発寒六条一丁目","koaza":"","lat":43.114217,"lng":141.281461,"version":"14.0b/19.0a"},{"town":"新発寒六条二丁目","koaza":"","lat":43.115402,"lng":141.279854,"version":"14.0b/19.0a"},{"town":"新発寒六条三丁目","koaza":"","lat":43.116324,"lng":141.278516,"version":"14.0b/19.0a"},{"town":"新発寒六条四丁目","koaza":"","lat":43.117413,"lng":141.277201,"version":"14.0b/19.0a"},{"town":"新発寒六条五丁目","koaza":"","lat":43.118918,"lng":141.276029,"version":"14.0b/19.0a"},{"town":"新発寒六条六丁目","koaza":"","lat":43.119818,"lng":141.273629,"version":"14.0b/19.0a"},{"town":"新発寒六条七丁目","koaza":"","lat":43.120616,"lng":141.272068,"version":"14.0b/19.0a"},{"town":"新発寒六条八丁目","koaza":"","lat":43.121943,"lng":141.270899,"version":"14.0b/19.0a"},{"town":"新発寒六条九丁目","koaza":"","lat":43.123283,"lng":141.269238,"version":"14.0b/19.0a"},{"town":"新発寒七条十丁目","koaza":"","lat":43.126723,"lng":141.270043,"version":"14.0b/19.0a"},{"town":"新発寒七条十一丁目","koaza":"","lat":43.128899,"lng":141.267678,"version":"14.0b/19.0a"},{"town":"新発寒七条一丁目","koaza":"","lat":43.116451,"lng":141.283989,"version":"14.0b/19.0a"},{"town":"新発寒七条二丁目","koaza":"","lat":43.11724,"lng":141.282342,"version":"14.0b/19.0a"},{"town":"新発寒七条三丁目","koaza":"","lat":43.11859,"lng":141.281344,"version":"14.0b/19.0a"},{"town":"新発寒七条四丁目","koaza":"","lat":43.11948,"lng":141.279797,"version":"14.0b/19.0a"},{"town":"新発寒七条五丁目","koaza":"","lat":43.120696,"lng":141.278654,"version":"14.0b/19.0a"},{"town":"新発寒七条六丁目","koaza":"","lat":43.121519,"lng":141.276566,"version":"14.0b/19.0a"},{"town":"新発寒七条七丁目","koaza":"","lat":43.122756,"lng":141.275188,"version":"14.0b/19.0a"},{"town":"新発寒七条八丁目","koaza":"","lat":43.123715,"lng":141.273507,"version":"14.0b/19.0a"},{"town":"新発寒七条九丁目","koaza":"","lat":43.125266,"lng":141.271981,"version":"14.0b/19.0a"},{"town":"手稲稲穂","koaza":"","lat":43.122867,"lng":141.21073,"version":"14.0b/19.0a"},{"town":"手稲金山","koaza":"","lat":43.099857,"lng":141.187182,"version":"14.0b/19.0a"},{"town":"手稲富丘","koaza":"","lat":43.094698,"lng":141.248587,"version":"14.0b/19.0a"},{"town":"手稲星置","koaza":"","lat":43.136885,"lng":141.189973,"version":"14.0b/19.0a"},{"town":"手稲本町","koaza":"","lat":43.104316,"lng":141.217527,"version":"14.0b/19.0a"},{"town":"手稲本町一条一丁目","koaza":"","lat":43.11691,"lng":141.246351,"version":"14.0b/19.0a"},{"town":"手稲本町一条二丁目","koaza":"","lat":43.117727,"lng":141.245182,"version":"14.0b/19.0a"},{"town":"手稲本町一条三丁目","koaza":"","lat":43.119025,"lng":141.244328,"version":"14.0b/19.0a"},{"town":"手稲本町一条四丁目","koaza":"","lat":43.120458,"lng":141.242782,"version":"14.0b/19.0a"},{"town":"手稲本町二条一丁目","koaza":"","lat":43.11579,"lng":141.244867,"version":"14.0b/19.0a"},{"town":"手稲本町二条二丁目","koaza":"","lat":43.116946,"lng":141.243066,"version":"14.0b/19.0a"},{"town":"手稲本町二条三丁目","koaza":"","lat":43.118262,"lng":141.241676,"version":"14.0b/19.0a"},{"town":"手稲本町二条四丁目","koaza":"","lat":43.120108,"lng":141.240734,"version":"14.0b/19.0a"},{"town":"手稲本町二条五丁目","koaza":"","lat":43.121715,"lng":141.23855,"version":"14.0b/19.0a"},{"town":"手稲本町三条一丁目","koaza":"","lat":43.114611,"lng":141.242961,"version":"14.0b/19.0a"},{"town":"手稲本町三条二丁目","koaza":"","lat":43.115636,"lng":141.241469,"version":"14.0b/19.0a"},{"town":"手稲本町三条三丁目","koaza":"","lat":43.117472,"lng":141.239847,"version":"14.0b/19.0a"},{"town":"手稲本町三条四丁目","koaza":"","lat":43.11981,"lng":141.236234,"version":"14.0b/19.0a"},{"town":"手稲本町四条一丁目","koaza":"","lat":43.113411,"lng":141.241348,"version":"14.0b/19.0a"},{"town":"手稲本町四条二丁目","koaza":"","lat":43.114923,"lng":141.239456,"version":"14.0b/19.0a"},{"town":"手稲本町四条三丁目","koaza":"","lat":43.116729,"lng":141.238266,"version":"14.0b/19.0a"},{"town":"手稲本町四条四丁目","koaza":"","lat":43.118505,"lng":141.235263,"version":"14.0b/19.0a"},{"town":"手稲本町五条一丁目","koaza":"","lat":43.112245,"lng":141.239799,"version":"14.0b/19.0a"},{"town":"手稲本町五条二丁目","koaza":"","lat":43.114153,"lng":141.23782,"version":"14.0b/19.0a"},{"town":"手稲本町五条三丁目","koaza":"","lat":43.116146,"lng":141.235935,"version":"14.0b/19.0a"},{"town":"手稲本町五条四丁目","koaza":"","lat":43.117133,"lng":141.233476,"version":"14.0b/19.0a"},{"town":"手稲本町六条三丁目","koaza":"","lat":43.114352,"lng":141.234224,"version":"14.0b/19.0a"},{"town":"手稲本町六条四丁目","koaza":"","lat":43.116368,"lng":141.230151,"version":"14.0b/19.0a"},{"town":"手稲前田","koaza":"","lat":43.144536,"lng":141.25769,"version":"14.0b/19.0a"},{"town":"手稲山口","koaza":"","lat":43.1493,"lng":141.219501,"version":"14.0b/19.0a"},{"town":"富丘一条三丁目","koaza":"","lat":43.109019,"lng":141.25737,"version":"14.0b/19.0a"},{"town":"富丘一条四丁目","koaza":"","lat":43.110492,"lng":141.255843,"version":"14.0b/19.0a"},{"town":"富丘一条五丁目","koaza":"","lat":43.111199,"lng":141.252677,"version":"14.0b/19.0a"},{"town":"富丘一条六丁目","koaza":"","lat":43.113856,"lng":141.251353,"version":"14.0b/19.0a"},{"town":"富丘一条七丁目","koaza":"","lat":43.115802,"lng":141.248757,"version":"14.0b/19.0a"},{"town":"富丘二条二丁目","koaza":"","lat":43.1011,"lng":141.253753,"version":"14.0b/19.0a"},{"town":"富丘二条三丁目","koaza":"","lat":43.105571,"lng":141.254123,"version":"14.0b/19.0a"},{"town":"富丘二条四丁目","koaza":"","lat":43.107295,"lng":141.252381,"version":"14.0b/19.0a"},{"town":"富丘二条五丁目","koaza":"","lat":43.11068,"lng":141.249883,"version":"14.0b/19.0a"},{"town":"富丘二条六丁目","koaza":"","lat":43.113145,"lng":141.248271,"version":"14.0b/19.0a"},{"town":"富丘二条七丁目","koaza":"","lat":43.11492,"lng":141.246435,"version":"14.0b/19.0a"},{"town":"富丘三条一丁目","koaza":"","lat":43.097685,"lng":141.253907,"version":"14.0b/19.0a"},{"town":"富丘三条二丁目","koaza":"","lat":43.100953,"lng":141.252025,"version":"14.0b/19.0a"},{"town":"富丘三条三丁目","koaza":"","lat":43.103766,"lng":141.250862,"version":"14.0b/19.0a"},{"town":"富丘三条四丁目","koaza":"","lat":43.10596,"lng":141.24943,"version":"14.0b/19.0a"},{"town":"富丘三条五丁目","koaza":"","lat":43.109196,"lng":141.248009,"version":"14.0b/19.0a"},{"town":"富丘三条六丁目","koaza":"","lat":43.111352,"lng":141.246782,"version":"14.0b/19.0a"},{"town":"富丘三条七丁目","koaza":"","lat":43.113308,"lng":141.244813,"version":"14.0b/19.0a"},{"town":"富丘四条一丁目","koaza":"","lat":43.097264,"lng":141.251907,"version":"14.0b/19.0a"},{"town":"富丘四条二丁目","koaza":"","lat":43.100587,"lng":141.250476,"version":"14.0b/19.0a"},{"town":"富丘四条三丁目","koaza":"","lat":43.103146,"lng":141.249312,"version":"14.0b/19.0a"},{"town":"富丘四条四丁目","koaza":"","lat":43.10533,"lng":141.247073,"version":"14.0b/19.0a"},{"town":"富丘四条五丁目","koaza":"","lat":43.108619,"lng":141.245304,"version":"14.0b/19.0a"},{"town":"富丘四条六丁目","koaza":"","lat":43.110756,"lng":141.244016,"version":"14.0b/19.0a"},{"town":"富丘四条七丁目","koaza":"","lat":43.112364,"lng":141.242857,"version":"14.0b/19.0a"},{"town":"富丘五条二丁目","koaza":"","lat":43.100093,"lng":141.248945,"version":"14.0b/19.0a"},{"town":"富丘五条三丁目","koaza":"","lat":43.102125,"lng":141.248143,"version":"14.0b/19.0a"},{"town":"富丘五条四丁目","koaza":"","lat":43.104328,"lng":141.245411,"version":"14.0b/19.0a"},{"town":"富丘五条五丁目","koaza":"","lat":43.108097,"lng":141.242867,"version":"14.0b/19.0a"},{"town":"富丘五条六丁目","koaza":"","lat":43.109961,"lng":141.242206,"version":"14.0b/19.0a"},{"town":"富丘五条七丁目","koaza":"","lat":43.110949,"lng":141.240987,"version":"14.0b/19.0a"},{"town":"富丘六条二丁目","koaza":"","lat":43.099847,"lng":141.247415,"version":"14.0b/19.0a"},{"town":"富丘六条三丁目","koaza":"","lat":43.102101,"lng":141.24486,"version":"14.0b/19.0a"},{"town":"富丘六条四丁目","koaza":"","lat":43.105152,"lng":141.241507,"version":"14.0b/19.0a"},{"town":"富丘六条七丁目","koaza":"","lat":43.109381,"lng":141.238648,"version":"14.0b/19.0a"},{"town":"西宮の沢","koaza":"","lat":43.087886,"lng":141.250723,"version":"14.0b/19.0a"},{"town":"西宮の沢一条一丁目","koaza":"","lat":43.103216,"lng":141.269707,"version":"14.0b/19.0a"},{"town":"西宮の沢一条三丁目","koaza":"","lat":43.105829,"lng":141.265388,"version":"14.0b/19.0a"},{"town":"西宮の沢一条四丁目","koaza":"","lat":43.107429,"lng":141.261946,"version":"14.0b/19.0a"},{"town":"西宮の沢一条五丁目","koaza":"","lat":43.108787,"lng":141.259532,"version":"14.0b/19.0a"},{"town":"西宮の沢二条一丁目","koaza":"","lat":43.101169,"lng":141.267529,"version":"14.0b/19.0a"},{"town":"西宮の沢二条二丁目","koaza":"","lat":43.10246,"lng":141.265754,"version":"14.0b/19.0a"},{"town":"西宮の沢二条三丁目","koaza":"","lat":43.104065,"lng":141.263301,"version":"14.0b/19.0a"},{"town":"西宮の沢二条四丁目","koaza":"","lat":43.104817,"lng":141.259847,"version":"14.0b/19.0a"},{"town":"西宮の沢二条五丁目","koaza":"","lat":43.107034,"lng":141.257721,"version":"14.0b/19.0a"},{"town":"西宮の沢三条一丁目","koaza":"","lat":43.099339,"lng":141.264926,"version":"14.0b/19.0a"},{"town":"西宮の沢三条二丁目","koaza":"","lat":43.100287,"lng":141.262694,"version":"14.0b/19.0a"},{"town":"西宮の沢三条三丁目","koaza":"","lat":43.101732,"lng":141.261138,"version":"14.0b/19.0a"},{"town":"西宮の沢四条一丁目","koaza":"","lat":43.096713,"lng":141.262343,"version":"14.0b/19.0a"},{"town":"西宮の沢四条二丁目","koaza":"","lat":43.097939,"lng":141.260163,"version":"14.0b/19.0a"},{"town":"西宮の沢四条三丁目","koaza":"","lat":43.099774,"lng":141.258231,"version":"14.0b/19.0a"},{"town":"西宮の沢四条四丁目","koaza":"","lat":43.10213,"lng":141.257066,"version":"14.0b/19.0a"},{"town":"西宮の沢四条五丁目","koaza":"","lat":43.105484,"lng":141.256793,"version":"14.0b/19.0a"},{"town":"西宮の沢五条一丁目","koaza":"","lat":43.093609,"lng":141.260224,"version":"14.0b/19.0a"},{"town":"西宮の沢五条二丁目","koaza":"","lat":43.096073,"lng":141.257587,"version":"14.0b/19.0a"},{"town":"西宮の沢六条一丁目","koaza":"","lat":43.090329,"lng":141.256515,"version":"14.0b/19.0a"},{"town":"西宮の沢六条二丁目","koaza":"","lat":43.092639,"lng":141.256423,"version":"14.0b/19.0a"},{"town":"星置一条一丁目","koaza":"","lat":43.133469,"lng":141.216499,"version":"14.0b/19.0a"},{"town":"星置一条二丁目","koaza":"","lat":43.1338,"lng":141.212926,"version":"14.0b/19.0a"},{"town":"星置一条三丁目","koaza":"","lat":43.13361,"lng":141.210915,"version":"14.0b/19.0a"},{"town":"星置一条四丁目","koaza":"","lat":43.133549,"lng":141.208421,"version":"14.0b/19.0a"},{"town":"星置一条五丁目","koaza":"","lat":43.133515,"lng":141.205502,"version":"14.0b/19.0a"},{"town":"星置一条六丁目","koaza":"","lat":43.133833,"lng":141.202204,"version":"14.0b/19.0a"},{"town":"星置一条七丁目","koaza":"","lat":43.134194,"lng":141.198726,"version":"14.0b/19.0a"},{"town":"星置一条八丁目","koaza":"","lat":43.134336,"lng":141.195309,"version":"14.0b/19.0a"},{"town":"星置一条九丁目","koaza":"","lat":43.134352,"lng":141.192271,"version":"14.0b/19.0a"},{"town":"星置二条一丁目","koaza":"","lat":43.135783,"lng":141.218072,"version":"14.0b/19.0a"},{"town":"星置二条二丁目","koaza":"","lat":43.136718,"lng":141.213651,"version":"14.0b/19.0a"},{"town":"星置二条三丁目","koaza":"","lat":43.136844,"lng":141.210612,"version":"14.0b/19.0a"},{"town":"星置二条四丁目","koaza":"","lat":43.136549,"lng":141.208236,"version":"14.0b/19.0a"},{"town":"星置二条五丁目","koaza":"","lat":43.136509,"lng":141.205326,"version":"14.0b/19.0a"},{"town":"星置二条六丁目","koaza":"","lat":43.136449,"lng":141.201632,"version":"14.0b/19.0a"},{"town":"星置二条七丁目","koaza":"","lat":43.13623,"lng":141.198958,"version":"14.0b/19.0a"},{"town":"星置二条八丁目","koaza":"","lat":43.136815,"lng":141.195316,"version":"14.0b/19.0a"},{"town":"星置二条九丁目","koaza":"","lat":43.136813,"lng":141.192712,"version":"14.0b/19.0a"},{"town":"星置三条一丁目","koaza":"","lat":43.13887,"lng":141.220336,"version":"14.0b/19.0a"},{"town":"星置三条四丁目","koaza":"","lat":43.138865,"lng":141.208252,"version":"14.0b/19.0a"},{"town":"星置三条五丁目","koaza":"","lat":43.139555,"lng":141.205705,"version":"14.0b/19.0a"},{"town":"星置三条六丁目","koaza":"","lat":43.139144,"lng":141.201425,"version":"14.0b/19.0a"},{"town":"星置三条七丁目","koaza":"","lat":43.138673,"lng":141.197945,"version":"14.0b/19.0a"},{"town":"星置三条八丁目","koaza":"","lat":43.138945,"lng":141.195217,"version":"14.0b/19.0a"},{"town":"星置三条九丁目","koaza":"","lat":43.139033,"lng":141.191685,"version":"14.0b/19.0a"},{"town":"星置南一丁目","koaza":"","lat":43.130396,"lng":141.198002,"version":"14.0b/19.0a"},{"town":"星置南二丁目","koaza":"","lat":43.128393,"lng":141.198179,"version":"14.0b/19.0a"},{"town":"星置南三丁目","koaza":"","lat":43.132217,"lng":141.196494,"version":"14.0b/19.0a"},{"town":"星置南四丁目","koaza":"","lat":43.132729,"lng":141.192581,"version":"14.0b/19.0a"},{"town":"前田十条十丁目","koaza":"","lat":43.131712,"lng":141.263543,"version":"14.0b/19.0a"},{"town":"前田十条十一丁目","koaza":"","lat":43.133585,"lng":141.261458,"version":"14.0b/19.0a"},{"town":"前田十条十二丁目","koaza":"","lat":43.135161,"lng":141.259249,"version":"14.0b/19.0a"},{"town":"前田十条十三丁目","koaza":"","lat":43.135989,"lng":141.257796,"version":"14.0b/19.0a"},{"town":"前田十条十四丁目","koaza":"","lat":43.136794,"lng":141.256836,"version":"14.0b/19.0a"},{"town":"前田十条十五丁目","koaza":"","lat":43.138468,"lng":141.254125,"version":"14.0b/19.0a"},{"town":"前田十条十六丁目","koaza":"","lat":43.140006,"lng":141.251833,"version":"14.0b/19.0a"},{"town":"前田十条十七丁目","koaza":"","lat":43.141764,"lng":141.249815,"version":"14.0b/19.0a"},{"town":"前田十条十八丁目","koaza":"","lat":43.143233,"lng":141.247807,"version":"14.0b/19.0a"},{"town":"前田十条十九丁目","koaza":"","lat":43.144476,"lng":141.244407,"version":"14.0b/19.0a"},{"town":"前田十条二十丁目","koaza":"","lat":43.147038,"lng":141.242683,"version":"14.0b/19.0a"},{"town":"前田十条九丁目","koaza":"","lat":43.129451,"lng":141.26525,"version":"14.0b/19.0a"},{"town":"前田十一条十丁目","koaza":"","lat":43.133214,"lng":141.26558,"version":"14.0b/19.0a"},{"town":"前田十二条十丁目","koaza":"","lat":43.134091,"lng":141.268134,"version":"14.0b/19.0a"},{"town":"前田十三条十丁目","koaza":"","lat":43.135307,"lng":141.269202,"version":"14.0b/19.0a"},{"town":"前田一条十丁目","koaza":"","lat":43.11914,"lng":141.24765,"version":"14.0b/19.0a"},{"town":"前田一条十一丁目","koaza":"","lat":43.120946,"lng":141.244945,"version":"14.0b/19.0a"},{"town":"前田一条十二丁目","koaza":"","lat":43.122545,"lng":141.243475,"version":"14.0b/19.0a"},{"town":"前田一条一丁目","koaza":"","lat":43.107935,"lng":141.265268,"version":"14.0b/19.0a"},{"town":"前田一条二丁目","koaza":"","lat":43.109188,"lng":141.26414,"version":"14.0b/19.0a"},{"town":"前田一条三丁目","koaza":"","lat":43.110111,"lng":141.262177,"version":"14.0b/19.0a"},{"town":"前田一条四丁目","koaza":"","lat":43.111962,"lng":141.259549,"version":"14.0b/19.0a"},{"town":"前田一条五丁目","koaza":"","lat":43.115228,"lng":141.258114,"version":"14.0b/19.0a"},{"town":"前田一条六丁目","koaza":"","lat":43.113894,"lng":141.254989,"version":"14.0b/19.0a"},{"town":"前田一条七丁目","koaza":"","lat":43.115339,"lng":141.253738,"version":"14.0b/19.0a"},{"town":"前田一条八丁目","koaza":"","lat":43.116431,"lng":141.251842,"version":"14.0b/19.0a"},{"town":"前田一条九丁目","koaza":"","lat":43.117763,"lng":141.249774,"version":"14.0b/19.0a"},{"town":"前田二条十丁目","koaza":"","lat":43.120677,"lng":141.249485,"version":"14.0b/19.0a"},{"town":"前田二条十一丁目","koaza":"","lat":43.122741,"lng":141.247641,"version":"14.0b/19.0a"},{"town":"前田二条十二丁目","koaza":"","lat":43.124239,"lng":141.245321,"version":"14.0b/19.0a"},{"town":"前田二条十三丁目","koaza":"","lat":43.12577,"lng":141.243219,"version":"14.0b/19.0a"},{"town":"前田二条一丁目","koaza":"","lat":43.109517,"lng":141.266112,"version":"14.0b/19.0a"},{"town":"前田二条二丁目","koaza":"","lat":43.110529,"lng":141.26561,"version":"14.0b/19.0a"},{"town":"前田二条三丁目","koaza":"","lat":43.111807,"lng":141.263606,"version":"14.0b/19.0a"},{"town":"前田二条四丁目","koaza":"","lat":43.11356,"lng":141.261766,"version":"14.0b/19.0a"},{"town":"前田二条七丁目","koaza":"","lat":43.116813,"lng":141.255299,"version":"14.0b/19.0a"},{"town":"前田二条八丁目","koaza":"","lat":43.117963,"lng":141.253579,"version":"14.0b/19.0a"},{"town":"前田二条九丁目","koaza":"","lat":43.119003,"lng":141.251589,"version":"14.0b/19.0a"},{"town":"前田三条十丁目","koaza":"","lat":43.121505,"lng":141.25168,"version":"14.0b/19.0a"},{"town":"前田三条三丁目","koaza":"","lat":43.113595,"lng":141.264868,"version":"14.0b/19.0a"},{"town":"前田三条四丁目","koaza":"","lat":43.115062,"lng":141.26303,"version":"14.0b/19.0a"},{"town":"前田三条七丁目","koaza":"","lat":43.118142,"lng":141.256791,"version":"14.0b/19.0a"},{"town":"前田三条八丁目","koaza":"","lat":43.119096,"lng":141.25458,"version":"14.0b/19.0a"},{"town":"前田三条九丁目","koaza":"","lat":43.120058,"lng":141.253122,"version":"14.0b/19.0a"},{"town":"前田四条十丁目","koaza":"","lat":43.123527,"lng":141.252017,"version":"14.0b/19.0a"},{"town":"前田四条十一丁目","koaza":"","lat":43.124123,"lng":141.249686,"version":"14.0b/19.0a"},{"town":"前田四条十二丁目","koaza":"","lat":43.125166,"lng":141.247792,"version":"14.0b/19.0a"},{"town":"前田四条十三丁目","koaza":"","lat":43.126405,"lng":141.245832,"version":"14.0b/19.0a"},{"town":"前田四条十四丁目","koaza":"","lat":43.127735,"lng":141.243713,"version":"14.0b/19.0a"},{"town":"前田四条十五丁目","koaza":"","lat":43.129417,"lng":141.242754,"version":"14.0b/19.0a"},{"town":"前田四条四丁目","koaza":"","lat":43.11615,"lng":141.264662,"version":"14.0b/19.0a"},{"town":"前田四条五丁目","koaza":"","lat":43.117512,"lng":141.262245,"version":"14.0b/19.0a"},{"town":"前田四条六丁目","koaza":"","lat":43.118595,"lng":141.260551,"version":"14.0b/19.0a"},{"town":"前田四条七丁目","koaza":"","lat":43.119525,"lng":141.258214,"version":"14.0b/19.0a"},{"town":"前田四条八丁目","koaza":"","lat":43.120482,"lng":141.255732,"version":"14.0b/19.0a"},{"town":"前田四条九丁目","koaza":"","lat":43.122274,"lng":141.254491,"version":"14.0b/19.0a"},{"town":"前田五条十丁目","koaza":"","lat":43.124894,"lng":141.254176,"version":"14.0b/19.0a"},{"town":"前田五条十一丁目","koaza":"","lat":43.125732,"lng":141.25162,"version":"14.0b/19.0a"},{"town":"前田五条十二丁目","koaza":"","lat":43.126804,"lng":141.249598,"version":"14.0b/19.0a"},{"town":"前田五条十三丁目","koaza":"","lat":43.127957,"lng":141.247812,"version":"14.0b/19.0a"},{"town":"前田五条十四丁目","koaza":"","lat":43.129029,"lng":141.245783,"version":"14.0b/19.0a"},{"town":"前田五条十五丁目","koaza":"","lat":43.130746,"lng":141.243568,"version":"14.0b/19.0a"},{"town":"前田五条四丁目","koaza":"","lat":43.117591,"lng":141.265274,"version":"14.0b/19.0a"},{"town":"前田五条五丁目","koaza":"","lat":43.118665,"lng":141.263572,"version":"14.0b/19.0a"},{"town":"前田五条六丁目","koaza":"","lat":43.119757,"lng":141.261873,"version":"14.0b/19.0a"},{"town":"前田五条七丁目","koaza":"","lat":43.121124,"lng":141.259973,"version":"14.0b/19.0a"},{"town":"前田五条八丁目","koaza":"","lat":43.121496,"lng":141.257843,"version":"14.0b/19.0a"},{"town":"前田五条九丁目","koaza":"","lat":43.12301,"lng":141.257326,"version":"14.0b/19.0a"},{"town":"前田六条十丁目","koaza":"","lat":43.125967,"lng":141.255606,"version":"14.0b/19.0a"},{"town":"前田六条十一丁目","koaza":"","lat":43.127313,"lng":141.253661,"version":"14.0b/19.0a"},{"town":"前田六条十二丁目","koaza":"","lat":43.128218,"lng":141.251408,"version":"14.0b/19.0a"},{"town":"前田六条十三丁目","koaza":"","lat":43.129544,"lng":141.249937,"version":"14.0b/19.0a"},{"town":"前田六条十四丁目","koaza":"","lat":43.130777,"lng":141.247732,"version":"14.0b/19.0a"},{"town":"前田六条十五丁目","koaza":"","lat":43.13222,"lng":141.245522,"version":"14.0b/19.0a"},{"town":"前田六条十六丁目","koaza":"","lat":43.134086,"lng":141.242932,"version":"14.0b/19.0a"},{"town":"前田六条五丁目","koaza":"","lat":43.119556,"lng":141.264902,"version":"14.0b/19.0a"},{"town":"前田六条六丁目","koaza":"","lat":43.121065,"lng":141.263192,"version":"14.0b/19.0a"},{"town":"前田六条七丁目","koaza":"","lat":43.122103,"lng":141.261028,"version":"14.0b/19.0a"},{"town":"前田六条八丁目","koaza":"","lat":43.123117,"lng":141.259782,"version":"14.0b/19.0a"},{"town":"前田六条九丁目","koaza":"","lat":43.124439,"lng":141.25781,"version":"14.0b/19.0a"},{"town":"前田七条十丁目","koaza":"","lat":43.126835,"lng":141.257826,"version":"14.0b/19.0a"},{"town":"前田七条十一丁目","koaza":"","lat":43.129018,"lng":141.255316,"version":"14.0b/19.0a"},{"town":"前田七条十二丁目","koaza":"","lat":43.130879,"lng":141.254441,"version":"14.0b/19.0a"},{"town":"前田七条十三丁目","koaza":"","lat":43.131554,"lng":141.251862,"version":"14.0b/19.0a"},{"town":"前田七条十四丁目","koaza":"","lat":43.132499,"lng":141.25088,"version":"14.0b/19.0a"},{"town":"前田七条十五丁目","koaza":"","lat":43.134373,"lng":141.247916,"version":"14.0b/19.0a"},{"town":"前田七条十七丁目","koaza":"","lat":43.137489,"lng":141.243527,"version":"14.0b/19.0a"},{"town":"前田七条十八丁目","koaza":"","lat":43.138768,"lng":141.242452,"version":"14.0b/19.0a"},{"town":"前田七条六丁目","koaza":"","lat":43.12228,"lng":141.264987,"version":"14.0b/19.0a"},{"town":"前田七条七丁目","koaza":"","lat":43.122761,"lng":141.263116,"version":"14.0b/19.0a"},{"town":"前田七条八丁目","koaza":"","lat":43.124306,"lng":141.262012,"version":"14.0b/19.0a"},{"town":"前田七条九丁目","koaza":"","lat":43.125457,"lng":141.260019,"version":"14.0b/19.0a"},{"town":"前田八条十丁目","koaza":"","lat":43.128656,"lng":141.259543,"version":"14.0b/19.0a"},{"town":"前田八条十一丁目","koaza":"","lat":43.130647,"lng":141.258488,"version":"14.0b/19.0a"},{"town":"前田八条十二丁目","koaza":"","lat":43.132086,"lng":141.256264,"version":"14.0b/19.0a"},{"town":"前田八条十三丁目","koaza":"","lat":43.133414,"lng":141.254331,"version":"14.0b/19.0a"},{"town":"前田八条十四丁目","koaza":"","lat":43.133981,"lng":141.252926,"version":"14.0b/19.0a"},{"town":"前田八条十五丁目","koaza":"","lat":43.136084,"lng":141.250271,"version":"14.0b/19.0a"},{"town":"前田八条十七丁目","koaza":"","lat":43.139342,"lng":141.24629,"version":"14.0b/19.0a"},{"town":"前田八条十八丁目","koaza":"","lat":43.140636,"lng":141.244578,"version":"14.0b/19.0a"},{"town":"前田八条十九丁目","koaza":"","lat":43.140968,"lng":141.242324,"version":"14.0b/19.0a"},{"town":"前田八条八丁目","koaza":"","lat":43.125784,"lng":141.264172,"version":"14.0b/19.0a"},{"town":"前田八条九丁目","koaza":"","lat":43.127332,"lng":141.262431,"version":"14.0b/19.0a"},{"town":"前田九条十丁目","koaza":"","lat":43.1304,"lng":141.2616,"version":"14.0b/19.0a"},{"town":"前田九条十一丁目","koaza":"","lat":43.132016,"lng":141.259775,"version":"14.0b/19.0a"},{"town":"前田九条十二丁目","koaza":"","lat":43.133707,"lng":141.257535,"version":"14.0b/19.0a"},{"town":"前田九条十三丁目","koaza":"","lat":43.134703,"lng":141.256075,"version":"14.0b/19.0a"},{"town":"前田九条十四丁目","koaza":"","lat":43.135389,"lng":141.254879,"version":"14.0b/19.0a"},{"town":"前田九条十五丁目","koaza":"","lat":43.137295,"lng":141.252035,"version":"14.0b/19.0a"},{"town":"前田九条十六丁目","koaza":"","lat":43.139179,"lng":141.250181,"version":"14.0b/19.0a"},{"town":"前田九条十七丁目","koaza":"","lat":43.140732,"lng":141.248261,"version":"14.0b/19.0a"},{"town":"前田九条十八丁目","koaza":"","lat":43.142015,"lng":141.246566,"version":"14.0b/19.0a"},{"town":"前田九条十九丁目","koaza":"","lat":43.142848,"lng":141.243643,"version":"14.0b/19.0a"},{"town":"前田九条九丁目","koaza":"","lat":43.128575,"lng":141.264165,"version":"14.0b/19.0a"},{"town":"新発寒二条二丁目","koaza":"","lat":43.107489,"lng":141.270855,"version":"14.0b/19.0a"},{"town":"西宮の沢一条二丁目","koaza":"","lat":43.104368,"lng":141.267803,"version":"14.0b/19.0a"},{"town":"新発寒一条一丁目","koaza":"","lat":43.104766,"lng":141.270973,"version":"14.0b/19.0a"},{"town":"新発寒一条二丁目","koaza":"","lat":43.106062,"lng":141.26924,"version":"14.0b/19.0a"}]