[{"town":"字臼谷","koaza":"","lat":44.000511,"lng":141.666528,"version":"13.0b/18.0a"},{"town":"字大椴","koaza":"","lat":44.074705,"lng":141.705341,"version":"13.0b/18.0a"},{"town":"字沖内","koaza":"","lat":43.986514,"lng":141.791763,"version":"13.0b/18.0a"},{"town":"字鬼鹿千松","koaza":"","lat":44.183968,"lng":141.692923,"version":"13.0b/18.0a"},{"town":"字鬼鹿田代","koaza":"","lat":44.144757,"lng":141.727827,"version":"13.0b/18.0a"},{"town":"字鬼鹿富岡","koaza":"","lat":44.106396,"lng":141.716997,"version":"13.0b/18.0a"},{"town":"字鬼鹿豊浜","koaza":"","lat":44.200389,"lng":141.684842,"version":"13.0b/18.0a"},{"town":"字鬼鹿秀浦","koaza":"","lat":44.119459,"lng":141.672687,"version":"13.0b/18.0a"},{"town":"字鬼鹿広富","koaza":"","lat":44.137954,"lng":141.676584,"version":"13.0b/18.0a"},{"town":"字鬼鹿港町","koaza":"","lat":44.153607,"lng":141.657404,"version":"13.0b/18.0a"},{"town":"字鬼鹿元浜","koaza":"","lat":44.168296,"lng":141.672133,"version":"13.0b/18.0a"},{"town":"字小平町","koaza":"","lat":44.015633,"lng":141.678003,"version":"13.0b/18.0a"},{"town":"字川上","koaza":"","lat":44.089534,"lng":141.994147,"version":"13.0b/18.0a"},{"town":"字菊岡","koaza":"","lat":43.960151,"lng":141.741646,"version":"13.0b/18.0a"},{"town":"字岐富","koaza":"","lat":43.949981,"lng":141.773959,"version":"13.0b/18.0a"},{"town":"字住吉","koaza":"","lat":44.049758,"lng":141.809233,"version":"13.0b/18.0a"},{"town":"字桑園","koaza":"","lat":43.967601,"lng":141.723894,"version":"13.0b/18.0a"},{"town":"字滝下","koaza":"","lat":44.053937,"lng":141.943277,"version":"13.0b/18.0a"},{"town":"字達布","koaza":"","lat":44.030718,"lng":141.877036,"version":"13.0b/18.0a"},{"town":"字富里","koaza":"","lat":44.019099,"lng":141.719096,"version":"13.0b/18.0a"},{"town":"字豊岡","koaza":"","lat":43.949174,"lng":141.748539,"version":"13.0b/18.0a"},{"town":"字豊平","koaza":"","lat":43.977427,"lng":141.687825,"version":"13.0b/18.0a"},{"town":"字寧楽","koaza":"","lat":44.055857,"lng":141.772713,"version":"13.0b/18.0a"},{"town":"字花岡","koaza":"","lat":44.03977,"lng":141.697453,"version":"13.0b/18.0a"},{"town":"字平和","koaza":"","lat":44.026712,"lng":141.757567,"version":"13.0b/18.0a"},{"town":"字本郷","koaza":"","lat":44.001126,"lng":141.693266,"version":"13.0b/18.0a"},{"town":"字臼谷","koaza":"","lat":44.000511,"lng":141.666528,"version":"14.0b/19.0a"},{"town":"字大椴","koaza":"","lat":44.074705,"lng":141.705341,"version":"14.0b/19.0a"},{"town":"字沖内","koaza":"","lat":43.986514,"lng":141.791763,"version":"14.0b/19.0a"},{"town":"字鬼鹿千松","koaza":"","lat":44.183968,"lng":141.692923,"version":"14.0b/19.0a"},{"town":"字鬼鹿田代","koaza":"","lat":44.144757,"lng":141.727827,"version":"14.0b/19.0a"},{"town":"字鬼鹿富岡","koaza":"","lat":44.106396,"lng":141.716997,"version":"14.0b/19.0a"},{"town":"字鬼鹿豊浜","koaza":"","lat":44.200389,"lng":141.684842,"version":"14.0b/19.0a"},{"town":"字鬼鹿秀浦","koaza":"","lat":44.119459,"lng":141.672687,"version":"14.0b/19.0a"},{"town":"字鬼鹿広富","koaza":"","lat":44.137954,"lng":141.676584,"version":"14.0b/19.0a"},{"town":"字鬼鹿港町","koaza":"","lat":44.153607,"lng":141.657404,"version":"14.0b/19.0a"},{"town":"字鬼鹿元浜","koaza":"","lat":44.168296,"lng":141.672133,"version":"14.0b/19.0a"},{"town":"字小平町","koaza":"","lat":44.015633,"lng":141.678003,"version":"14.0b/19.0a"},{"town":"字川上","koaza":"","lat":44.089534,"lng":141.994147,"version":"14.0b/19.0a"},{"town":"字菊岡","koaza":"","lat":43.960151,"lng":141.741646,"version":"14.0b/19.0a"},{"town":"字岐富","koaza":"","lat":43.949981,"lng":141.773959,"version":"14.0b/19.0a"},{"town":"字住吉","koaza":"","lat":44.049758,"lng":141.809233,"version":"14.0b/19.0a"},{"town":"字桑園","koaza":"","lat":43.967601,"lng":141.723894,"version":"14.0b/19.0a"},{"town":"字滝下","koaza":"","lat":44.053937,"lng":141.943277,"version":"14.0b/19.0a"},{"town":"字達布","koaza":"","lat":44.030718,"lng":141.877036,"version":"14.0b/19.0a"},{"town":"字富里","koaza":"","lat":44.019099,"lng":141.719096,"version":"14.0b/19.0a"},{"town":"字豊岡","koaza":"","lat":43.949174,"lng":141.748539,"version":"14.0b/19.0a"},{"town":"字豊平","koaza":"","lat":43.977427,"lng":141.687825,"version":"14.0b/19.0a"},{"town":"字寧楽","koaza":"","lat":44.055857,"lng":141.772713,"version":"14.0b/19.0a"},{"town":"字花岡","koaza":"","lat":44.03977,"lng":141.697453,"version":"14.0b/19.0a"},{"town":"字平和","koaza":"","lat":44.026712,"lng":141.757567,"version":"14.0b/19.0a"},{"town":"字本郷","koaza":"","lat":44.001126,"lng":141.693266,"version":"14.0b/19.0a"}]