[{"town":"オオナイ","koaza":"","lat":43.006523,"lng":144.052284,"version":"13.0b/18.0a"},{"town":"オシツクシ","koaza":"","lat":43.102553,"lng":144.02389,"version":"13.0b/18.0a"},{"town":"大楽毛","koaza":"","lat":43.016725,"lng":144.203636,"version":"13.0b/18.0a"},{"town":"オニヨップ","koaza":"","lat":43.102987,"lng":144.073742,"version":"13.0b/18.0a"},{"town":"オレウケナイ","koaza":"","lat":43.064069,"lng":144.087632,"version":"13.0b/18.0a"},{"town":"上庶路","koaza":"","lat":43.109553,"lng":144.066364,"version":"13.0b/18.0a"},{"town":"上庶路基線","koaza":"","lat":43.201882,"lng":143.952368,"version":"13.0b/18.0a"},{"town":"上庶路甲区","koaza":"","lat":43.246902,"lng":143.941715,"version":"13.0b/18.0a"},{"town":"上茶路","koaza":"","lat":43.156344,"lng":143.877644,"version":"13.0b/18.0a"},{"town":"上茶路乙西一線","koaza":"","lat":43.102996,"lng":143.879546,"version":"13.0b/18.0a"},{"town":"上茶路乙西二線","koaza":"","lat":43.17279,"lng":143.829724,"version":"13.0b/18.0a"},{"town":"上茶路乙東一線","koaza":"","lat":43.191355,"lng":143.849806,"version":"13.0b/18.0a"},{"town":"上茶路乙東二線","koaza":"","lat":43.212892,"lng":143.876461,"version":"13.0b/18.0a"},{"town":"上茶路基線","koaza":"","lat":43.118298,"lng":143.896019,"version":"13.0b/18.0a"},{"town":"上茶路基線北","koaza":"","lat":43.177079,"lng":143.878944,"version":"13.0b/18.0a"},{"town":"上茶路基線南","koaza":"","lat":43.175338,"lng":143.877262,"version":"13.0b/18.0a"},{"town":"上茶路増基線","koaza":"","lat":43.132725,"lng":143.876942,"version":"13.0b/18.0a"},{"town":"上茶路西一線","koaza":"","lat":43.067946,"lng":143.938652,"version":"13.0b/18.0a"},{"town":"上茶路西二線","koaza":"","lat":43.177135,"lng":143.83404,"version":"13.0b/18.0a"},{"town":"上茶路西三線","koaza":"","lat":43.138748,"lng":143.861463,"version":"13.0b/18.0a"},{"town":"上茶路西四線","koaza":"","lat":43.139763,"lng":143.853926,"version":"13.0b/18.0a"},{"town":"上茶路西五線","koaza":"","lat":43.14036,"lng":143.851079,"version":"13.0b/18.0a"},{"town":"上茶路東一線","koaza":"","lat":43.205846,"lng":143.854566,"version":"13.0b/18.0a"},{"town":"上茶路東一線北","koaza":"","lat":43.183488,"lng":143.872105,"version":"13.0b/18.0a"},{"town":"上茶路東一線南","koaza":"","lat":43.182593,"lng":143.860792,"version":"13.0b/18.0a"},{"town":"上茶路東二線","koaza":"","lat":43.212562,"lng":143.871364,"version":"13.0b/18.0a"},{"town":"上茶路東三線","koaza":"","lat":43.190524,"lng":143.889485,"version":"13.0b/18.0a"},{"town":"カリソ","koaza":"","lat":42.987855,"lng":144.078571,"version":"13.0b/18.0a"},{"town":"キナチャシナイ","koaza":"","lat":42.989916,"lng":144.063022,"version":"13.0b/18.0a"},{"town":"キラコタン","koaza":"","lat":42.965036,"lng":144.059651,"version":"13.0b/18.0a"},{"town":"刺牛","koaza":"","lat":42.963163,"lng":144.103042,"version":"13.0b/18.0a"},{"town":"刺牛一丁目","koaza":"","lat":42.956325,"lng":144.096374,"version":"13.0b/18.0a"},{"town":"刺牛二丁目","koaza":"","lat":42.957759,"lng":144.100953,"version":"13.0b/18.0a"},{"town":"刺牛三丁目","koaza":"","lat":42.961195,"lng":144.110497,"version":"13.0b/18.0a"},{"town":"シユウトナイ","koaza":"","lat":43.101315,"lng":143.883653,"version":"13.0b/18.0a"},{"town":"庶路","koaza":"","lat":43.015825,"lng":144.172048,"version":"13.0b/18.0a"},{"town":"庶路基線","koaza":"","lat":43.060616,"lng":144.077764,"version":"13.0b/18.0a"},{"town":"庶路甲区","koaza":"","lat":42.993248,"lng":144.157816,"version":"13.0b/18.0a"},{"town":"庶路西一線","koaza":"","lat":43.002348,"lng":144.116552,"version":"13.0b/18.0a"},{"town":"庶路西二線","koaza":"","lat":43.003562,"lng":144.107516,"version":"13.0b/18.0a"},{"town":"庶路西五線","koaza":"","lat":42.966253,"lng":144.114988,"version":"13.0b/18.0a"},{"town":"庶路東一線","koaza":"","lat":42.99126,"lng":144.139631,"version":"13.0b/18.0a"},{"town":"庶路東二線","koaza":"","lat":43.019327,"lng":144.12444,"version":"13.0b/18.0a"},{"town":"庶路東三線","koaza":"","lat":43.030245,"lng":144.129875,"version":"13.0b/18.0a"},{"town":"庶路東四線","koaza":"","lat":43.029561,"lng":144.132913,"version":"13.0b/18.0a"},{"town":"庶路マサルカ","koaza":"","lat":43.004423,"lng":144.180153,"version":"13.0b/18.0a"},{"town":"白糠","koaza":"","lat":42.96179,"lng":144.089115,"version":"13.0b/18.0a"},{"town":"白糠甲区","koaza":"","lat":43.132704,"lng":143.818251,"version":"13.0b/18.0a"},{"town":"石炭岬","koaza":"","lat":42.958079,"lng":144.085851,"version":"13.0b/18.0a"},{"town":"滝の上","koaza":"","lat":43.188364,"lng":143.976318,"version":"13.0b/18.0a"},{"town":"タンタカ","koaza":"","lat":43.063865,"lng":144.008258,"version":"13.0b/18.0a"},{"town":"タンネナイ","koaza":"","lat":43.119723,"lng":144.020581,"version":"13.0b/18.0a"},{"town":"チカヨップ","koaza":"","lat":42.967273,"lng":144.114087,"version":"13.0b/18.0a"},{"town":"チノミ","koaza":"","lat":42.998435,"lng":144.140286,"version":"13.0b/18.0a"},{"town":"チプタナイ","koaza":"","lat":42.990398,"lng":144.109654,"version":"13.0b/18.0a"},{"town":"茶路","koaza":"","lat":43.047198,"lng":143.958533,"version":"13.0b/18.0a"},{"town":"茶路一線","koaza":"","lat":43.102159,"lng":143.97219,"version":"13.0b/18.0a"},{"town":"茶路乙区","koaza":"","lat":42.976318,"lng":144.056698,"version":"13.0b/18.0a"},{"town":"茶路基線","koaza":"","lat":43.023542,"lng":144.018793,"version":"13.0b/18.0a"},{"town":"茶路基線新","koaza":"","lat":43.094591,"lng":143.978906,"version":"13.0b/18.0a"},{"town":"茶路基線西一線","koaza":"","lat":42.982769,"lng":144.061514,"version":"13.0b/18.0a"},{"town":"茶路増画基線","koaza":"","lat":43.102908,"lng":143.981496,"version":"13.0b/18.0a"},{"town":"茶路丁区","koaza":"","lat":42.992999,"lng":144.034025,"version":"13.0b/18.0a"},{"town":"茶路西一線","koaza":"","lat":43.024733,"lng":144.013253,"version":"13.0b/18.0a"},{"town":"茶路西一線西二線","koaza":"","lat":42.972257,"lng":144.056803,"version":"13.0b/18.0a"},{"town":"茶路西二線","koaza":"","lat":43.044049,"lng":143.989332,"version":"13.0b/18.0a"},{"town":"茶路西三線","koaza":"","lat":43.041068,"lng":143.985747,"version":"13.0b/18.0a"},{"town":"茶路東一線","koaza":"","lat":43.055154,"lng":144.005607,"version":"13.0b/18.0a"},{"town":"茶路東二線","koaza":"","lat":43.055238,"lng":144.012455,"version":"13.0b/18.0a"},{"town":"茶路東三線","koaza":"","lat":42.992492,"lng":144.076992,"version":"13.0b/18.0a"},{"town":"茶路丙区","koaza":"","lat":42.987717,"lng":144.046322,"version":"13.0b/18.0a"},{"town":"トーパラベツ","koaza":"","lat":43.034283,"lng":144.152713,"version":"13.0b/18.0a"},{"town":"泊別","koaza":"","lat":43.04484,"lng":144.132649,"version":"13.0b/18.0a"},{"town":"西一条北一丁目","koaza":"","lat":42.95757,"lng":144.07226,"version":"13.0b/18.0a"},{"town":"西一条北二丁目","koaza":"","lat":42.957051,"lng":144.069881,"version":"13.0b/18.0a"},{"town":"西一条北三丁目","koaza":"","lat":42.958901,"lng":144.071784,"version":"13.0b/18.0a"},{"town":"西一条北四丁目","koaza":"","lat":42.960684,"lng":144.071644,"version":"13.0b/18.0a"},{"town":"西一条北五丁目","koaza":"","lat":42.962376,"lng":144.071058,"version":"13.0b/18.0a"},{"town":"西一条北六丁目","koaza":"","lat":42.963875,"lng":144.069983,"version":"13.0b/18.0a"},{"town":"西一条北七丁目","koaza":"","lat":42.965459,"lng":144.06934,"version":"13.0b/18.0a"},{"town":"西一条北八丁目","koaza":"","lat":42.96704,"lng":144.068724,"version":"13.0b/18.0a"},{"town":"西一条南一丁目","koaza":"","lat":42.955902,"lng":144.070192,"version":"13.0b/18.0a"},{"town":"西一条南二丁目","koaza":"","lat":42.954959,"lng":144.071139,"version":"13.0b/18.0a"},{"town":"西一条南三丁目","koaza":"","lat":42.953632,"lng":144.072176,"version":"13.0b/18.0a"},{"town":"西一条南四丁目","koaza":"","lat":42.952038,"lng":144.07252,"version":"13.0b/18.0a"},{"town":"西二条北六丁目","koaza":"","lat":42.963727,"lng":144.067036,"version":"13.0b/18.0a"},{"town":"西二条北七丁目","koaza":"","lat":42.964597,"lng":144.065958,"version":"13.0b/18.0a"},{"town":"西二条北八丁目","koaza":"","lat":42.966335,"lng":144.06542,"version":"13.0b/18.0a"},{"town":"西二条南三丁目","koaza":"","lat":42.953414,"lng":144.069095,"version":"13.0b/18.0a"},{"town":"西三条北一丁目","koaza":"","lat":42.958619,"lng":144.06607,"version":"13.0b/18.0a"},{"town":"西三条北二丁目","koaza":"","lat":42.960348,"lng":144.065803,"version":"13.0b/18.0a"},{"town":"西四条北一丁目","koaza":"","lat":42.957763,"lng":144.063191,"version":"13.0b/18.0a"},{"town":"西四条北二丁目","koaza":"","lat":42.959785,"lng":144.061542,"version":"13.0b/18.0a"},{"town":"西五条北一丁目","koaza":"","lat":42.95688,"lng":144.059696,"version":"13.0b/18.0a"},{"town":"西五条北二丁目","koaza":"","lat":42.957676,"lng":144.057492,"version":"13.0b/18.0a"},{"town":"西庶路西一条北一丁目","koaza":"","lat":42.97853,"lng":144.126246,"version":"13.0b/18.0a"},{"town":"西庶路西一条北二丁目","koaza":"","lat":42.97981,"lng":144.125114,"version":"13.0b/18.0a"},{"town":"西庶路西一条北三丁目","koaza":"","lat":42.981055,"lng":144.123981,"version":"13.0b/18.0a"},{"town":"西庶路西一条北四丁目","koaza":"","lat":42.982452,"lng":144.123025,"version":"13.0b/18.0a"},{"town":"西庶路西一条北五丁目","koaza":"","lat":42.984122,"lng":144.12169,"version":"13.0b/18.0a"},{"town":"西庶路西一条南一丁目","koaza":"","lat":42.977041,"lng":144.127568,"version":"13.0b/18.0a"},{"town":"西庶路西一条南二丁目","koaza":"","lat":42.975535,"lng":144.128016,"version":"13.0b/18.0a"},{"town":"西庶路西一条南三丁目","koaza":"","lat":42.974617,"lng":144.12999,"version":"13.0b/18.0a"},{"town":"西庶路西一条南四丁目","koaza":"","lat":42.972574,"lng":144.131321,"version":"13.0b/18.0a"},{"town":"西庶路西二条北一丁目","koaza":"","lat":42.97718,"lng":144.124005,"version":"13.0b/18.0a"},{"town":"西庶路西二条北二丁目","koaza":"","lat":42.979231,"lng":144.122597,"version":"13.0b/18.0a"},{"town":"西庶路西二条南一丁目","koaza":"","lat":42.975743,"lng":144.124731,"version":"13.0b/18.0a"},{"town":"西庶路西二条南二丁目","koaza":"","lat":42.97384,"lng":144.1261,"version":"13.0b/18.0a"},{"town":"西庶路西二条南三丁目","koaza":"","lat":42.972658,"lng":144.127843,"version":"13.0b/18.0a"},{"town":"西庶路西二条南四丁目","koaza":"","lat":42.971023,"lng":144.128453,"version":"13.0b/18.0a"},{"town":"西庶路西三条北一丁目","koaza":"","lat":42.9751,"lng":144.120501,"version":"13.0b/18.0a"},{"town":"西庶路西三条南一丁目","koaza":"","lat":42.973984,"lng":144.122205,"version":"13.0b/18.0a"},{"town":"西庶路西三条南二丁目","koaza":"","lat":42.972414,"lng":144.123476,"version":"13.0b/18.0a"},{"town":"西庶路西三条南三丁目","koaza":"","lat":42.970416,"lng":144.125146,"version":"13.0b/18.0a"},{"town":"西庶路西四条南一丁目","koaza":"","lat":42.972666,"lng":144.119333,"version":"13.0b/18.0a"},{"town":"西庶路西四条南二丁目","koaza":"","lat":42.970756,"lng":144.120918,"version":"13.0b/18.0a"},{"town":"西庶路西四条南三丁目","koaza":"","lat":42.968963,"lng":144.122386,"version":"13.0b/18.0a"},{"town":"西庶路西五条南一丁目","koaza":"","lat":42.969396,"lng":144.116853,"version":"13.0b/18.0a"},{"town":"西庶路西五条南二丁目","koaza":"","lat":42.967186,"lng":144.119397,"version":"13.0b/18.0a"},{"town":"西庶路東一条北一丁目","koaza":"","lat":42.979855,"lng":144.129027,"version":"13.0b/18.0a"},{"town":"西庶路東一条北二丁目","koaza":"","lat":42.981252,"lng":144.128206,"version":"13.0b/18.0a"},{"town":"西庶路東一条北三丁目","koaza":"","lat":42.982406,"lng":144.126426,"version":"13.0b/18.0a"},{"town":"西庶路東一条北四丁目","koaza":"","lat":42.984018,"lng":144.125198,"version":"13.0b/18.0a"},{"town":"西庶路東一条北五丁目","koaza":"","lat":42.985349,"lng":144.124259,"version":"13.0b/18.0a"},{"town":"西庶路東一条南一丁目","koaza":"","lat":42.978048,"lng":144.13023,"version":"13.0b/18.0a"},{"town":"西庶路東一条南二丁目","koaza":"","lat":42.977252,"lng":144.131533,"version":"13.0b/18.0a"},{"town":"西庶路東一条南三丁目","koaza":"","lat":42.975896,"lng":144.132776,"version":"13.0b/18.0a"},{"town":"西庶路東一条南四丁目","koaza":"","lat":42.974025,"lng":144.134211,"version":"13.0b/18.0a"},{"town":"西庶路東二条北一丁目","koaza":"","lat":42.981212,"lng":144.131888,"version":"13.0b/18.0a"},{"town":"西庶路東二条北二丁目","koaza":"","lat":42.982844,"lng":144.130968,"version":"13.0b/18.0a"},{"town":"西庶路東二条北三丁目","koaza":"","lat":42.983705,"lng":144.129687,"version":"13.0b/18.0a"},{"town":"西庶路東二条北四丁目","koaza":"","lat":42.985196,"lng":144.12846,"version":"13.0b/18.0a"},{"town":"西庶路東二条北五丁目","koaza":"","lat":42.987262,"lng":144.127408,"version":"13.0b/18.0a"},{"town":"西庶路東二条南一丁目","koaza":"","lat":42.979845,"lng":144.132355,"version":"13.0b/18.0a"},{"town":"西庶路東二条南二丁目","koaza":"","lat":42.9789,"lng":144.134025,"version":"13.0b/18.0a"},{"town":"西庶路東二条南三丁目","koaza":"","lat":42.976744,"lng":144.135759,"version":"13.0b/18.0a"},{"town":"西庶路東二条南四丁目","koaza":"","lat":42.975218,"lng":144.137209,"version":"13.0b/18.0a"},{"town":"西庶路東三条北一丁目","koaza":"","lat":42.983258,"lng":144.136112,"version":"13.0b/18.0a"},{"town":"西庶路東三条北二丁目","koaza":"","lat":42.98415,"lng":144.134764,"version":"13.0b/18.0a"},{"town":"西庶路東三条北三丁目","koaza":"","lat":42.985483,"lng":144.133384,"version":"13.0b/18.0a"},{"town":"西庶路東三条北四丁目","koaza":"","lat":42.986444,"lng":144.131287,"version":"13.0b/18.0a"},{"town":"西庶路東三条北五丁目","koaza":"","lat":42.988467,"lng":144.129246,"version":"13.0b/18.0a"},{"town":"西庶路東三条南一丁目","koaza":"","lat":42.981916,"lng":144.137634,"version":"13.0b/18.0a"},{"town":"西庶路東三条南二丁目","koaza":"","lat":42.980206,"lng":144.137395,"version":"13.0b/18.0a"},{"town":"西庶路東三条南三丁目","koaza":"","lat":42.978248,"lng":144.138941,"version":"13.0b/18.0a"},{"town":"西庶路東三条南四丁目","koaza":"","lat":42.976706,"lng":144.141286,"version":"13.0b/18.0a"},{"town":"ヌイベツ","koaza":"","lat":43.08094,"lng":143.949105,"version":"13.0b/18.0a"},{"town":"ノイベツ","koaza":"","lat":43.071389,"lng":143.984671,"version":"13.0b/18.0a"},{"town":"東一条北一丁目","koaza":"","lat":42.957366,"lng":144.075083,"version":"13.0b/18.0a"},{"town":"東一条北二丁目","koaza":"","lat":42.958674,"lng":144.075541,"version":"13.0b/18.0a"},{"town":"東一条北三丁目","koaza":"","lat":42.959853,"lng":144.075113,"version":"13.0b/18.0a"},{"town":"東一条北四丁目","koaza":"","lat":42.961644,"lng":144.07472,"version":"13.0b/18.0a"},{"town":"東一条北五丁目","koaza":"","lat":42.963028,"lng":144.073804,"version":"13.0b/18.0a"},{"town":"東一条北六丁目","koaza":"","lat":42.964515,"lng":144.073194,"version":"13.0b/18.0a"},{"town":"東一条北七丁目","koaza":"","lat":42.966074,"lng":144.072535,"version":"13.0b/18.0a"},{"town":"東一条北八丁目","koaza":"","lat":42.967752,"lng":144.07184,"version":"13.0b/18.0a"},{"town":"東一条南一丁目","koaza":"","lat":42.955804,"lng":144.075419,"version":"13.0b/18.0a"},{"town":"東一条南二丁目","koaza":"","lat":42.954641,"lng":144.075031,"version":"13.0b/18.0a"},{"town":"東一条南三丁目","koaza":"","lat":42.953341,"lng":144.075129,"version":"13.0b/18.0a"},{"town":"東一条南四丁目","koaza":"","lat":42.952139,"lng":144.075343,"version":"13.0b/18.0a"},{"town":"東二条北一丁目","koaza":"","lat":42.956872,"lng":144.078645,"version":"13.0b/18.0a"},{"town":"東二条北二丁目","koaza":"","lat":42.958892,"lng":144.078942,"version":"13.0b/18.0a"},{"town":"東二条北三丁目","koaza":"","lat":42.960607,"lng":144.078375,"version":"13.0b/18.0a"},{"town":"東二条北四丁目","koaza":"","lat":42.962174,"lng":144.077714,"version":"13.0b/18.0a"},{"town":"東二条北五丁目","koaza":"","lat":42.963762,"lng":144.077052,"version":"13.0b/18.0a"},{"town":"東二条北六丁目","koaza":"","lat":42.965344,"lng":144.076366,"version":"13.0b/18.0a"},{"town":"東二条北七丁目","koaza":"","lat":42.966876,"lng":144.075629,"version":"13.0b/18.0a"},{"town":"東二条北八丁目","koaza":"","lat":42.968541,"lng":144.075631,"version":"13.0b/18.0a"},{"town":"東二条南一丁目","koaza":"","lat":42.955561,"lng":144.078499,"version":"13.0b/18.0a"},{"town":"東二条南二丁目","koaza":"","lat":42.954422,"lng":144.078511,"version":"13.0b/18.0a"},{"town":"東二条南三丁目","koaza":"","lat":42.953407,"lng":144.078175,"version":"13.0b/18.0a"},{"town":"東三条北一丁目","koaza":"","lat":42.957169,"lng":144.08153,"version":"13.0b/18.0a"},{"town":"東三条北二丁目","koaza":"","lat":42.959241,"lng":144.082034,"version":"13.0b/18.0a"},{"town":"東三条北三丁目","koaza":"","lat":42.961325,"lng":144.081691,"version":"13.0b/18.0a"},{"town":"東三条北四丁目","koaza":"","lat":42.962838,"lng":144.080899,"version":"13.0b/18.0a"},{"town":"東三条北五丁目","koaza":"","lat":42.96442,"lng":144.079926,"version":"13.0b/18.0a"},{"town":"東三条北六丁目","koaza":"","lat":42.965879,"lng":144.079235,"version":"13.0b/18.0a"},{"town":"東三条北七丁目","koaza":"","lat":42.967406,"lng":144.078074,"version":"13.0b/18.0a"},{"town":"東三条北八丁目","koaza":"","lat":42.968833,"lng":144.077312,"version":"13.0b/18.0a"},{"town":"東三条南一丁目","koaza":"","lat":42.955008,"lng":144.081446,"version":"13.0b/18.0a"},{"town":"東三条南二丁目","koaza":"","lat":42.95388,"lng":144.081954,"version":"13.0b/18.0a"},{"town":"フラサカオマナイ","koaza":"","lat":42.994475,"lng":144.147837,"version":"13.0b/18.0a"},{"town":"ポンビラ","koaza":"","lat":42.970636,"lng":144.056544,"version":"13.0b/18.0a"},{"town":"マカヨ","koaza":"","lat":43.036779,"lng":144.027446,"version":"13.0b/18.0a"},{"town":"岬一丁目","koaza":"","lat":42.95342,"lng":144.085539,"version":"13.0b/18.0a"},{"town":"岬二丁目","koaza":"","lat":42.954475,"lng":144.092699,"version":"13.0b/18.0a"},{"town":"岬三丁目","koaza":"","lat":42.956704,"lng":144.091675,"version":"13.0b/18.0a"},{"town":"ルークシチャロ","koaza":"","lat":43.183019,"lng":143.841955,"version":"13.0b/18.0a"},{"town":"和天別","koaza":"","lat":42.981708,"lng":143.953573,"version":"13.0b/18.0a"},{"town":"和天別乙区","koaza":"","lat":42.970454,"lng":144.004296,"version":"13.0b/18.0a"},{"town":"和天別甲区","koaza":"","lat":42.965766,"lng":144.011423,"version":"13.0b/18.0a"},{"town":"和天別丙区","koaza":"","lat":42.979052,"lng":143.995206,"version":"13.0b/18.0a"},{"town":"西六条北一丁目","koaza":"","lat":42.955454,"lng":144.053022,"version":"13.0b/18.0a"},{"town":"西六条北二丁目","koaza":"","lat":42.956621,"lng":144.054158,"version":"13.0b/18.0a"},{"town":"西三条北七丁目","koaza":"","lat":42.964534,"lng":144.063522,"version":"13.0b/18.0a"},{"town":"西三条北八丁目","koaza":"","lat":42.965603,"lng":144.062396,"version":"13.0b/18.0a"},{"town":"西三条北九丁目","koaza":"","lat":42.967136,"lng":144.061238,"version":"13.0b/18.0a"},{"town":"西三条北十丁目","koaza":"","lat":42.968548,"lng":144.060185,"version":"13.0b/18.0a"},{"town":"西三条北十一丁目","koaza":"","lat":42.969952,"lng":144.059997,"version":"13.0b/18.0a"},{"town":"西二条北九丁目","koaza":"","lat":42.967899,"lng":144.064679,"version":"13.0b/18.0a"},{"town":"西二条北十丁目","koaza":"","lat":42.969486,"lng":144.063981,"version":"13.0b/18.0a"},{"town":"西二条北十一丁目","koaza":"","lat":42.971043,"lng":144.063345,"version":"13.0b/18.0a"},{"town":"西一条北九丁目","koaza":"","lat":42.968696,"lng":144.067928,"version":"13.0b/18.0a"},{"town":"西一条北十丁目","koaza":"","lat":42.970196,"lng":144.067182,"version":"13.0b/18.0a"},{"town":"西一条北十一丁目","koaza":"","lat":42.971737,"lng":144.066577,"version":"13.0b/18.0a"},{"town":"東一条北九丁目","koaza":"","lat":42.969363,"lng":144.071265,"version":"13.0b/18.0a"},{"town":"東一条北十丁目","koaza":"","lat":42.971012,"lng":144.070643,"version":"13.0b/18.0a"},{"town":"東一条北十一丁目","koaza":"","lat":42.972548,"lng":144.06981,"version":"13.0b/18.0a"},{"town":"東二条北九丁目","koaza":"","lat":42.97015,"lng":144.074418,"version":"13.0b/18.0a"},{"town":"東二条北十丁目","koaza":"","lat":42.971554,"lng":144.073814,"version":"13.0b/18.0a"},{"town":"東二条北十一丁目","koaza":"","lat":42.973248,"lng":144.073188,"version":"13.0b/18.0a"},{"town":"東三条北九丁目","koaza":"","lat":42.970593,"lng":144.076796,"version":"13.0b/18.0a"},{"town":"東三条北十丁目","koaza":"","lat":42.972149,"lng":144.076191,"version":"13.0b/18.0a"},{"town":"東三条北十一丁目","koaza":"","lat":42.973889,"lng":144.076066,"version":"13.0b/18.0a"},{"town":"西庶路学園通一丁目","koaza":"","lat":42.980981,"lng":144.120299,"version":"13.0b/18.0a"},{"town":"庶路宮下一丁目","koaza":"","lat":42.986179,"lng":144.141899,"version":"13.0b/18.0a"},{"town":"庶路宮下四丁目","koaza":"","lat":42.988902,"lng":144.141357,"version":"13.0b/18.0a"},{"town":"庶路宮下二丁目","koaza":"","lat":42.985813,"lng":144.148271,"version":"13.0b/18.0a"},{"town":"庶路宮下五丁目","koaza":"","lat":42.988307,"lng":144.147979,"version":"13.0b/18.0a"},{"town":"庶路宮下六丁目","koaza":"","lat":42.988849,"lng":144.153085,"version":"13.0b/18.0a"},{"town":"庶路宮下三丁目","koaza":"","lat":42.985977,"lng":144.152234,"version":"13.0b/18.0a"},{"town":"庶路一丁目","koaza":"","lat":42.982838,"lng":144.143432,"version":"13.0b/18.0a"},{"town":"庶路二丁目","koaza":"","lat":42.981654,"lng":144.145267,"version":"13.0b/18.0a"},{"town":"庶路宮下七丁目","koaza":"","lat":42.987705,"lng":144.158427,"version":"13.0b/18.0a"},{"town":"恋問一丁目","koaza":"","lat":42.983219,"lng":144.157196,"version":"13.0b/18.0a"},{"town":"恋問二丁目","koaza":"","lat":42.985859,"lng":144.170314,"version":"13.0b/18.0a"},{"town":"恋問三丁目","koaza":"","lat":42.993257,"lng":144.200136,"version":"13.0b/18.0a"},{"town":"恋問四丁目","koaza":"","lat":42.99736,"lng":144.221178,"version":"13.0b/18.0a"},{"town":"恋問五丁目","koaza":"","lat":42.985599,"lng":144.158281,"version":"13.0b/18.0a"},{"town":"恋問六丁目","koaza":"","lat":42.988437,"lng":144.173421,"version":"13.0b/18.0a"},{"town":"工業団地一丁目","koaza":"","lat":42.989776,"lng":144.168309,"version":"13.0b/18.0a"},{"town":"工業団地二丁目","koaza":"","lat":42.99344,"lng":144.187523,"version":"13.0b/18.0a"},{"town":"工業団地三丁目","koaza":"","lat":42.997673,"lng":144.208438,"version":"13.0b/18.0a"},{"town":"工業団地四丁目","koaza":"","lat":43.000925,"lng":144.216315,"version":"13.0b/18.0a"},{"town":"コイトイ","koaza":"","lat":42.981159,"lng":144.150121,"version":"13.0b/18.0a"},{"town":"オオナイ","koaza":"","lat":43.006523,"lng":144.052284,"version":"14.0b/19.0a"},{"town":"オシツクシ","koaza":"","lat":43.102553,"lng":144.02389,"version":"14.0b/19.0a"},{"town":"大楽毛","koaza":"","lat":43.016725,"lng":144.203636,"version":"14.0b/19.0a"},{"town":"オニヨップ","koaza":"","lat":43.102987,"lng":144.073742,"version":"14.0b/19.0a"},{"town":"オレウケナイ","koaza":"","lat":43.064069,"lng":144.087632,"version":"14.0b/19.0a"},{"town":"上庶路","koaza":"","lat":43.109553,"lng":144.066364,"version":"14.0b/19.0a"},{"town":"上庶路基線","koaza":"","lat":43.201882,"lng":143.952368,"version":"14.0b/19.0a"},{"town":"上庶路甲区","koaza":"","lat":43.246902,"lng":143.941715,"version":"14.0b/19.0a"},{"town":"上茶路","koaza":"","lat":43.156344,"lng":143.877644,"version":"14.0b/19.0a"},{"town":"上茶路乙西一線","koaza":"","lat":43.102996,"lng":143.879546,"version":"14.0b/19.0a"},{"town":"上茶路乙西二線","koaza":"","lat":43.17279,"lng":143.829724,"version":"14.0b/19.0a"},{"town":"上茶路乙東一線","koaza":"","lat":43.191355,"lng":143.849806,"version":"14.0b/19.0a"},{"town":"上茶路乙東二線","koaza":"","lat":43.212892,"lng":143.876461,"version":"14.0b/19.0a"},{"town":"上茶路基線","koaza":"","lat":43.118298,"lng":143.896019,"version":"14.0b/19.0a"},{"town":"上茶路基線北","koaza":"","lat":43.177079,"lng":143.878944,"version":"14.0b/19.0a"},{"town":"上茶路基線南","koaza":"","lat":43.175338,"lng":143.877262,"version":"14.0b/19.0a"},{"town":"上茶路増基線","koaza":"","lat":43.132725,"lng":143.876942,"version":"14.0b/19.0a"},{"town":"上茶路西一線","koaza":"","lat":43.067946,"lng":143.938652,"version":"14.0b/19.0a"},{"town":"上茶路西二線","koaza":"","lat":43.177135,"lng":143.83404,"version":"14.0b/19.0a"},{"town":"上茶路西三線","koaza":"","lat":43.138748,"lng":143.861463,"version":"14.0b/19.0a"},{"town":"上茶路西四線","koaza":"","lat":43.139763,"lng":143.853926,"version":"14.0b/19.0a"},{"town":"上茶路西五線","koaza":"","lat":43.14036,"lng":143.851079,"version":"14.0b/19.0a"},{"town":"上茶路東一線","koaza":"","lat":43.205846,"lng":143.854566,"version":"14.0b/19.0a"},{"town":"上茶路東一線北","koaza":"","lat":43.183488,"lng":143.872105,"version":"14.0b/19.0a"},{"town":"上茶路東一線南","koaza":"","lat":43.182593,"lng":143.860792,"version":"14.0b/19.0a"},{"town":"上茶路東二線","koaza":"","lat":43.212562,"lng":143.871364,"version":"14.0b/19.0a"},{"town":"上茶路東三線","koaza":"","lat":43.190524,"lng":143.889485,"version":"14.0b/19.0a"},{"town":"カリソ","koaza":"","lat":42.987855,"lng":144.078571,"version":"14.0b/19.0a"},{"town":"キナチャシナイ","koaza":"","lat":42.989916,"lng":144.063022,"version":"14.0b/19.0a"},{"town":"キラコタン","koaza":"","lat":42.965036,"lng":144.059651,"version":"14.0b/19.0a"},{"town":"刺牛","koaza":"","lat":42.963163,"lng":144.103042,"version":"14.0b/19.0a"},{"town":"刺牛一丁目","koaza":"","lat":42.956325,"lng":144.096374,"version":"14.0b/19.0a"},{"town":"刺牛二丁目","koaza":"","lat":42.957759,"lng":144.100953,"version":"14.0b/19.0a"},{"town":"刺牛三丁目","koaza":"","lat":42.961195,"lng":144.110497,"version":"14.0b/19.0a"},{"town":"シユウトナイ","koaza":"","lat":43.101315,"lng":143.883653,"version":"14.0b/19.0a"},{"town":"庶路","koaza":"","lat":43.015825,"lng":144.172048,"version":"14.0b/19.0a"},{"town":"庶路基線","koaza":"","lat":43.060616,"lng":144.077764,"version":"14.0b/19.0a"},{"town":"庶路甲区","koaza":"","lat":42.993248,"lng":144.157816,"version":"14.0b/19.0a"},{"town":"庶路西一線","koaza":"","lat":43.002348,"lng":144.116552,"version":"14.0b/19.0a"},{"town":"庶路西二線","koaza":"","lat":43.003562,"lng":144.107516,"version":"14.0b/19.0a"},{"town":"庶路西五線","koaza":"","lat":42.966253,"lng":144.114988,"version":"14.0b/19.0a"},{"town":"庶路東一線","koaza":"","lat":42.99126,"lng":144.139631,"version":"14.0b/19.0a"},{"town":"庶路東二線","koaza":"","lat":43.019327,"lng":144.12444,"version":"14.0b/19.0a"},{"town":"庶路東三線","koaza":"","lat":43.030245,"lng":144.129875,"version":"14.0b/19.0a"},{"town":"庶路東四線","koaza":"","lat":43.029561,"lng":144.132913,"version":"14.0b/19.0a"},{"town":"庶路マサルカ","koaza":"","lat":43.004423,"lng":144.180153,"version":"14.0b/19.0a"},{"town":"白糠","koaza":"","lat":42.96179,"lng":144.089115,"version":"14.0b/19.0a"},{"town":"白糠甲区","koaza":"","lat":43.132704,"lng":143.818251,"version":"14.0b/19.0a"},{"town":"石炭岬","koaza":"","lat":42.958079,"lng":144.085851,"version":"14.0b/19.0a"},{"town":"滝の上","koaza":"","lat":43.188364,"lng":143.976318,"version":"14.0b/19.0a"},{"town":"タンタカ","koaza":"","lat":43.063865,"lng":144.008258,"version":"14.0b/19.0a"},{"town":"タンネナイ","koaza":"","lat":43.119723,"lng":144.020581,"version":"14.0b/19.0a"},{"town":"チカヨップ","koaza":"","lat":42.967273,"lng":144.114087,"version":"14.0b/19.0a"},{"town":"チノミ","koaza":"","lat":42.998435,"lng":144.140286,"version":"14.0b/19.0a"},{"town":"チプタナイ","koaza":"","lat":42.990398,"lng":144.109654,"version":"14.0b/19.0a"},{"town":"茶路","koaza":"","lat":43.047198,"lng":143.958533,"version":"14.0b/19.0a"},{"town":"茶路一線","koaza":"","lat":43.102159,"lng":143.97219,"version":"14.0b/19.0a"},{"town":"茶路乙区","koaza":"","lat":42.976318,"lng":144.056698,"version":"14.0b/19.0a"},{"town":"茶路基線","koaza":"","lat":43.023542,"lng":144.018793,"version":"14.0b/19.0a"},{"town":"茶路基線新","koaza":"","lat":43.094591,"lng":143.978906,"version":"14.0b/19.0a"},{"town":"茶路基線西一線","koaza":"","lat":42.982769,"lng":144.061514,"version":"14.0b/19.0a"},{"town":"茶路増画基線","koaza":"","lat":43.102908,"lng":143.981496,"version":"14.0b/19.0a"},{"town":"茶路丁区","koaza":"","lat":42.992999,"lng":144.034025,"version":"14.0b/19.0a"},{"town":"茶路西一線","koaza":"","lat":43.024733,"lng":144.013253,"version":"14.0b/19.0a"},{"town":"茶路西一線西二線","koaza":"","lat":42.972257,"lng":144.056803,"version":"14.0b/19.0a"},{"town":"茶路西二線","koaza":"","lat":43.044049,"lng":143.989332,"version":"14.0b/19.0a"},{"town":"茶路西三線","koaza":"","lat":43.041068,"lng":143.985747,"version":"14.0b/19.0a"},{"town":"茶路東一線","koaza":"","lat":43.055154,"lng":144.005607,"version":"14.0b/19.0a"},{"town":"茶路東二線","koaza":"","lat":43.055238,"lng":144.012455,"version":"14.0b/19.0a"},{"town":"茶路東三線","koaza":"","lat":42.992492,"lng":144.076992,"version":"14.0b/19.0a"},{"town":"茶路丙区","koaza":"","lat":42.987717,"lng":144.046322,"version":"14.0b/19.0a"},{"town":"トーパラベツ","koaza":"","lat":43.034283,"lng":144.152713,"version":"14.0b/19.0a"},{"town":"泊別","koaza":"","lat":43.04484,"lng":144.132649,"version":"14.0b/19.0a"},{"town":"西一条北一丁目","koaza":"","lat":42.95757,"lng":144.07226,"version":"14.0b/19.0a"},{"town":"西一条北二丁目","koaza":"","lat":42.957051,"lng":144.069881,"version":"14.0b/19.0a"},{"town":"西一条北三丁目","koaza":"","lat":42.958901,"lng":144.071784,"version":"14.0b/19.0a"},{"town":"西一条北四丁目","koaza":"","lat":42.960684,"lng":144.071644,"version":"14.0b/19.0a"},{"town":"西一条北五丁目","koaza":"","lat":42.962376,"lng":144.071058,"version":"14.0b/19.0a"},{"town":"西一条北六丁目","koaza":"","lat":42.963875,"lng":144.069983,"version":"14.0b/19.0a"},{"town":"西一条北七丁目","koaza":"","lat":42.965459,"lng":144.06934,"version":"14.0b/19.0a"},{"town":"西一条北八丁目","koaza":"","lat":42.96704,"lng":144.068724,"version":"14.0b/19.0a"},{"town":"西一条南一丁目","koaza":"","lat":42.955902,"lng":144.070192,"version":"14.0b/19.0a"},{"town":"西一条南二丁目","koaza":"","lat":42.954959,"lng":144.071139,"version":"14.0b/19.0a"},{"town":"西一条南三丁目","koaza":"","lat":42.953632,"lng":144.072176,"version":"14.0b/19.0a"},{"town":"西一条南四丁目","koaza":"","lat":42.952038,"lng":144.07252,"version":"14.0b/19.0a"},{"town":"西二条北六丁目","koaza":"","lat":42.963727,"lng":144.067036,"version":"14.0b/19.0a"},{"town":"西二条北七丁目","koaza":"","lat":42.964597,"lng":144.065958,"version":"14.0b/19.0a"},{"town":"西二条北八丁目","koaza":"","lat":42.966335,"lng":144.06542,"version":"14.0b/19.0a"},{"town":"西二条南三丁目","koaza":"","lat":42.953414,"lng":144.069095,"version":"14.0b/19.0a"},{"town":"西三条北一丁目","koaza":"","lat":42.958619,"lng":144.06607,"version":"14.0b/19.0a"},{"town":"西三条北二丁目","koaza":"","lat":42.960348,"lng":144.065803,"version":"14.0b/19.0a"},{"town":"西四条北一丁目","koaza":"","lat":42.957763,"lng":144.063191,"version":"14.0b/19.0a"},{"town":"西四条北二丁目","koaza":"","lat":42.959785,"lng":144.061542,"version":"14.0b/19.0a"},{"town":"西五条北一丁目","koaza":"","lat":42.95688,"lng":144.059696,"version":"14.0b/19.0a"},{"town":"西五条北二丁目","koaza":"","lat":42.957676,"lng":144.057492,"version":"14.0b/19.0a"},{"town":"西庶路西一条北一丁目","koaza":"","lat":42.97853,"lng":144.126246,"version":"14.0b/19.0a"},{"town":"西庶路西一条北二丁目","koaza":"","lat":42.97981,"lng":144.125114,"version":"14.0b/19.0a"},{"town":"西庶路西一条北三丁目","koaza":"","lat":42.981055,"lng":144.123981,"version":"14.0b/19.0a"},{"town":"西庶路西一条北四丁目","koaza":"","lat":42.982452,"lng":144.123025,"version":"14.0b/19.0a"},{"town":"西庶路西一条北五丁目","koaza":"","lat":42.984122,"lng":144.12169,"version":"14.0b/19.0a"},{"town":"西庶路西一条南一丁目","koaza":"","lat":42.977041,"lng":144.127568,"version":"14.0b/19.0a"},{"town":"西庶路西一条南二丁目","koaza":"","lat":42.975535,"lng":144.128016,"version":"14.0b/19.0a"},{"town":"西庶路西一条南三丁目","koaza":"","lat":42.974617,"lng":144.12999,"version":"14.0b/19.0a"},{"town":"西庶路西一条南四丁目","koaza":"","lat":42.972574,"lng":144.131321,"version":"14.0b/19.0a"},{"town":"西庶路西二条北一丁目","koaza":"","lat":42.97718,"lng":144.124005,"version":"14.0b/19.0a"},{"town":"西庶路西二条北二丁目","koaza":"","lat":42.979231,"lng":144.122597,"version":"14.0b/19.0a"},{"town":"西庶路西二条南一丁目","koaza":"","lat":42.975743,"lng":144.124731,"version":"14.0b/19.0a"},{"town":"西庶路西二条南二丁目","koaza":"","lat":42.97384,"lng":144.1261,"version":"14.0b/19.0a"},{"town":"西庶路西二条南三丁目","koaza":"","lat":42.972658,"lng":144.127843,"version":"14.0b/19.0a"},{"town":"西庶路西二条南四丁目","koaza":"","lat":42.971023,"lng":144.128453,"version":"14.0b/19.0a"},{"town":"西庶路西三条北一丁目","koaza":"","lat":42.9751,"lng":144.120501,"version":"14.0b/19.0a"},{"town":"西庶路西三条南一丁目","koaza":"","lat":42.973984,"lng":144.122205,"version":"14.0b/19.0a"},{"town":"西庶路西三条南二丁目","koaza":"","lat":42.972414,"lng":144.123476,"version":"14.0b/19.0a"},{"town":"西庶路西三条南三丁目","koaza":"","lat":42.970416,"lng":144.125146,"version":"14.0b/19.0a"},{"town":"西庶路西四条南一丁目","koaza":"","lat":42.972666,"lng":144.119333,"version":"14.0b/19.0a"},{"town":"西庶路西四条南二丁目","koaza":"","lat":42.970756,"lng":144.120918,"version":"14.0b/19.0a"},{"town":"西庶路西四条南三丁目","koaza":"","lat":42.968963,"lng":144.122386,"version":"14.0b/19.0a"},{"town":"西庶路西五条南一丁目","koaza":"","lat":42.969396,"lng":144.116853,"version":"14.0b/19.0a"},{"town":"西庶路西五条南二丁目","koaza":"","lat":42.967186,"lng":144.119397,"version":"14.0b/19.0a"},{"town":"西庶路東一条北一丁目","koaza":"","lat":42.979855,"lng":144.129027,"version":"14.0b/19.0a"},{"town":"西庶路東一条北二丁目","koaza":"","lat":42.981252,"lng":144.128206,"version":"14.0b/19.0a"},{"town":"西庶路東一条北三丁目","koaza":"","lat":42.982406,"lng":144.126426,"version":"14.0b/19.0a"},{"town":"西庶路東一条北四丁目","koaza":"","lat":42.984018,"lng":144.125198,"version":"14.0b/19.0a"},{"town":"西庶路東一条北五丁目","koaza":"","lat":42.985349,"lng":144.124259,"version":"14.0b/19.0a"},{"town":"西庶路東一条南一丁目","koaza":"","lat":42.978048,"lng":144.13023,"version":"14.0b/19.0a"},{"town":"西庶路東一条南二丁目","koaza":"","lat":42.977252,"lng":144.131533,"version":"14.0b/19.0a"},{"town":"西庶路東一条南三丁目","koaza":"","lat":42.975896,"lng":144.132776,"version":"14.0b/19.0a"},{"town":"西庶路東一条南四丁目","koaza":"","lat":42.974025,"lng":144.134211,"version":"14.0b/19.0a"},{"town":"西庶路東二条北一丁目","koaza":"","lat":42.981212,"lng":144.131888,"version":"14.0b/19.0a"},{"town":"西庶路東二条北二丁目","koaza":"","lat":42.982844,"lng":144.130968,"version":"14.0b/19.0a"},{"town":"西庶路東二条北三丁目","koaza":"","lat":42.983705,"lng":144.129687,"version":"14.0b/19.0a"},{"town":"西庶路東二条北四丁目","koaza":"","lat":42.985196,"lng":144.12846,"version":"14.0b/19.0a"},{"town":"西庶路東二条北五丁目","koaza":"","lat":42.987262,"lng":144.127408,"version":"14.0b/19.0a"},{"town":"西庶路東二条南一丁目","koaza":"","lat":42.979845,"lng":144.132355,"version":"14.0b/19.0a"},{"town":"西庶路東二条南二丁目","koaza":"","lat":42.9789,"lng":144.134025,"version":"14.0b/19.0a"},{"town":"西庶路東二条南三丁目","koaza":"","lat":42.976744,"lng":144.135759,"version":"14.0b/19.0a"},{"town":"西庶路東二条南四丁目","koaza":"","lat":42.975218,"lng":144.137209,"version":"14.0b/19.0a"},{"town":"西庶路東三条北一丁目","koaza":"","lat":42.983258,"lng":144.136112,"version":"14.0b/19.0a"},{"town":"西庶路東三条北二丁目","koaza":"","lat":42.98415,"lng":144.134764,"version":"14.0b/19.0a"},{"town":"西庶路東三条北三丁目","koaza":"","lat":42.985483,"lng":144.133384,"version":"14.0b/19.0a"},{"town":"西庶路東三条北四丁目","koaza":"","lat":42.986444,"lng":144.131287,"version":"14.0b/19.0a"},{"town":"西庶路東三条北五丁目","koaza":"","lat":42.988467,"lng":144.129246,"version":"14.0b/19.0a"},{"town":"西庶路東三条南一丁目","koaza":"","lat":42.981916,"lng":144.137634,"version":"14.0b/19.0a"},{"town":"西庶路東三条南二丁目","koaza":"","lat":42.980206,"lng":144.137395,"version":"14.0b/19.0a"},{"town":"西庶路東三条南三丁目","koaza":"","lat":42.978248,"lng":144.138941,"version":"14.0b/19.0a"},{"town":"西庶路東三条南四丁目","koaza":"","lat":42.976706,"lng":144.141286,"version":"14.0b/19.0a"},{"town":"ヌイベツ","koaza":"","lat":43.08094,"lng":143.949105,"version":"14.0b/19.0a"},{"town":"ノイベツ","koaza":"","lat":43.071389,"lng":143.984671,"version":"14.0b/19.0a"},{"town":"東一条北一丁目","koaza":"","lat":42.957366,"lng":144.075083,"version":"14.0b/19.0a"},{"town":"東一条北二丁目","koaza":"","lat":42.958674,"lng":144.075541,"version":"14.0b/19.0a"},{"town":"東一条北三丁目","koaza":"","lat":42.959853,"lng":144.075113,"version":"14.0b/19.0a"},{"town":"東一条北四丁目","koaza":"","lat":42.961644,"lng":144.07472,"version":"14.0b/19.0a"},{"town":"東一条北五丁目","koaza":"","lat":42.963028,"lng":144.073804,"version":"14.0b/19.0a"},{"town":"東一条北六丁目","koaza":"","lat":42.964515,"lng":144.073194,"version":"14.0b/19.0a"},{"town":"東一条北七丁目","koaza":"","lat":42.966074,"lng":144.072535,"version":"14.0b/19.0a"},{"town":"東一条北八丁目","koaza":"","lat":42.967752,"lng":144.07184,"version":"14.0b/19.0a"},{"town":"東一条南一丁目","koaza":"","lat":42.955804,"lng":144.075419,"version":"14.0b/19.0a"},{"town":"東一条南二丁目","koaza":"","lat":42.954641,"lng":144.075031,"version":"14.0b/19.0a"},{"town":"東一条南三丁目","koaza":"","lat":42.953341,"lng":144.075129,"version":"14.0b/19.0a"},{"town":"東一条南四丁目","koaza":"","lat":42.952139,"lng":144.075343,"version":"14.0b/19.0a"},{"town":"東二条北一丁目","koaza":"","lat":42.956872,"lng":144.078645,"version":"14.0b/19.0a"},{"town":"東二条北二丁目","koaza":"","lat":42.958892,"lng":144.078942,"version":"14.0b/19.0a"},{"town":"東二条北三丁目","koaza":"","lat":42.960607,"lng":144.078375,"version":"14.0b/19.0a"},{"town":"東二条北四丁目","koaza":"","lat":42.962174,"lng":144.077714,"version":"14.0b/19.0a"},{"town":"東二条北五丁目","koaza":"","lat":42.963762,"lng":144.077052,"version":"14.0b/19.0a"},{"town":"東二条北六丁目","koaza":"","lat":42.965344,"lng":144.076366,"version":"14.0b/19.0a"},{"town":"東二条北七丁目","koaza":"","lat":42.966876,"lng":144.075629,"version":"14.0b/19.0a"},{"town":"東二条北八丁目","koaza":"","lat":42.968541,"lng":144.075631,"version":"14.0b/19.0a"},{"town":"東二条南一丁目","koaza":"","lat":42.955561,"lng":144.078499,"version":"14.0b/19.0a"},{"town":"東二条南二丁目","koaza":"","lat":42.954422,"lng":144.078511,"version":"14.0b/19.0a"},{"town":"東二条南三丁目","koaza":"","lat":42.953407,"lng":144.078175,"version":"14.0b/19.0a"},{"town":"東三条北一丁目","koaza":"","lat":42.957169,"lng":144.08153,"version":"14.0b/19.0a"},{"town":"東三条北二丁目","koaza":"","lat":42.959241,"lng":144.082034,"version":"14.0b/19.0a"},{"town":"東三条北三丁目","koaza":"","lat":42.961325,"lng":144.081691,"version":"14.0b/19.0a"},{"town":"東三条北四丁目","koaza":"","lat":42.962838,"lng":144.080899,"version":"14.0b/19.0a"},{"town":"東三条北五丁目","koaza":"","lat":42.96442,"lng":144.079926,"version":"14.0b/19.0a"},{"town":"東三条北六丁目","koaza":"","lat":42.965879,"lng":144.079235,"version":"14.0b/19.0a"},{"town":"東三条北七丁目","koaza":"","lat":42.967406,"lng":144.078074,"version":"14.0b/19.0a"},{"town":"東三条北八丁目","koaza":"","lat":42.968833,"lng":144.077312,"version":"14.0b/19.0a"},{"town":"東三条南一丁目","koaza":"","lat":42.955008,"lng":144.081446,"version":"14.0b/19.0a"},{"town":"東三条南二丁目","koaza":"","lat":42.95388,"lng":144.081954,"version":"14.0b/19.0a"},{"town":"フラサカオマナイ","koaza":"","lat":42.994475,"lng":144.147837,"version":"14.0b/19.0a"},{"town":"ポンビラ","koaza":"","lat":42.970636,"lng":144.056544,"version":"14.0b/19.0a"},{"town":"マカヨ","koaza":"","lat":43.036779,"lng":144.027446,"version":"14.0b/19.0a"},{"town":"岬一丁目","koaza":"","lat":42.95342,"lng":144.085539,"version":"14.0b/19.0a"},{"town":"岬二丁目","koaza":"","lat":42.954475,"lng":144.092699,"version":"14.0b/19.0a"},{"town":"岬三丁目","koaza":"","lat":42.956704,"lng":144.091675,"version":"14.0b/19.0a"},{"town":"ルークシチャロ","koaza":"","lat":43.183019,"lng":143.841955,"version":"14.0b/19.0a"},{"town":"和天別","koaza":"","lat":42.981708,"lng":143.953573,"version":"14.0b/19.0a"},{"town":"和天別乙区","koaza":"","lat":42.970454,"lng":144.004296,"version":"14.0b/19.0a"},{"town":"和天別甲区","koaza":"","lat":42.965766,"lng":144.011423,"version":"14.0b/19.0a"},{"town":"和天別丙区","koaza":"","lat":42.979052,"lng":143.995206,"version":"14.0b/19.0a"},{"town":"西六条北一丁目","koaza":"","lat":42.955454,"lng":144.053022,"version":"14.0b/19.0a"},{"town":"西六条北二丁目","koaza":"","lat":42.956621,"lng":144.054158,"version":"14.0b/19.0a"},{"town":"西三条北七丁目","koaza":"","lat":42.964534,"lng":144.063522,"version":"14.0b/19.0a"},{"town":"西三条北八丁目","koaza":"","lat":42.965603,"lng":144.062396,"version":"14.0b/19.0a"},{"town":"西三条北九丁目","koaza":"","lat":42.967136,"lng":144.061238,"version":"14.0b/19.0a"},{"town":"西三条北十丁目","koaza":"","lat":42.968548,"lng":144.060185,"version":"14.0b/19.0a"},{"town":"西三条北十一丁目","koaza":"","lat":42.969952,"lng":144.059997,"version":"14.0b/19.0a"},{"town":"西二条北九丁目","koaza":"","lat":42.967899,"lng":144.064679,"version":"14.0b/19.0a"},{"town":"西二条北十丁目","koaza":"","lat":42.969486,"lng":144.063981,"version":"14.0b/19.0a"},{"town":"西二条北十一丁目","koaza":"","lat":42.971043,"lng":144.063345,"version":"14.0b/19.0a"},{"town":"西一条北九丁目","koaza":"","lat":42.968696,"lng":144.067928,"version":"14.0b/19.0a"},{"town":"西一条北十丁目","koaza":"","lat":42.970196,"lng":144.067182,"version":"14.0b/19.0a"},{"town":"西一条北十一丁目","koaza":"","lat":42.971737,"lng":144.066577,"version":"14.0b/19.0a"},{"town":"東一条北九丁目","koaza":"","lat":42.969363,"lng":144.071265,"version":"14.0b/19.0a"},{"town":"東一条北十丁目","koaza":"","lat":42.971012,"lng":144.070643,"version":"14.0b/19.0a"},{"town":"東一条北十一丁目","koaza":"","lat":42.972548,"lng":144.06981,"version":"14.0b/19.0a"},{"town":"東二条北九丁目","koaza":"","lat":42.97015,"lng":144.074418,"version":"14.0b/19.0a"},{"town":"東二条北十丁目","koaza":"","lat":42.971554,"lng":144.073814,"version":"14.0b/19.0a"},{"town":"東二条北十一丁目","koaza":"","lat":42.973248,"lng":144.073188,"version":"14.0b/19.0a"},{"town":"東三条北九丁目","koaza":"","lat":42.970593,"lng":144.076796,"version":"14.0b/19.0a"},{"town":"東三条北十丁目","koaza":"","lat":42.972149,"lng":144.076191,"version":"14.0b/19.0a"},{"town":"東三条北十一丁目","koaza":"","lat":42.973889,"lng":144.076066,"version":"14.0b/19.0a"},{"town":"西庶路学園通一丁目","koaza":"","lat":42.980981,"lng":144.120299,"version":"14.0b/19.0a"},{"town":"庶路宮下一丁目","koaza":"","lat":42.986179,"lng":144.141899,"version":"14.0b/19.0a"},{"town":"庶路宮下四丁目","koaza":"","lat":42.988902,"lng":144.141357,"version":"14.0b/19.0a"},{"town":"庶路宮下二丁目","koaza":"","lat":42.985813,"lng":144.148271,"version":"14.0b/19.0a"},{"town":"庶路宮下五丁目","koaza":"","lat":42.988307,"lng":144.147979,"version":"14.0b/19.0a"},{"town":"庶路宮下六丁目","koaza":"","lat":42.988849,"lng":144.153085,"version":"14.0b/19.0a"},{"town":"庶路宮下三丁目","koaza":"","lat":42.985977,"lng":144.152234,"version":"14.0b/19.0a"},{"town":"庶路一丁目","koaza":"","lat":42.982838,"lng":144.143432,"version":"14.0b/19.0a"},{"town":"庶路二丁目","koaza":"","lat":42.981654,"lng":144.145267,"version":"14.0b/19.0a"},{"town":"庶路宮下七丁目","koaza":"","lat":42.987705,"lng":144.158427,"version":"14.0b/19.0a"},{"town":"恋問一丁目","koaza":"","lat":42.983219,"lng":144.157196,"version":"14.0b/19.0a"},{"town":"恋問二丁目","koaza":"","lat":42.985859,"lng":144.170314,"version":"14.0b/19.0a"},{"town":"恋問三丁目","koaza":"","lat":42.993257,"lng":144.200136,"version":"14.0b/19.0a"},{"town":"恋問四丁目","koaza":"","lat":42.99736,"lng":144.221178,"version":"14.0b/19.0a"},{"town":"恋問五丁目","koaza":"","lat":42.985599,"lng":144.158281,"version":"14.0b/19.0a"},{"town":"恋問六丁目","koaza":"","lat":42.988437,"lng":144.173421,"version":"14.0b/19.0a"},{"town":"工業団地一丁目","koaza":"","lat":42.989776,"lng":144.168309,"version":"14.0b/19.0a"},{"town":"工業団地二丁目","koaza":"","lat":42.99344,"lng":144.187523,"version":"14.0b/19.0a"},{"town":"工業団地三丁目","koaza":"","lat":42.997673,"lng":144.208438,"version":"14.0b/19.0a"},{"town":"工業団地四丁目","koaza":"","lat":43.000925,"lng":144.216315,"version":"14.0b/19.0a"},{"town":"コイトイ","koaza":"","lat":42.981159,"lng":144.150121,"version":"14.0b/19.0a"}]