[{"town":"字石山","koaza":"","lat":42.574356,"lng":141.277508,"version":"13.0b/18.0a"},{"town":"字北吉原","koaza":"","lat":42.546464,"lng":141.235816,"version":"13.0b/18.0a"},{"town":"字虎杖浜","koaza":"","lat":42.483168,"lng":141.190769,"version":"13.0b/18.0a"},{"town":"字社台","koaza":"","lat":42.634272,"lng":141.324566,"version":"13.0b/18.0a"},{"town":"字白老","koaza":"","lat":42.597181,"lng":141.315958,"version":"13.0b/18.0a"},{"town":"字竹浦","koaza":"","lat":42.547084,"lng":141.167725,"version":"13.0b/18.0a"},{"town":"字萩野","koaza":"","lat":42.548392,"lng":141.248605,"version":"13.0b/18.0a"},{"town":"字森野","koaza":"","lat":42.664506,"lng":141.217188,"version":"13.0b/18.0a"},{"town":"大町一丁目","koaza":"","lat":42.55035,"lng":141.355963,"version":"13.0b/18.0a"},{"town":"大町二丁目","koaza":"","lat":42.553092,"lng":141.358191,"version":"13.0b/18.0a"},{"town":"大町三丁目","koaza":"","lat":42.552164,"lng":141.360089,"version":"13.0b/18.0a"},{"town":"大町四丁目","koaza":"","lat":42.550514,"lng":141.361688,"version":"13.0b/18.0a"},{"town":"大町五丁目","koaza":"","lat":42.548223,"lng":141.360532,"version":"13.0b/18.0a"},{"town":"大町六丁目","koaza":"","lat":42.548702,"lng":141.357847,"version":"13.0b/18.0a"},{"town":"川沿一丁目","koaza":"","lat":42.552202,"lng":141.345714,"version":"13.0b/18.0a"},{"town":"川沿二丁目","koaza":"","lat":42.551751,"lng":141.342107,"version":"13.0b/18.0a"},{"town":"川沿三丁目","koaza":"","lat":42.555036,"lng":141.342353,"version":"13.0b/18.0a"},{"town":"川沿四丁目","koaza":"","lat":42.557248,"lng":141.343234,"version":"13.0b/18.0a"},{"town":"栄町一丁目","koaza":"","lat":42.553434,"lng":141.351321,"version":"13.0b/18.0a"},{"town":"栄町二丁目","koaza":"","lat":42.55226,"lng":141.348183,"version":"13.0b/18.0a"},{"town":"栄町三丁目","koaza":"","lat":42.554665,"lng":141.34777,"version":"13.0b/18.0a"},{"town":"陣屋町","koaza":"","lat":42.56483,"lng":141.3431,"version":"13.0b/18.0a"},{"town":"末広町一丁目","koaza":"","lat":42.554232,"lng":141.357142,"version":"13.0b/18.0a"},{"town":"末広町二丁目","koaza":"","lat":42.556335,"lng":141.357383,"version":"13.0b/18.0a"},{"town":"末広町三丁目","koaza":"","lat":42.555409,"lng":141.352718,"version":"13.0b/18.0a"},{"town":"末広町四丁目","koaza":"","lat":42.557221,"lng":141.353202,"version":"13.0b/18.0a"},{"town":"末広町五丁目","koaza":"","lat":42.55885,"lng":141.353723,"version":"13.0b/18.0a"},{"town":"高砂町一丁目","koaza":"","lat":42.547918,"lng":141.351376,"version":"13.0b/18.0a"},{"town":"高砂町二丁目","koaza":"","lat":42.546401,"lng":141.353821,"version":"13.0b/18.0a"},{"town":"高砂町三丁目","koaza":"","lat":42.545322,"lng":141.348551,"version":"13.0b/18.0a"},{"town":"高砂町四丁目","koaza":"","lat":42.543626,"lng":141.350135,"version":"13.0b/18.0a"},{"town":"東町一丁目","koaza":"","lat":42.556281,"lng":141.363158,"version":"13.0b/18.0a"},{"town":"東町二丁目","koaza":"","lat":42.555471,"lng":141.364063,"version":"13.0b/18.0a"},{"town":"東町三丁目","koaza":"","lat":42.553351,"lng":141.364052,"version":"13.0b/18.0a"},{"town":"東町四丁目","koaza":"","lat":42.555043,"lng":141.367485,"version":"13.0b/18.0a"},{"town":"東町五丁目","koaza":"","lat":42.552374,"lng":141.367456,"version":"13.0b/18.0a"},{"town":"日の出町一丁目","koaza":"","lat":42.560154,"lng":141.370278,"version":"13.0b/18.0a"},{"town":"日の出町二丁目","koaza":"","lat":42.563241,"lng":141.375043,"version":"13.0b/18.0a"},{"town":"日の出町三丁目","koaza":"","lat":42.556976,"lng":141.369705,"version":"13.0b/18.0a"},{"town":"日の出町四丁目","koaza":"","lat":42.554933,"lng":141.372223,"version":"13.0b/18.0a"},{"town":"日の出町五丁目","koaza":"","lat":42.558647,"lng":141.377006,"version":"13.0b/18.0a"},{"town":"本町一丁目","koaza":"","lat":42.550817,"lng":141.350889,"version":"13.0b/18.0a"},{"town":"本町二丁目","koaza":"","lat":42.546913,"lng":141.345884,"version":"13.0b/18.0a"},{"town":"本町三丁目","koaza":"","lat":42.547971,"lng":141.343665,"version":"13.0b/18.0a"},{"town":"緑丘一丁目","koaza":"","lat":42.556771,"lng":141.348071,"version":"13.0b/18.0a"},{"town":"緑丘二丁目","koaza":"","lat":42.558702,"lng":141.347709,"version":"13.0b/18.0a"},{"town":"緑丘三丁目","koaza":"","lat":42.559978,"lng":141.347555,"version":"13.0b/18.0a"},{"town":"緑丘四丁目","koaza":"","lat":42.565371,"lng":141.349841,"version":"13.0b/18.0a"},{"town":"緑町","koaza":"","lat":42.56145,"lng":141.336452,"version":"13.0b/18.0a"},{"town":"若草町一丁目","koaza":"","lat":42.559663,"lng":141.360399,"version":"13.0b/18.0a"},{"town":"若草町二丁目","koaza":"","lat":42.558999,"lng":141.364067,"version":"13.0b/18.0a"},{"town":"字石山","koaza":"","lat":42.574356,"lng":141.277508,"version":"14.0b/19.0a"},{"town":"字北吉原","koaza":"","lat":42.546464,"lng":141.235816,"version":"14.0b/19.0a"},{"town":"字虎杖浜","koaza":"","lat":42.483168,"lng":141.190769,"version":"14.0b/19.0a"},{"town":"字社台","koaza":"","lat":42.634272,"lng":141.324566,"version":"14.0b/19.0a"},{"town":"字白老","koaza":"","lat":42.597181,"lng":141.315958,"version":"14.0b/19.0a"},{"town":"字竹浦","koaza":"","lat":42.547084,"lng":141.167725,"version":"14.0b/19.0a"},{"town":"字萩野","koaza":"","lat":42.548392,"lng":141.248605,"version":"14.0b/19.0a"},{"town":"字森野","koaza":"","lat":42.664506,"lng":141.217188,"version":"14.0b/19.0a"},{"town":"大町一丁目","koaza":"","lat":42.55035,"lng":141.355963,"version":"14.0b/19.0a"},{"town":"大町二丁目","koaza":"","lat":42.553092,"lng":141.358191,"version":"14.0b/19.0a"},{"town":"大町三丁目","koaza":"","lat":42.552164,"lng":141.360089,"version":"14.0b/19.0a"},{"town":"大町四丁目","koaza":"","lat":42.550514,"lng":141.361688,"version":"14.0b/19.0a"},{"town":"大町五丁目","koaza":"","lat":42.548223,"lng":141.360532,"version":"14.0b/19.0a"},{"town":"大町六丁目","koaza":"","lat":42.548702,"lng":141.357847,"version":"14.0b/19.0a"},{"town":"川沿一丁目","koaza":"","lat":42.552202,"lng":141.345714,"version":"14.0b/19.0a"},{"town":"川沿二丁目","koaza":"","lat":42.551751,"lng":141.342107,"version":"14.0b/19.0a"},{"town":"川沿三丁目","koaza":"","lat":42.555036,"lng":141.342353,"version":"14.0b/19.0a"},{"town":"川沿四丁目","koaza":"","lat":42.557248,"lng":141.343234,"version":"14.0b/19.0a"},{"town":"栄町一丁目","koaza":"","lat":42.553434,"lng":141.351321,"version":"14.0b/19.0a"},{"town":"栄町二丁目","koaza":"","lat":42.55226,"lng":141.348183,"version":"14.0b/19.0a"},{"town":"栄町三丁目","koaza":"","lat":42.554665,"lng":141.34777,"version":"14.0b/19.0a"},{"town":"陣屋町","koaza":"","lat":42.56483,"lng":141.3431,"version":"14.0b/19.0a"},{"town":"末広町一丁目","koaza":"","lat":42.554232,"lng":141.357142,"version":"14.0b/19.0a"},{"town":"末広町二丁目","koaza":"","lat":42.556335,"lng":141.357383,"version":"14.0b/19.0a"},{"town":"末広町三丁目","koaza":"","lat":42.555409,"lng":141.352718,"version":"14.0b/19.0a"},{"town":"末広町四丁目","koaza":"","lat":42.557221,"lng":141.353202,"version":"14.0b/19.0a"},{"town":"末広町五丁目","koaza":"","lat":42.55885,"lng":141.353723,"version":"14.0b/19.0a"},{"town":"高砂町一丁目","koaza":"","lat":42.547918,"lng":141.351376,"version":"14.0b/19.0a"},{"town":"高砂町二丁目","koaza":"","lat":42.546401,"lng":141.353821,"version":"14.0b/19.0a"},{"town":"高砂町三丁目","koaza":"","lat":42.545322,"lng":141.348551,"version":"14.0b/19.0a"},{"town":"高砂町四丁目","koaza":"","lat":42.543626,"lng":141.350135,"version":"14.0b/19.0a"},{"town":"東町一丁目","koaza":"","lat":42.556281,"lng":141.363158,"version":"14.0b/19.0a"},{"town":"東町二丁目","koaza":"","lat":42.555471,"lng":141.364063,"version":"14.0b/19.0a"},{"town":"東町三丁目","koaza":"","lat":42.553351,"lng":141.364052,"version":"14.0b/19.0a"},{"town":"東町四丁目","koaza":"","lat":42.555043,"lng":141.367485,"version":"14.0b/19.0a"},{"town":"東町五丁目","koaza":"","lat":42.552374,"lng":141.367456,"version":"14.0b/19.0a"},{"town":"日の出町一丁目","koaza":"","lat":42.560154,"lng":141.370278,"version":"14.0b/19.0a"},{"town":"日の出町二丁目","koaza":"","lat":42.563241,"lng":141.375043,"version":"14.0b/19.0a"},{"town":"日の出町三丁目","koaza":"","lat":42.556976,"lng":141.369705,"version":"14.0b/19.0a"},{"town":"日の出町四丁目","koaza":"","lat":42.554933,"lng":141.372223,"version":"14.0b/19.0a"},{"town":"日の出町五丁目","koaza":"","lat":42.558647,"lng":141.377006,"version":"14.0b/19.0a"},{"town":"本町一丁目","koaza":"","lat":42.550817,"lng":141.350889,"version":"14.0b/19.0a"},{"town":"本町二丁目","koaza":"","lat":42.546913,"lng":141.345884,"version":"14.0b/19.0a"},{"town":"本町三丁目","koaza":"","lat":42.547971,"lng":141.343665,"version":"14.0b/19.0a"},{"town":"緑丘一丁目","koaza":"","lat":42.556771,"lng":141.348071,"version":"14.0b/19.0a"},{"town":"緑丘二丁目","koaza":"","lat":42.558702,"lng":141.347709,"version":"14.0b/19.0a"},{"town":"緑丘三丁目","koaza":"","lat":42.559978,"lng":141.347555,"version":"14.0b/19.0a"},{"town":"緑丘四丁目","koaza":"","lat":42.565371,"lng":141.349841,"version":"14.0b/19.0a"},{"town":"緑町","koaza":"","lat":42.56145,"lng":141.336452,"version":"14.0b/19.0a"},{"town":"若草町一丁目","koaza":"","lat":42.559663,"lng":141.360399,"version":"14.0b/19.0a"},{"town":"若草町二丁目","koaza":"","lat":42.558999,"lng":141.364067,"version":"14.0b/19.0a"}]