[{"town":"相泊","koaza":"","lat":44.186819,"lng":145.317394,"version":"13.0b/18.0a"},{"town":"麻布町","koaza":"","lat":43.967969,"lng":145.133767,"version":"13.0b/18.0a"},{"town":"海岸町","koaza":"","lat":44.056747,"lng":145.234096,"version":"13.0b/18.0a"},{"town":"春日町","koaza":"","lat":43.949572,"lng":145.117791,"version":"13.0b/18.0a"},{"town":"化石浜","koaza":"","lat":44.238668,"lng":145.346718,"version":"13.0b/18.0a"},{"town":"北浜","koaza":"","lat":44.135754,"lng":145.253377,"version":"13.0b/18.0a"},{"town":"共栄町","koaza":"","lat":44.027624,"lng":145.200678,"version":"13.0b/18.0a"},{"town":"崩浜","koaza":"","lat":44.208649,"lng":145.333125,"version":"13.0b/18.0a"},{"town":"昆布浜","koaza":"","lat":44.160387,"lng":145.293087,"version":"13.0b/18.0a"},{"town":"栄町","koaza":"","lat":44.025103,"lng":145.189285,"version":"13.0b/18.0a"},{"town":"知床岬","koaza":"","lat":44.323109,"lng":145.342761,"version":"13.0b/18.0a"},{"town":"瀬石","koaza":"","lat":44.175536,"lng":145.308194,"version":"13.0b/18.0a"},{"town":"滝ノ下","koaza":"","lat":44.28816,"lng":145.352926,"version":"13.0b/18.0a"},{"town":"知昭町","koaza":"","lat":43.984974,"lng":145.15426,"version":"13.0b/18.0a"},{"town":"富士見町","koaza":"","lat":44.019397,"lng":145.19333,"version":"13.0b/18.0a"},{"town":"船泊","koaza":"","lat":44.261088,"lng":145.364258,"version":"13.0b/18.0a"},{"town":"船見町","koaza":"","lat":44.022902,"lng":145.19599,"version":"13.0b/18.0a"},{"town":"幌萌町","koaza":"","lat":43.921424,"lng":145.107307,"version":"13.0b/18.0a"},{"town":"本町","koaza":"","lat":44.017895,"lng":145.186691,"version":"13.0b/18.0a"},{"town":"松法町","koaza":"","lat":43.993416,"lng":145.163304,"version":"13.0b/18.0a"},{"town":"岬町","koaza":"","lat":44.102412,"lng":145.238844,"version":"13.0b/18.0a"},{"town":"緑町","koaza":"","lat":44.02225,"lng":145.18413,"version":"13.0b/18.0a"},{"town":"峯浜町","koaza":"","lat":43.883193,"lng":145.070641,"version":"13.0b/18.0a"},{"town":"八木浜町","koaza":"","lat":43.980493,"lng":145.14103,"version":"13.0b/18.0a"},{"town":"湯ノ沢町","koaza":"","lat":44.030945,"lng":145.167716,"version":"13.0b/18.0a"},{"town":"礼文町","koaza":"","lat":44.007692,"lng":145.176837,"version":"13.0b/18.0a"},{"town":"相泊","koaza":"","lat":44.186819,"lng":145.317394,"version":"14.0b/19.0a"},{"town":"麻布町","koaza":"","lat":43.967969,"lng":145.133767,"version":"14.0b/19.0a"},{"town":"海岸町","koaza":"","lat":44.056747,"lng":145.234096,"version":"14.0b/19.0a"},{"town":"春日町","koaza":"","lat":43.949572,"lng":145.117791,"version":"14.0b/19.0a"},{"town":"化石浜","koaza":"","lat":44.238668,"lng":145.346718,"version":"14.0b/19.0a"},{"town":"北浜","koaza":"","lat":44.135754,"lng":145.253377,"version":"14.0b/19.0a"},{"town":"共栄町","koaza":"","lat":44.027624,"lng":145.200678,"version":"14.0b/19.0a"},{"town":"崩浜","koaza":"","lat":44.208649,"lng":145.333125,"version":"14.0b/19.0a"},{"town":"昆布浜","koaza":"","lat":44.160387,"lng":145.293087,"version":"14.0b/19.0a"},{"town":"栄町","koaza":"","lat":44.025103,"lng":145.189285,"version":"14.0b/19.0a"},{"town":"知床岬","koaza":"","lat":44.323109,"lng":145.342761,"version":"14.0b/19.0a"},{"town":"瀬石","koaza":"","lat":44.175536,"lng":145.308194,"version":"14.0b/19.0a"},{"town":"滝ノ下","koaza":"","lat":44.28816,"lng":145.352926,"version":"14.0b/19.0a"},{"town":"知昭町","koaza":"","lat":43.984974,"lng":145.15426,"version":"14.0b/19.0a"},{"town":"富士見町","koaza":"","lat":44.019397,"lng":145.19333,"version":"14.0b/19.0a"},{"town":"船泊","koaza":"","lat":44.261088,"lng":145.364258,"version":"14.0b/19.0a"},{"town":"船見町","koaza":"","lat":44.022902,"lng":145.19599,"version":"14.0b/19.0a"},{"town":"幌萌町","koaza":"","lat":43.921424,"lng":145.107307,"version":"14.0b/19.0a"},{"town":"本町","koaza":"","lat":44.017895,"lng":145.186691,"version":"14.0b/19.0a"},{"town":"松法町","koaza":"","lat":43.993416,"lng":145.163304,"version":"14.0b/19.0a"},{"town":"岬町","koaza":"","lat":44.102412,"lng":145.238844,"version":"14.0b/19.0a"},{"town":"緑町","koaza":"","lat":44.02225,"lng":145.18413,"version":"14.0b/19.0a"},{"town":"峯浜町","koaza":"","lat":43.883193,"lng":145.070641,"version":"14.0b/19.0a"},{"town":"八木浜町","koaza":"","lat":43.980493,"lng":145.14103,"version":"14.0b/19.0a"},{"town":"湯ノ沢町","koaza":"","lat":44.030945,"lng":145.167716,"version":"14.0b/19.0a"},{"town":"礼文町","koaza":"","lat":44.007692,"lng":145.176837,"version":"14.0b/19.0a"}]