[{"town":"朝日一丁目","koaza":"","lat":45.382922,"lng":141.707212,"version":"13.0b/18.0a"},{"town":"朝日二丁目","koaza":"","lat":45.384385,"lng":141.710786,"version":"13.0b/18.0a"},{"town":"朝日三丁目","koaza":"","lat":45.382696,"lng":141.712414,"version":"13.0b/18.0a"},{"town":"朝日四丁目","koaza":"","lat":45.378381,"lng":141.713341,"version":"13.0b/18.0a"},{"town":"朝日五丁目","koaza":"","lat":45.384304,"lng":141.70264,"version":"13.0b/18.0a"},{"town":"朝日六丁目","koaza":"","lat":45.379996,"lng":141.704546,"version":"13.0b/18.0a"},{"town":"恵比須一丁目","koaza":"","lat":45.43355,"lng":141.664503,"version":"13.0b/18.0a"},{"town":"恵比須二丁目","koaza":"","lat":45.435373,"lng":141.662175,"version":"13.0b/18.0a"},{"town":"恵比須三丁目","koaza":"","lat":45.437333,"lng":141.660402,"version":"13.0b/18.0a"},{"town":"恵比須四丁目","koaza":"","lat":45.438677,"lng":141.657005,"version":"13.0b/18.0a"},{"town":"恵比須五丁目","koaza":"","lat":45.440812,"lng":141.654899,"version":"13.0b/18.0a"},{"town":"大字声問村","koaza":"","lat":45.299825,"lng":141.834911,"version":"13.0b/18.0a"},{"town":"大字宗谷村","koaza":"","lat":45.420858,"lng":141.934731,"version":"13.0b/18.0a"},{"town":"大字抜海村","koaza":"","lat":45.256226,"lng":141.665065,"version":"13.0b/18.0a"},{"town":"大字稚内村","koaza":"","lat":45.38739,"lng":141.659489,"version":"13.0b/18.0a"},{"town":"開運一丁目","koaza":"","lat":45.419276,"lng":141.679249,"version":"13.0b/18.0a"},{"town":"開運二丁目","koaza":"","lat":45.416355,"lng":141.679614,"version":"13.0b/18.0a"},{"town":"声問一丁目","koaza":"","lat":45.401106,"lng":141.742734,"version":"13.0b/18.0a"},{"town":"声問二丁目","koaza":"","lat":45.409469,"lng":141.749775,"version":"13.0b/18.0a"},{"town":"声問三丁目","koaza":"","lat":45.406777,"lng":141.752391,"version":"13.0b/18.0a"},{"town":"声問四丁目","koaza":"","lat":45.403745,"lng":141.776252,"version":"13.0b/18.0a"},{"town":"声問五丁目","koaza":"","lat":45.398047,"lng":141.762075,"version":"13.0b/18.0a"},{"town":"こまどり一丁目","koaza":"","lat":45.393976,"lng":141.688884,"version":"13.0b/18.0a"},{"town":"こまどり二丁目","koaza":"","lat":45.391,"lng":141.689797,"version":"13.0b/18.0a"},{"town":"こまどり三丁目","koaza":"","lat":45.391403,"lng":141.686102,"version":"13.0b/18.0a"},{"town":"こまどり四丁目","koaza":"","lat":45.388015,"lng":141.686406,"version":"13.0b/18.0a"},{"town":"こまどり五丁目","koaza":"","lat":45.382506,"lng":141.686877,"version":"13.0b/18.0a"},{"town":"栄一丁目","koaza":"","lat":45.389843,"lng":141.694469,"version":"13.0b/18.0a"},{"town":"栄二丁目","koaza":"","lat":45.391544,"lng":141.700839,"version":"13.0b/18.0a"},{"town":"栄三丁目","koaza":"","lat":45.38975,"lng":141.700608,"version":"13.0b/18.0a"},{"town":"栄四丁目","koaza":"","lat":45.388122,"lng":141.700271,"version":"13.0b/18.0a"},{"town":"栄五丁目","koaza":"","lat":45.386793,"lng":141.700816,"version":"13.0b/18.0a"},{"town":"潮見一丁目","koaza":"","lat":45.394797,"lng":141.697418,"version":"13.0b/18.0a"},{"town":"潮見二丁目","koaza":"","lat":45.394569,"lng":141.700212,"version":"13.0b/18.0a"},{"town":"潮見三丁目","koaza":"","lat":45.394532,"lng":141.702632,"version":"13.0b/18.0a"},{"town":"潮見四丁目","koaza":"","lat":45.394461,"lng":141.705124,"version":"13.0b/18.0a"},{"town":"潮見五丁目","koaza":"","lat":45.394594,"lng":141.708821,"version":"13.0b/18.0a"},{"town":"新光町","koaza":"","lat":45.371441,"lng":141.695207,"version":"13.0b/18.0a"},{"town":"新末広町","koaza":"","lat":45.404074,"lng":141.68906,"version":"13.0b/18.0a"},{"town":"新港町","koaza":"","lat":45.406842,"lng":141.680909,"version":"13.0b/18.0a"},{"town":"末広一丁目","koaza":"","lat":45.40247,"lng":141.683703,"version":"13.0b/18.0a"},{"town":"末広二丁目","koaza":"","lat":45.400206,"lng":141.688893,"version":"13.0b/18.0a"},{"town":"末広三丁目","koaza":"","lat":45.401198,"lng":141.694944,"version":"13.0b/18.0a"},{"town":"末広四丁目","koaza":"","lat":45.401136,"lng":141.699764,"version":"13.0b/18.0a"},{"town":"末広五丁目","koaza":"","lat":45.400972,"lng":141.704,"version":"13.0b/18.0a"},{"town":"宗谷岬","koaza":"","lat":45.512988,"lng":141.945088,"version":"13.0b/18.0a"},{"town":"大黒一丁目","koaza":"","lat":45.399811,"lng":141.682713,"version":"13.0b/18.0a"},{"town":"大黒二丁目","koaza":"","lat":45.398378,"lng":141.685773,"version":"13.0b/18.0a"},{"town":"大黒三丁目","koaza":"","lat":45.397383,"lng":141.689144,"version":"13.0b/18.0a"},{"town":"大黒四丁目","koaza":"","lat":45.395984,"lng":141.691672,"version":"13.0b/18.0a"},{"town":"大黒五丁目","koaza":"","lat":45.395439,"lng":141.694768,"version":"13.0b/18.0a"},{"town":"中央一丁目","koaza":"","lat":45.419991,"lng":141.673864,"version":"13.0b/18.0a"},{"town":"中央二丁目","koaza":"","lat":45.418418,"lng":141.674318,"version":"13.0b/18.0a"},{"town":"中央三丁目","koaza":"","lat":45.415852,"lng":141.674643,"version":"13.0b/18.0a"},{"town":"中央四丁目","koaza":"","lat":45.413146,"lng":141.67533,"version":"13.0b/18.0a"},{"town":"中央五丁目","koaza":"","lat":45.410622,"lng":141.675045,"version":"13.0b/18.0a"},{"town":"富岡一丁目","koaza":"","lat":45.39155,"lng":141.713579,"version":"13.0b/18.0a"},{"town":"富岡二丁目","koaza":"","lat":45.392066,"lng":141.718129,"version":"13.0b/18.0a"},{"town":"富岡三丁目","koaza":"","lat":45.392526,"lng":141.722492,"version":"13.0b/18.0a"},{"town":"富岡四丁目","koaza":"","lat":45.387325,"lng":141.718787,"version":"13.0b/18.0a"},{"town":"富岡五丁目","koaza":"","lat":45.387162,"lng":141.72483,"version":"13.0b/18.0a"},{"town":"富岡六丁目","koaza":"","lat":45.391329,"lng":141.725911,"version":"13.0b/18.0a"},{"town":"西浜一丁目","koaza":"","lat":45.403793,"lng":141.636541,"version":"13.0b/18.0a"},{"town":"西浜二丁目","koaza":"","lat":45.390693,"lng":141.640505,"version":"13.0b/18.0a"},{"town":"西浜三丁目","koaza":"","lat":45.382656,"lng":141.64652,"version":"13.0b/18.0a"},{"town":"西浜四丁目","koaza":"","lat":45.375524,"lng":141.654209,"version":"13.0b/18.0a"},{"town":"ノシャップ","koaza":"","lat":45.440342,"lng":141.645834,"version":"13.0b/18.0a"},{"town":"ノシャップ一丁目","koaza":"","lat":45.444709,"lng":141.651805,"version":"13.0b/18.0a"},{"town":"ノシャップ二丁目","koaza":"","lat":45.447786,"lng":141.646607,"version":"13.0b/18.0a"},{"town":"ノシャップ三丁目","koaza":"","lat":45.444081,"lng":141.644698,"version":"13.0b/18.0a"},{"town":"ノシャップ四丁目","koaza":"","lat":45.439782,"lng":141.642675,"version":"13.0b/18.0a"},{"town":"ノシャップ五丁目","koaza":"","lat":45.436336,"lng":141.640009,"version":"13.0b/18.0a"},{"town":"萩見一丁目","koaza":"","lat":45.39162,"lng":141.704719,"version":"13.0b/18.0a"},{"town":"萩見二丁目","koaza":"","lat":45.388305,"lng":141.704772,"version":"13.0b/18.0a"},{"town":"萩見三丁目","koaza":"","lat":45.39182,"lng":141.709173,"version":"13.0b/18.0a"},{"town":"萩見四丁目","koaza":"","lat":45.389081,"lng":141.710309,"version":"13.0b/18.0a"},{"town":"萩見五丁目","koaza":"","lat":45.386735,"lng":141.711082,"version":"13.0b/18.0a"},{"town":"はまなす一丁目","koaza":"","lat":45.394703,"lng":141.713822,"version":"13.0b/18.0a"},{"town":"はまなす二丁目","koaza":"","lat":45.395351,"lng":141.719078,"version":"13.0b/18.0a"},{"town":"はまなす三丁目","koaza":"","lat":45.396027,"lng":141.724226,"version":"13.0b/18.0a"},{"town":"はまなす四丁目","koaza":"","lat":45.396787,"lng":141.7284,"version":"13.0b/18.0a"},{"town":"はまなす五丁目","koaza":"","lat":45.397347,"lng":141.73309,"version":"13.0b/18.0a"},{"town":"富士見一丁目","koaza":"","lat":45.431571,"lng":141.640551,"version":"13.0b/18.0a"},{"town":"富士見二丁目","koaza":"","lat":45.427617,"lng":141.639442,"version":"13.0b/18.0a"},{"town":"富士見三丁目","koaza":"","lat":45.424498,"lng":141.637843,"version":"13.0b/18.0a"},{"town":"富士見四丁目","koaza":"","lat":45.421054,"lng":141.637845,"version":"13.0b/18.0a"},{"town":"富士見五丁目","koaza":"","lat":45.415401,"lng":141.637442,"version":"13.0b/18.0a"},{"town":"宝来一丁目","koaza":"","lat":45.421191,"lng":141.672732,"version":"13.0b/18.0a"},{"town":"宝来二丁目","koaza":"","lat":45.42283,"lng":141.671736,"version":"13.0b/18.0a"},{"town":"宝来三丁目","koaza":"","lat":45.424869,"lng":141.670545,"version":"13.0b/18.0a"},{"town":"宝来四丁目","koaza":"","lat":45.427197,"lng":141.668712,"version":"13.0b/18.0a"},{"town":"宝来五丁目","koaza":"","lat":45.430201,"lng":141.666967,"version":"13.0b/18.0a"},{"town":"緑一丁目","koaza":"","lat":45.395818,"lng":141.684081,"version":"13.0b/18.0a"},{"town":"緑二丁目","koaza":"","lat":45.393723,"lng":141.681918,"version":"13.0b/18.0a"},{"town":"緑三丁目","koaza":"","lat":45.391408,"lng":141.681054,"version":"13.0b/18.0a"},{"town":"緑四丁目","koaza":"","lat":45.387773,"lng":141.679045,"version":"13.0b/18.0a"},{"town":"緑五丁目","koaza":"","lat":45.38396,"lng":141.676342,"version":"13.0b/18.0a"},{"town":"緑六丁目","koaza":"","lat":45.38104,"lng":141.668647,"version":"13.0b/18.0a"},{"town":"港一丁目","koaza":"","lat":45.408654,"lng":141.67522,"version":"13.0b/18.0a"},{"town":"港二丁目","koaza":"","lat":45.405938,"lng":141.675013,"version":"13.0b/18.0a"},{"town":"港三丁目","koaza":"","lat":45.403099,"lng":141.674608,"version":"13.0b/18.0a"},{"town":"港四丁目","koaza":"","lat":45.399857,"lng":141.67728,"version":"13.0b/18.0a"},{"town":"港五丁目","koaza":"","lat":45.402514,"lng":141.679217,"version":"13.0b/18.0a"},{"town":"若葉台","koaza":"","lat":45.378894,"lng":141.720844,"version":"13.0b/18.0a"},{"town":"若葉台一丁目","koaza":"","lat":45.384289,"lng":141.718898,"version":"13.0b/18.0a"},{"town":"若葉台二丁目","koaza":"","lat":45.38307,"lng":141.724825,"version":"13.0b/18.0a"},{"town":"若葉台三丁目","koaza":"","lat":45.381518,"lng":141.720704,"version":"13.0b/18.0a"},{"town":"朝日一丁目","koaza":"","lat":45.382922,"lng":141.707212,"version":"14.0b/19.0a"},{"town":"朝日二丁目","koaza":"","lat":45.384385,"lng":141.710786,"version":"14.0b/19.0a"},{"town":"朝日三丁目","koaza":"","lat":45.382696,"lng":141.712414,"version":"14.0b/19.0a"},{"town":"朝日四丁目","koaza":"","lat":45.378381,"lng":141.713341,"version":"14.0b/19.0a"},{"town":"朝日五丁目","koaza":"","lat":45.384304,"lng":141.70264,"version":"14.0b/19.0a"},{"town":"朝日六丁目","koaza":"","lat":45.379996,"lng":141.704546,"version":"14.0b/19.0a"},{"town":"恵比須一丁目","koaza":"","lat":45.43355,"lng":141.664503,"version":"14.0b/19.0a"},{"town":"恵比須二丁目","koaza":"","lat":45.435373,"lng":141.662175,"version":"14.0b/19.0a"},{"town":"恵比須三丁目","koaza":"","lat":45.437333,"lng":141.660402,"version":"14.0b/19.0a"},{"town":"恵比須四丁目","koaza":"","lat":45.438677,"lng":141.657005,"version":"14.0b/19.0a"},{"town":"恵比須五丁目","koaza":"","lat":45.440812,"lng":141.654899,"version":"14.0b/19.0a"},{"town":"大字声問村","koaza":"","lat":45.299825,"lng":141.834911,"version":"14.0b/19.0a"},{"town":"大字宗谷村","koaza":"","lat":45.420858,"lng":141.934731,"version":"14.0b/19.0a"},{"town":"大字抜海村","koaza":"","lat":45.256226,"lng":141.665065,"version":"14.0b/19.0a"},{"town":"大字稚内村","koaza":"","lat":45.38739,"lng":141.659489,"version":"14.0b/19.0a"},{"town":"開運一丁目","koaza":"","lat":45.419276,"lng":141.679249,"version":"14.0b/19.0a"},{"town":"開運二丁目","koaza":"","lat":45.416355,"lng":141.679614,"version":"14.0b/19.0a"},{"town":"声問一丁目","koaza":"","lat":45.401106,"lng":141.742734,"version":"14.0b/19.0a"},{"town":"声問二丁目","koaza":"","lat":45.409469,"lng":141.749775,"version":"14.0b/19.0a"},{"town":"声問三丁目","koaza":"","lat":45.406777,"lng":141.752391,"version":"14.0b/19.0a"},{"town":"声問四丁目","koaza":"","lat":45.403745,"lng":141.776252,"version":"14.0b/19.0a"},{"town":"声問五丁目","koaza":"","lat":45.398047,"lng":141.762075,"version":"14.0b/19.0a"},{"town":"こまどり一丁目","koaza":"","lat":45.393976,"lng":141.688884,"version":"14.0b/19.0a"},{"town":"こまどり二丁目","koaza":"","lat":45.391,"lng":141.689797,"version":"14.0b/19.0a"},{"town":"こまどり三丁目","koaza":"","lat":45.391403,"lng":141.686102,"version":"14.0b/19.0a"},{"town":"こまどり四丁目","koaza":"","lat":45.388015,"lng":141.686406,"version":"14.0b/19.0a"},{"town":"こまどり五丁目","koaza":"","lat":45.382506,"lng":141.686877,"version":"14.0b/19.0a"},{"town":"栄一丁目","koaza":"","lat":45.389843,"lng":141.694469,"version":"14.0b/19.0a"},{"town":"栄二丁目","koaza":"","lat":45.391544,"lng":141.700839,"version":"14.0b/19.0a"},{"town":"栄三丁目","koaza":"","lat":45.38975,"lng":141.700608,"version":"14.0b/19.0a"},{"town":"栄四丁目","koaza":"","lat":45.388122,"lng":141.700271,"version":"14.0b/19.0a"},{"town":"栄五丁目","koaza":"","lat":45.386793,"lng":141.700816,"version":"14.0b/19.0a"},{"town":"潮見一丁目","koaza":"","lat":45.394797,"lng":141.697418,"version":"14.0b/19.0a"},{"town":"潮見二丁目","koaza":"","lat":45.394569,"lng":141.700212,"version":"14.0b/19.0a"},{"town":"潮見三丁目","koaza":"","lat":45.394532,"lng":141.702632,"version":"14.0b/19.0a"},{"town":"潮見四丁目","koaza":"","lat":45.394461,"lng":141.705124,"version":"14.0b/19.0a"},{"town":"潮見五丁目","koaza":"","lat":45.394594,"lng":141.708821,"version":"14.0b/19.0a"},{"town":"新光町","koaza":"","lat":45.371441,"lng":141.695207,"version":"14.0b/19.0a"},{"town":"新末広町","koaza":"","lat":45.404074,"lng":141.68906,"version":"14.0b/19.0a"},{"town":"新港町","koaza":"","lat":45.406842,"lng":141.680909,"version":"14.0b/19.0a"},{"town":"末広一丁目","koaza":"","lat":45.40247,"lng":141.683703,"version":"14.0b/19.0a"},{"town":"末広二丁目","koaza":"","lat":45.400206,"lng":141.688893,"version":"14.0b/19.0a"},{"town":"末広三丁目","koaza":"","lat":45.401198,"lng":141.694944,"version":"14.0b/19.0a"},{"town":"末広四丁目","koaza":"","lat":45.401136,"lng":141.699764,"version":"14.0b/19.0a"},{"town":"末広五丁目","koaza":"","lat":45.400972,"lng":141.704,"version":"14.0b/19.0a"},{"town":"宗谷岬","koaza":"","lat":45.512988,"lng":141.945088,"version":"14.0b/19.0a"},{"town":"大黒一丁目","koaza":"","lat":45.399811,"lng":141.682713,"version":"14.0b/19.0a"},{"town":"大黒二丁目","koaza":"","lat":45.398378,"lng":141.685773,"version":"14.0b/19.0a"},{"town":"大黒三丁目","koaza":"","lat":45.397383,"lng":141.689144,"version":"14.0b/19.0a"},{"town":"大黒四丁目","koaza":"","lat":45.395984,"lng":141.691672,"version":"14.0b/19.0a"},{"town":"大黒五丁目","koaza":"","lat":45.395439,"lng":141.694768,"version":"14.0b/19.0a"},{"town":"中央一丁目","koaza":"","lat":45.419991,"lng":141.673864,"version":"14.0b/19.0a"},{"town":"中央二丁目","koaza":"","lat":45.418418,"lng":141.674318,"version":"14.0b/19.0a"},{"town":"中央三丁目","koaza":"","lat":45.415852,"lng":141.674643,"version":"14.0b/19.0a"},{"town":"中央四丁目","koaza":"","lat":45.413146,"lng":141.67533,"version":"14.0b/19.0a"},{"town":"中央五丁目","koaza":"","lat":45.410622,"lng":141.675045,"version":"14.0b/19.0a"},{"town":"富岡一丁目","koaza":"","lat":45.39155,"lng":141.713579,"version":"14.0b/19.0a"},{"town":"富岡二丁目","koaza":"","lat":45.392066,"lng":141.718129,"version":"14.0b/19.0a"},{"town":"富岡三丁目","koaza":"","lat":45.392526,"lng":141.722492,"version":"14.0b/19.0a"},{"town":"富岡四丁目","koaza":"","lat":45.387325,"lng":141.718787,"version":"14.0b/19.0a"},{"town":"富岡五丁目","koaza":"","lat":45.387162,"lng":141.72483,"version":"14.0b/19.0a"},{"town":"富岡六丁目","koaza":"","lat":45.391329,"lng":141.725911,"version":"14.0b/19.0a"},{"town":"西浜一丁目","koaza":"","lat":45.403793,"lng":141.636541,"version":"14.0b/19.0a"},{"town":"西浜二丁目","koaza":"","lat":45.390693,"lng":141.640505,"version":"14.0b/19.0a"},{"town":"西浜三丁目","koaza":"","lat":45.382656,"lng":141.64652,"version":"14.0b/19.0a"},{"town":"西浜四丁目","koaza":"","lat":45.375524,"lng":141.654209,"version":"14.0b/19.0a"},{"town":"ノシャップ","koaza":"","lat":45.440342,"lng":141.645834,"version":"14.0b/19.0a"},{"town":"ノシャップ一丁目","koaza":"","lat":45.444709,"lng":141.651805,"version":"14.0b/19.0a"},{"town":"ノシャップ二丁目","koaza":"","lat":45.447786,"lng":141.646607,"version":"14.0b/19.0a"},{"town":"ノシャップ三丁目","koaza":"","lat":45.444081,"lng":141.644698,"version":"14.0b/19.0a"},{"town":"ノシャップ四丁目","koaza":"","lat":45.439782,"lng":141.642675,"version":"14.0b/19.0a"},{"town":"ノシャップ五丁目","koaza":"","lat":45.436336,"lng":141.640009,"version":"14.0b/19.0a"},{"town":"萩見一丁目","koaza":"","lat":45.39162,"lng":141.704719,"version":"14.0b/19.0a"},{"town":"萩見二丁目","koaza":"","lat":45.388305,"lng":141.704772,"version":"14.0b/19.0a"},{"town":"萩見三丁目","koaza":"","lat":45.39182,"lng":141.709173,"version":"14.0b/19.0a"},{"town":"萩見四丁目","koaza":"","lat":45.389081,"lng":141.710309,"version":"14.0b/19.0a"},{"town":"萩見五丁目","koaza":"","lat":45.386735,"lng":141.711082,"version":"14.0b/19.0a"},{"town":"はまなす一丁目","koaza":"","lat":45.394703,"lng":141.713822,"version":"14.0b/19.0a"},{"town":"はまなす二丁目","koaza":"","lat":45.395351,"lng":141.719078,"version":"14.0b/19.0a"},{"town":"はまなす三丁目","koaza":"","lat":45.396027,"lng":141.724226,"version":"14.0b/19.0a"},{"town":"はまなす四丁目","koaza":"","lat":45.396787,"lng":141.7284,"version":"14.0b/19.0a"},{"town":"はまなす五丁目","koaza":"","lat":45.397347,"lng":141.73309,"version":"14.0b/19.0a"},{"town":"富士見一丁目","koaza":"","lat":45.431571,"lng":141.640551,"version":"14.0b/19.0a"},{"town":"富士見二丁目","koaza":"","lat":45.427617,"lng":141.639442,"version":"14.0b/19.0a"},{"town":"富士見三丁目","koaza":"","lat":45.424498,"lng":141.637843,"version":"14.0b/19.0a"},{"town":"富士見四丁目","koaza":"","lat":45.421054,"lng":141.637845,"version":"14.0b/19.0a"},{"town":"富士見五丁目","koaza":"","lat":45.415401,"lng":141.637442,"version":"14.0b/19.0a"},{"town":"宝来一丁目","koaza":"","lat":45.421191,"lng":141.672732,"version":"14.0b/19.0a"},{"town":"宝来二丁目","koaza":"","lat":45.42283,"lng":141.671736,"version":"14.0b/19.0a"},{"town":"宝来三丁目","koaza":"","lat":45.424869,"lng":141.670545,"version":"14.0b/19.0a"},{"town":"宝来四丁目","koaza":"","lat":45.427197,"lng":141.668712,"version":"14.0b/19.0a"},{"town":"宝来五丁目","koaza":"","lat":45.430201,"lng":141.666967,"version":"14.0b/19.0a"},{"town":"緑一丁目","koaza":"","lat":45.395818,"lng":141.684081,"version":"14.0b/19.0a"},{"town":"緑二丁目","koaza":"","lat":45.393723,"lng":141.681918,"version":"14.0b/19.0a"},{"town":"緑三丁目","koaza":"","lat":45.391408,"lng":141.681054,"version":"14.0b/19.0a"},{"town":"緑四丁目","koaza":"","lat":45.387773,"lng":141.679045,"version":"14.0b/19.0a"},{"town":"緑五丁目","koaza":"","lat":45.38396,"lng":141.676342,"version":"14.0b/19.0a"},{"town":"緑六丁目","koaza":"","lat":45.38104,"lng":141.668647,"version":"14.0b/19.0a"},{"town":"港一丁目","koaza":"","lat":45.408654,"lng":141.67522,"version":"14.0b/19.0a"},{"town":"港二丁目","koaza":"","lat":45.405938,"lng":141.675013,"version":"14.0b/19.0a"},{"town":"港三丁目","koaza":"","lat":45.403099,"lng":141.674608,"version":"14.0b/19.0a"},{"town":"港四丁目","koaza":"","lat":45.399857,"lng":141.67728,"version":"14.0b/19.0a"},{"town":"港五丁目","koaza":"","lat":45.402514,"lng":141.679217,"version":"14.0b/19.0a"},{"town":"若葉台","koaza":"","lat":45.378894,"lng":141.720844,"version":"14.0b/19.0a"},{"town":"若葉台一丁目","koaza":"","lat":45.384289,"lng":141.718898,"version":"14.0b/19.0a"},{"town":"若葉台二丁目","koaza":"","lat":45.38307,"lng":141.724825,"version":"14.0b/19.0a"},{"town":"若葉台三丁目","koaza":"","lat":45.381518,"lng":141.720704,"version":"14.0b/19.0a"}]