[{"town":"字一条通","koaza":"","lat":43.707604,"lng":144.020358,"version":"13.0b/18.0a"},{"town":"字相生","koaza":"","lat":43.513921,"lng":144.017001,"version":"13.0b/18.0a"},{"town":"字旭町","koaza":"","lat":43.708988,"lng":144.02847,"version":"13.0b/18.0a"},{"town":"字岩富","koaza":"","lat":43.750274,"lng":144.046522,"version":"13.0b/18.0a"},{"town":"字大通","koaza":"","lat":43.70768,"lng":144.023196,"version":"13.0b/18.0a"},{"town":"字恩根","koaza":"","lat":43.600399,"lng":144.075241,"version":"13.0b/18.0a"},{"town":"字柏町","koaza":"","lat":43.713547,"lng":144.024137,"version":"13.0b/18.0a"},{"town":"字活汲","koaza":"","lat":43.741852,"lng":144.067802,"version":"13.0b/18.0a"},{"town":"字上里","koaza":"","lat":43.577583,"lng":144.162392,"version":"13.0b/18.0a"},{"town":"字木樋","koaza":"","lat":43.600449,"lng":143.945947,"version":"13.0b/18.0a"},{"town":"字共和","koaza":"","lat":43.67744,"lng":144.014472,"version":"13.0b/18.0a"},{"town":"字幸町","koaza":"","lat":43.706,"lng":144.026221,"version":"13.0b/18.0a"},{"town":"字栄","koaza":"","lat":43.575038,"lng":144.045309,"version":"13.0b/18.0a"},{"town":"字新町","koaza":"","lat":43.711649,"lng":144.022323,"version":"13.0b/18.0a"},{"town":"字大昭","koaza":"","lat":43.619207,"lng":143.997147,"version":"13.0b/18.0a"},{"town":"字高台","koaza":"","lat":43.711671,"lng":144.050515,"version":"13.0b/18.0a"},{"town":"字達美","koaza":"","lat":43.718729,"lng":144.016402,"version":"13.0b/18.0a"},{"town":"字豊永","koaza":"","lat":43.690157,"lng":144.065377,"version":"13.0b/18.0a"},{"town":"字西二条","koaza":"","lat":43.706962,"lng":144.01988,"version":"13.0b/18.0a"},{"town":"字西三条","koaza":"","lat":43.706348,"lng":144.019282,"version":"13.0b/18.0a"},{"town":"字西四条","koaza":"","lat":43.705878,"lng":144.018818,"version":"13.0b/18.0a"},{"town":"字布川","koaza":"","lat":43.562013,"lng":143.961906,"version":"13.0b/18.0a"},{"town":"字沼沢","koaza":"","lat":43.628772,"lng":143.917096,"version":"13.0b/18.0a"},{"town":"字東二条","koaza":"","lat":43.708225,"lng":144.020593,"version":"13.0b/18.0a"},{"town":"字東三条","koaza":"","lat":43.708732,"lng":144.020935,"version":"13.0b/18.0a"},{"town":"字東四条","koaza":"","lat":43.709406,"lng":144.021123,"version":"13.0b/18.0a"},{"town":"字東岡","koaza":"","lat":43.697381,"lng":144.094833,"version":"13.0b/18.0a"},{"town":"字双葉","koaza":"","lat":43.657637,"lng":144.005138,"version":"13.0b/18.0a"},{"town":"字二又","koaza":"","lat":43.593056,"lng":143.844136,"version":"13.0b/18.0a"},{"town":"字本岐","koaza":"","lat":43.647056,"lng":143.984333,"version":"13.0b/18.0a"},{"town":"字本町","koaza":"","lat":43.704695,"lng":144.022568,"version":"13.0b/18.0a"},{"town":"字美都","koaza":"","lat":43.647863,"lng":144.094509,"version":"13.0b/18.0a"},{"town":"字緑町","koaza":"","lat":43.70763,"lng":144.01723,"version":"13.0b/18.0a"},{"town":"字最上","koaza":"","lat":43.690256,"lng":143.917565,"version":"13.0b/18.0a"},{"town":"字一条通","koaza":"","lat":43.707604,"lng":144.020358,"version":"14.0b/19.0a"},{"town":"字相生","koaza":"","lat":43.513921,"lng":144.017001,"version":"14.0b/19.0a"},{"town":"字旭町","koaza":"","lat":43.708988,"lng":144.02847,"version":"14.0b/19.0a"},{"town":"字岩富","koaza":"","lat":43.750274,"lng":144.046522,"version":"14.0b/19.0a"},{"town":"字大通","koaza":"","lat":43.70768,"lng":144.023196,"version":"14.0b/19.0a"},{"town":"字恩根","koaza":"","lat":43.600399,"lng":144.075241,"version":"14.0b/19.0a"},{"town":"字柏町","koaza":"","lat":43.713547,"lng":144.024137,"version":"14.0b/19.0a"},{"town":"字活汲","koaza":"","lat":43.741852,"lng":144.067802,"version":"14.0b/19.0a"},{"town":"字上里","koaza":"","lat":43.577583,"lng":144.162392,"version":"14.0b/19.0a"},{"town":"字木樋","koaza":"","lat":43.600449,"lng":143.945947,"version":"14.0b/19.0a"},{"town":"字共和","koaza":"","lat":43.67744,"lng":144.014472,"version":"14.0b/19.0a"},{"town":"字幸町","koaza":"","lat":43.706,"lng":144.026221,"version":"14.0b/19.0a"},{"town":"字栄","koaza":"","lat":43.575038,"lng":144.045309,"version":"14.0b/19.0a"},{"town":"字新町","koaza":"","lat":43.711649,"lng":144.022323,"version":"14.0b/19.0a"},{"town":"字大昭","koaza":"","lat":43.619207,"lng":143.997147,"version":"14.0b/19.0a"},{"town":"字高台","koaza":"","lat":43.711671,"lng":144.050515,"version":"14.0b/19.0a"},{"town":"字達美","koaza":"","lat":43.718729,"lng":144.016402,"version":"14.0b/19.0a"},{"town":"字豊永","koaza":"","lat":43.690157,"lng":144.065377,"version":"14.0b/19.0a"},{"town":"字西二条","koaza":"","lat":43.706962,"lng":144.01988,"version":"14.0b/19.0a"},{"town":"字西三条","koaza":"","lat":43.706348,"lng":144.019282,"version":"14.0b/19.0a"},{"town":"字西四条","koaza":"","lat":43.705878,"lng":144.018818,"version":"14.0b/19.0a"},{"town":"字布川","koaza":"","lat":43.562013,"lng":143.961906,"version":"14.0b/19.0a"},{"town":"字沼沢","koaza":"","lat":43.628772,"lng":143.917096,"version":"14.0b/19.0a"},{"town":"字東二条","koaza":"","lat":43.708225,"lng":144.020593,"version":"14.0b/19.0a"},{"town":"字東三条","koaza":"","lat":43.708732,"lng":144.020935,"version":"14.0b/19.0a"},{"town":"字東四条","koaza":"","lat":43.709406,"lng":144.021123,"version":"14.0b/19.0a"},{"town":"字東岡","koaza":"","lat":43.697381,"lng":144.094833,"version":"14.0b/19.0a"},{"town":"字双葉","koaza":"","lat":43.657637,"lng":144.005138,"version":"14.0b/19.0a"},{"town":"字二又","koaza":"","lat":43.593056,"lng":143.844136,"version":"14.0b/19.0a"},{"town":"字本岐","koaza":"","lat":43.647056,"lng":143.984333,"version":"14.0b/19.0a"},{"town":"字本町","koaza":"","lat":43.704695,"lng":144.022568,"version":"14.0b/19.0a"},{"town":"字美都","koaza":"","lat":43.647863,"lng":144.094509,"version":"14.0b/19.0a"},{"town":"字緑町","koaza":"","lat":43.70763,"lng":144.01723,"version":"14.0b/19.0a"},{"town":"字最上","koaza":"","lat":43.690256,"lng":143.917565,"version":"14.0b/19.0a"}]