[{"town":"旭町","koaza":"","lat":43.509189,"lng":142.227726,"version":"13.0b/18.0a"},{"town":"旭町油谷","koaza":"","lat":43.549812,"lng":142.237615,"version":"13.0b/18.0a"},{"town":"芦別","koaza":"","lat":43.370082,"lng":142.191518,"version":"13.0b/18.0a"},{"town":"泉","koaza":"","lat":43.378645,"lng":142.34332,"version":"13.0b/18.0a"},{"town":"上芦別町","koaza":"","lat":43.493035,"lng":142.202046,"version":"13.0b/18.0a"},{"town":"川岸","koaza":"","lat":43.427426,"lng":142.163049,"version":"13.0b/18.0a"},{"town":"北一条西一丁目","koaza":"","lat":43.518223,"lng":142.184778,"version":"13.0b/18.0a"},{"town":"北一条西二丁目","koaza":"","lat":43.51901,"lng":142.182425,"version":"13.0b/18.0a"},{"town":"北一条東一丁目","koaza":"","lat":43.518294,"lng":142.18836,"version":"13.0b/18.0a"},{"town":"北一条東二丁目","koaza":"","lat":43.518533,"lng":142.1918,"version":"13.0b/18.0a"},{"town":"北二条西一丁目","koaza":"","lat":43.520634,"lng":142.184087,"version":"13.0b/18.0a"},{"town":"北二条西二丁目","koaza":"","lat":43.520479,"lng":142.181006,"version":"13.0b/18.0a"},{"town":"北二条西三丁目","koaza":"","lat":43.520926,"lng":142.178965,"version":"13.0b/18.0a"},{"town":"北二条東一丁目","koaza":"","lat":43.52073,"lng":142.188011,"version":"13.0b/18.0a"},{"town":"北二条東二丁目","koaza":"","lat":43.521046,"lng":142.191437,"version":"13.0b/18.0a"},{"town":"北三条西一丁目","koaza":"","lat":43.522924,"lng":142.184087,"version":"13.0b/18.0a"},{"town":"北三条西二丁目","koaza":"","lat":43.522575,"lng":142.180689,"version":"13.0b/18.0a"},{"town":"北三条西三丁目","koaza":"","lat":43.522627,"lng":142.177505,"version":"13.0b/18.0a"},{"town":"北三条東一丁目","koaza":"","lat":43.523224,"lng":142.187648,"version":"13.0b/18.0a"},{"town":"北三条東二丁目","koaza":"","lat":43.523345,"lng":142.190602,"version":"13.0b/18.0a"},{"town":"北四条西一丁目","koaza":"","lat":43.525376,"lng":142.183156,"version":"13.0b/18.0a"},{"town":"北四条西二丁目","koaza":"","lat":43.525172,"lng":142.180295,"version":"13.0b/18.0a"},{"town":"北四条西三丁目","koaza":"","lat":43.524885,"lng":142.177114,"version":"13.0b/18.0a"},{"town":"北四条西四丁目","koaza":"","lat":43.524644,"lng":142.174702,"version":"13.0b/18.0a"},{"town":"北四条東一丁目","koaza":"","lat":43.525839,"lng":142.188279,"version":"13.0b/18.0a"},{"town":"北五条西一丁目","koaza":"","lat":43.528215,"lng":142.183088,"version":"13.0b/18.0a"},{"town":"北五条西二丁目","koaza":"","lat":43.527563,"lng":142.179962,"version":"13.0b/18.0a"},{"town":"北五条西三丁目","koaza":"","lat":43.527314,"lng":142.176514,"version":"13.0b/18.0a"},{"town":"北五条西四丁目","koaza":"","lat":43.526995,"lng":142.173046,"version":"13.0b/18.0a"},{"town":"北五条西五丁目","koaza":"","lat":43.52764,"lng":142.170322,"version":"13.0b/18.0a"},{"town":"北五条東一丁目","koaza":"","lat":43.528294,"lng":142.186696,"version":"13.0b/18.0a"},{"town":"北五条東二丁目","koaza":"","lat":43.528849,"lng":142.189897,"version":"13.0b/18.0a"},{"town":"北六条西一丁目","koaza":"","lat":43.529847,"lng":142.18343,"version":"13.0b/18.0a"},{"town":"北六条西二丁目","koaza":"","lat":43.529955,"lng":142.179846,"version":"13.0b/18.0a"},{"town":"北六条西三丁目","koaza":"","lat":43.529805,"lng":142.176114,"version":"13.0b/18.0a"},{"town":"北六条西四丁目","koaza":"","lat":43.529457,"lng":142.172615,"version":"13.0b/18.0a"},{"town":"北六条西五丁目","koaza":"","lat":43.529809,"lng":142.168887,"version":"13.0b/18.0a"},{"town":"北六条東一丁目","koaza":"","lat":43.530083,"lng":142.186601,"version":"13.0b/18.0a"},{"town":"北七条西二丁目","koaza":"","lat":43.531482,"lng":142.179398,"version":"13.0b/18.0a"},{"town":"北七条西三丁目","koaza":"","lat":43.532006,"lng":142.175759,"version":"13.0b/18.0a"},{"town":"北七条西四丁目","koaza":"","lat":43.532121,"lng":142.172167,"version":"13.0b/18.0a"},{"town":"北七条西五丁目","koaza":"","lat":43.532413,"lng":142.167104,"version":"13.0b/18.0a"},{"town":"北七条西六丁目","koaza":"","lat":43.533283,"lng":142.162498,"version":"13.0b/18.0a"},{"town":"黄金町","koaza":"","lat":43.584794,"lng":142.194246,"version":"13.0b/18.0a"},{"town":"新城町","koaza":"","lat":43.616243,"lng":142.201512,"version":"13.0b/18.0a"},{"town":"高根町","koaza":"","lat":43.524896,"lng":142.150738,"version":"13.0b/18.0a"},{"town":"滝里町","koaza":"","lat":43.418658,"lng":142.334896,"version":"13.0b/18.0a"},{"town":"常磐","koaza":"","lat":43.581129,"lng":142.130998,"version":"13.0b/18.0a"},{"town":"常磐町","koaza":"","lat":43.555005,"lng":142.154106,"version":"13.0b/18.0a"},{"town":"豊岡","koaza":"","lat":43.622775,"lng":142.130561,"version":"13.0b/18.0a"},{"town":"豊岡町","koaza":"","lat":43.608694,"lng":142.174306,"version":"13.0b/18.0a"},{"town":"中の丘町","koaza":"","lat":43.473181,"lng":142.167257,"version":"13.0b/18.0a"},{"town":"西芦別町","koaza":"","lat":43.488072,"lng":142.174188,"version":"13.0b/18.0a"},{"town":"野花南町","koaza":"","lat":43.472279,"lng":142.241679,"version":"13.0b/18.0a"},{"town":"東頼城町","koaza":"","lat":43.477641,"lng":142.172523,"version":"13.0b/18.0a"},{"town":"福住町","koaza":"","lat":43.548447,"lng":142.112874,"version":"13.0b/18.0a"},{"town":"幌内","koaza":"","lat":43.532494,"lng":142.258231,"version":"13.0b/18.0a"},{"town":"本町","koaza":"","lat":43.517135,"lng":142.170809,"version":"13.0b/18.0a"},{"town":"南一条西一丁目","koaza":"","lat":43.516072,"lng":142.186375,"version":"13.0b/18.0a"},{"town":"南一条東一丁目","koaza":"","lat":43.515335,"lng":142.188795,"version":"13.0b/18.0a"},{"town":"南一条東二丁目","koaza":"","lat":43.515852,"lng":142.192189,"version":"13.0b/18.0a"},{"town":"南二条東一丁目","koaza":"","lat":43.513226,"lng":142.19025,"version":"13.0b/18.0a"},{"town":"南二条東二丁目","koaza":"","lat":43.51309,"lng":142.192279,"version":"13.0b/18.0a"},{"town":"南二条東三丁目","koaza":"","lat":43.513803,"lng":142.19524,"version":"13.0b/18.0a"},{"town":"南三条東一丁目","koaza":"","lat":43.510712,"lng":142.19151,"version":"13.0b/18.0a"},{"town":"南三条東二丁目","koaza":"","lat":43.510721,"lng":142.193749,"version":"13.0b/18.0a"},{"town":"南三条東三丁目","koaza":"","lat":43.511367,"lng":142.19552,"version":"13.0b/18.0a"},{"town":"頼城町","koaza":"","lat":43.441356,"lng":142.15848,"version":"13.0b/18.0a"},{"town":"緑泉町","koaza":"","lat":43.463639,"lng":142.16853,"version":"13.0b/18.0a"},{"town":"旭町","koaza":"","lat":43.509189,"lng":142.227726,"version":"14.0b/19.0a"},{"town":"旭町油谷","koaza":"","lat":43.549812,"lng":142.237615,"version":"14.0b/19.0a"},{"town":"芦別","koaza":"","lat":43.370082,"lng":142.191518,"version":"14.0b/19.0a"},{"town":"泉","koaza":"","lat":43.378645,"lng":142.34332,"version":"14.0b/19.0a"},{"town":"上芦別町","koaza":"","lat":43.493035,"lng":142.202046,"version":"14.0b/19.0a"},{"town":"川岸","koaza":"","lat":43.427426,"lng":142.163049,"version":"14.0b/19.0a"},{"town":"北一条西一丁目","koaza":"","lat":43.518223,"lng":142.184778,"version":"14.0b/19.0a"},{"town":"北一条西二丁目","koaza":"","lat":43.51901,"lng":142.182425,"version":"14.0b/19.0a"},{"town":"北一条東一丁目","koaza":"","lat":43.518294,"lng":142.18836,"version":"14.0b/19.0a"},{"town":"北一条東二丁目","koaza":"","lat":43.518533,"lng":142.1918,"version":"14.0b/19.0a"},{"town":"北二条西一丁目","koaza":"","lat":43.520634,"lng":142.184087,"version":"14.0b/19.0a"},{"town":"北二条西二丁目","koaza":"","lat":43.520479,"lng":142.181006,"version":"14.0b/19.0a"},{"town":"北二条西三丁目","koaza":"","lat":43.520926,"lng":142.178965,"version":"14.0b/19.0a"},{"town":"北二条東一丁目","koaza":"","lat":43.52073,"lng":142.188011,"version":"14.0b/19.0a"},{"town":"北二条東二丁目","koaza":"","lat":43.521046,"lng":142.191437,"version":"14.0b/19.0a"},{"town":"北三条西一丁目","koaza":"","lat":43.522924,"lng":142.184087,"version":"14.0b/19.0a"},{"town":"北三条西二丁目","koaza":"","lat":43.522575,"lng":142.180689,"version":"14.0b/19.0a"},{"town":"北三条西三丁目","koaza":"","lat":43.522627,"lng":142.177505,"version":"14.0b/19.0a"},{"town":"北三条東一丁目","koaza":"","lat":43.523224,"lng":142.187648,"version":"14.0b/19.0a"},{"town":"北三条東二丁目","koaza":"","lat":43.523345,"lng":142.190602,"version":"14.0b/19.0a"},{"town":"北四条西一丁目","koaza":"","lat":43.525376,"lng":142.183156,"version":"14.0b/19.0a"},{"town":"北四条西二丁目","koaza":"","lat":43.525172,"lng":142.180295,"version":"14.0b/19.0a"},{"town":"北四条西三丁目","koaza":"","lat":43.524885,"lng":142.177114,"version":"14.0b/19.0a"},{"town":"北四条西四丁目","koaza":"","lat":43.524644,"lng":142.174702,"version":"14.0b/19.0a"},{"town":"北四条東一丁目","koaza":"","lat":43.525839,"lng":142.188279,"version":"14.0b/19.0a"},{"town":"北五条西一丁目","koaza":"","lat":43.528215,"lng":142.183088,"version":"14.0b/19.0a"},{"town":"北五条西二丁目","koaza":"","lat":43.527563,"lng":142.179962,"version":"14.0b/19.0a"},{"town":"北五条西三丁目","koaza":"","lat":43.527314,"lng":142.176514,"version":"14.0b/19.0a"},{"town":"北五条西四丁目","koaza":"","lat":43.526995,"lng":142.173046,"version":"14.0b/19.0a"},{"town":"北五条西五丁目","koaza":"","lat":43.52764,"lng":142.170322,"version":"14.0b/19.0a"},{"town":"北五条東一丁目","koaza":"","lat":43.528294,"lng":142.186696,"version":"14.0b/19.0a"},{"town":"北五条東二丁目","koaza":"","lat":43.528849,"lng":142.189897,"version":"14.0b/19.0a"},{"town":"北六条西一丁目","koaza":"","lat":43.529847,"lng":142.18343,"version":"14.0b/19.0a"},{"town":"北六条西二丁目","koaza":"","lat":43.529955,"lng":142.179846,"version":"14.0b/19.0a"},{"town":"北六条西三丁目","koaza":"","lat":43.529805,"lng":142.176114,"version":"14.0b/19.0a"},{"town":"北六条西四丁目","koaza":"","lat":43.529457,"lng":142.172615,"version":"14.0b/19.0a"},{"town":"北六条西五丁目","koaza":"","lat":43.529809,"lng":142.168887,"version":"14.0b/19.0a"},{"town":"北六条東一丁目","koaza":"","lat":43.530083,"lng":142.186601,"version":"14.0b/19.0a"},{"town":"北七条西二丁目","koaza":"","lat":43.531482,"lng":142.179398,"version":"14.0b/19.0a"},{"town":"北七条西三丁目","koaza":"","lat":43.532006,"lng":142.175759,"version":"14.0b/19.0a"},{"town":"北七条西四丁目","koaza":"","lat":43.532121,"lng":142.172167,"version":"14.0b/19.0a"},{"town":"北七条西五丁目","koaza":"","lat":43.532413,"lng":142.167104,"version":"14.0b/19.0a"},{"town":"北七条西六丁目","koaza":"","lat":43.533283,"lng":142.162498,"version":"14.0b/19.0a"},{"town":"黄金町","koaza":"","lat":43.584794,"lng":142.194246,"version":"14.0b/19.0a"},{"town":"新城町","koaza":"","lat":43.616243,"lng":142.201512,"version":"14.0b/19.0a"},{"town":"高根町","koaza":"","lat":43.524896,"lng":142.150738,"version":"14.0b/19.0a"},{"town":"滝里町","koaza":"","lat":43.418658,"lng":142.334896,"version":"14.0b/19.0a"},{"town":"常磐","koaza":"","lat":43.581129,"lng":142.130998,"version":"14.0b/19.0a"},{"town":"常磐町","koaza":"","lat":43.555005,"lng":142.154106,"version":"14.0b/19.0a"},{"town":"豊岡","koaza":"","lat":43.622775,"lng":142.130561,"version":"14.0b/19.0a"},{"town":"豊岡町","koaza":"","lat":43.608694,"lng":142.174306,"version":"14.0b/19.0a"},{"town":"中の丘町","koaza":"","lat":43.473181,"lng":142.167257,"version":"14.0b/19.0a"},{"town":"西芦別町","koaza":"","lat":43.488072,"lng":142.174188,"version":"14.0b/19.0a"},{"town":"野花南町","koaza":"","lat":43.472279,"lng":142.241679,"version":"14.0b/19.0a"},{"town":"東頼城町","koaza":"","lat":43.477641,"lng":142.172523,"version":"14.0b/19.0a"},{"town":"福住町","koaza":"","lat":43.548447,"lng":142.112874,"version":"14.0b/19.0a"},{"town":"幌内","koaza":"","lat":43.532494,"lng":142.258231,"version":"14.0b/19.0a"},{"town":"本町","koaza":"","lat":43.517135,"lng":142.170809,"version":"14.0b/19.0a"},{"town":"南一条西一丁目","koaza":"","lat":43.516072,"lng":142.186375,"version":"14.0b/19.0a"},{"town":"南一条東一丁目","koaza":"","lat":43.515335,"lng":142.188795,"version":"14.0b/19.0a"},{"town":"南一条東二丁目","koaza":"","lat":43.515852,"lng":142.192189,"version":"14.0b/19.0a"},{"town":"南二条東一丁目","koaza":"","lat":43.513226,"lng":142.19025,"version":"14.0b/19.0a"},{"town":"南二条東二丁目","koaza":"","lat":43.51309,"lng":142.192279,"version":"14.0b/19.0a"},{"town":"南二条東三丁目","koaza":"","lat":43.513803,"lng":142.19524,"version":"14.0b/19.0a"},{"town":"南三条東一丁目","koaza":"","lat":43.510712,"lng":142.19151,"version":"14.0b/19.0a"},{"town":"南三条東二丁目","koaza":"","lat":43.510721,"lng":142.193749,"version":"14.0b/19.0a"},{"town":"南三条東三丁目","koaza":"","lat":43.511367,"lng":142.19552,"version":"14.0b/19.0a"},{"town":"頼城町","koaza":"","lat":43.441356,"lng":142.15848,"version":"14.0b/19.0a"},{"town":"緑泉町","koaza":"","lat":43.463639,"lng":142.16853,"version":"14.0b/19.0a"}]