[{"town":"字曙","koaza":"","lat":44.36569,"lng":141.854673,"version":"13.0b/18.0a"},{"town":"字朝日","koaza":"","lat":44.350136,"lng":141.771792,"version":"13.0b/18.0a"},{"town":"字上築","koaza":"","lat":44.379717,"lng":141.787887,"version":"13.0b/18.0a"},{"town":"字上羽幌","koaza":"","lat":44.284979,"lng":141.944429,"version":"13.0b/18.0a"},{"town":"字汐見","koaza":"","lat":44.390721,"lng":141.715351,"version":"13.0b/18.0a"},{"town":"字平","koaza":"","lat":44.294718,"lng":141.806681,"version":"13.0b/18.0a"},{"town":"字高台","koaza":"","lat":44.386358,"lng":141.735515,"version":"13.0b/18.0a"},{"town":"字築別","koaza":"","lat":44.409712,"lng":141.756194,"version":"13.0b/18.0a"},{"town":"字築別炭砿","koaza":"","lat":44.409958,"lng":141.940652,"version":"13.0b/18.0a"},{"town":"字中央","koaza":"","lat":44.323894,"lng":141.751181,"version":"13.0b/18.0a"},{"town":"字羽幌砿","koaza":"","lat":44.35043,"lng":141.917874,"version":"13.0b/18.0a"},{"town":"大字天売","koaza":"","lat":44.427689,"lng":141.320501,"version":"13.0b/18.0a"},{"town":"大字焼尻","koaza":"","lat":44.436902,"lng":141.406818,"version":"13.0b/18.0a"},{"town":"北一条一丁目","koaza":"","lat":44.370228,"lng":141.70435,"version":"13.0b/18.0a"},{"town":"北一条二丁目","koaza":"","lat":44.371192,"lng":141.70554,"version":"13.0b/18.0a"},{"town":"北一条三丁目","koaza":"","lat":44.372097,"lng":141.706603,"version":"13.0b/18.0a"},{"town":"北一条四丁目","koaza":"","lat":44.373305,"lng":141.707689,"version":"13.0b/18.0a"},{"town":"北二条一丁目","koaza":"","lat":44.369651,"lng":141.705079,"version":"13.0b/18.0a"},{"town":"北二条二丁目","koaza":"","lat":44.370663,"lng":141.706348,"version":"13.0b/18.0a"},{"town":"北二条三丁目","koaza":"","lat":44.37158,"lng":141.707487,"version":"13.0b/18.0a"},{"town":"北二条四丁目","koaza":"","lat":44.372328,"lng":141.708411,"version":"13.0b/18.0a"},{"town":"北三条一丁目","koaza":"","lat":44.368127,"lng":141.707064,"version":"13.0b/18.0a"},{"town":"北三条二丁目","koaza":"","lat":44.369169,"lng":141.708399,"version":"13.0b/18.0a"},{"town":"北三条三丁目","koaza":"","lat":44.370105,"lng":141.709596,"version":"13.0b/18.0a"},{"town":"北三条四丁目","koaza":"","lat":44.370991,"lng":141.710713,"version":"13.0b/18.0a"},{"town":"北四条一丁目","koaza":"","lat":44.367231,"lng":141.708069,"version":"13.0b/18.0a"},{"town":"北四条二丁目","koaza":"","lat":44.368574,"lng":141.709578,"version":"13.0b/18.0a"},{"town":"北四条三丁目","koaza":"","lat":44.369426,"lng":141.710652,"version":"13.0b/18.0a"},{"town":"北四条四丁目","koaza":"","lat":44.370307,"lng":141.711752,"version":"13.0b/18.0a"},{"town":"北五条一丁目","koaza":"","lat":44.366664,"lng":141.709101,"version":"13.0b/18.0a"},{"town":"北五条二丁目","koaza":"","lat":44.367904,"lng":141.710637,"version":"13.0b/18.0a"},{"town":"北五条三丁目","koaza":"","lat":44.368749,"lng":141.711745,"version":"13.0b/18.0a"},{"town":"北五条四丁目","koaza":"","lat":44.369582,"lng":141.712882,"version":"13.0b/18.0a"},{"town":"北六条一丁目","koaza":"","lat":44.365948,"lng":141.709659,"version":"13.0b/18.0a"},{"town":"北六条二丁目","koaza":"","lat":44.367391,"lng":141.711446,"version":"13.0b/18.0a"},{"town":"北六条三丁目","koaza":"","lat":44.368252,"lng":141.712566,"version":"13.0b/18.0a"},{"town":"北六条四丁目","koaza":"","lat":44.369088,"lng":141.713673,"version":"13.0b/18.0a"},{"town":"北大通一丁目","koaza":"","lat":44.368893,"lng":141.705969,"version":"13.0b/18.0a"},{"town":"北大通二丁目","koaza":"","lat":44.369956,"lng":141.707427,"version":"13.0b/18.0a"},{"town":"北大通三丁目","koaza":"","lat":44.370809,"lng":141.708512,"version":"13.0b/18.0a"},{"town":"北大通四丁目","koaza":"","lat":44.371686,"lng":141.709638,"version":"13.0b/18.0a"},{"town":"北町","koaza":"","lat":44.37349,"lng":141.711577,"version":"13.0b/18.0a"},{"town":"寿町","koaza":"","lat":44.351566,"lng":141.724509,"version":"13.0b/18.0a"},{"town":"幸町","koaza":"","lat":44.362051,"lng":141.693303,"version":"13.0b/18.0a"},{"town":"栄町","koaza":"","lat":44.346289,"lng":141.702082,"version":"13.0b/18.0a"},{"town":"浜町一丁目","koaza":"","lat":44.371051,"lng":141.703534,"version":"13.0b/18.0a"},{"town":"浜町二丁目","koaza":"","lat":44.372972,"lng":141.702991,"version":"13.0b/18.0a"},{"town":"浜町三丁目","koaza":"","lat":44.373046,"lng":141.70495,"version":"13.0b/18.0a"},{"town":"浜町四丁目","koaza":"","lat":44.374276,"lng":141.705823,"version":"13.0b/18.0a"},{"town":"浜町五丁目","koaza":"","lat":44.375909,"lng":141.706365,"version":"13.0b/18.0a"},{"town":"緑町","koaza":"","lat":44.359574,"lng":141.707959,"version":"13.0b/18.0a"},{"town":"港町一丁目","koaza":"","lat":44.369887,"lng":141.702359,"version":"13.0b/18.0a"},{"town":"港町二丁目","koaza":"","lat":44.367857,"lng":141.698555,"version":"13.0b/18.0a"},{"town":"港町三丁目","koaza":"","lat":44.367457,"lng":141.696916,"version":"13.0b/18.0a"},{"town":"港町四丁目","koaza":"","lat":44.366857,"lng":141.695401,"version":"13.0b/18.0a"},{"town":"港町五丁目","koaza":"","lat":44.365737,"lng":141.694718,"version":"13.0b/18.0a"},{"town":"港町六丁目","koaza":"","lat":44.36488,"lng":141.693746,"version":"13.0b/18.0a"},{"town":"南一条一丁目","koaza":"","lat":44.368446,"lng":141.702118,"version":"13.0b/18.0a"},{"town":"南一条二丁目","koaza":"","lat":44.366853,"lng":141.700137,"version":"13.0b/18.0a"},{"town":"南一条三丁目","koaza":"","lat":44.366011,"lng":141.699094,"version":"13.0b/18.0a"},{"town":"南一条四丁目","koaza":"","lat":44.365161,"lng":141.698016,"version":"13.0b/18.0a"},{"town":"南一条五丁目","koaza":"","lat":44.364325,"lng":141.696958,"version":"13.0b/18.0a"},{"town":"南一条六丁目","koaza":"","lat":44.363482,"lng":141.695908,"version":"13.0b/18.0a"},{"town":"南二条一丁目","koaza":"","lat":44.367929,"lng":141.703049,"version":"13.0b/18.0a"},{"town":"南二条二丁目","koaza":"","lat":44.36634,"lng":141.70094,"version":"13.0b/18.0a"},{"town":"南二条三丁目","koaza":"","lat":44.365497,"lng":141.6999,"version":"13.0b/18.0a"},{"town":"南二条四丁目","koaza":"","lat":44.364646,"lng":141.698821,"version":"13.0b/18.0a"},{"town":"南二条五丁目","koaza":"","lat":44.363805,"lng":141.697767,"version":"13.0b/18.0a"},{"town":"南二条六丁目","koaza":"","lat":44.362966,"lng":141.696708,"version":"13.0b/18.0a"},{"town":"南三条一丁目","koaza":"","lat":44.366455,"lng":141.705008,"version":"13.0b/18.0a"},{"town":"南三条二丁目","koaza":"","lat":44.364946,"lng":141.703112,"version":"13.0b/18.0a"},{"town":"南三条三丁目","koaza":"","lat":44.364095,"lng":141.702047,"version":"13.0b/18.0a"},{"town":"南三条四丁目","koaza":"","lat":44.363242,"lng":141.700973,"version":"13.0b/18.0a"},{"town":"南三条五丁目","koaza":"","lat":44.362395,"lng":141.699911,"version":"13.0b/18.0a"},{"town":"南三条六丁目","koaza":"","lat":44.36155,"lng":141.698851,"version":"13.0b/18.0a"},{"town":"南四条一丁目","koaza":"","lat":44.365738,"lng":141.706019,"version":"13.0b/18.0a"},{"town":"南四条二丁目","koaza":"","lat":44.364274,"lng":141.704164,"version":"13.0b/18.0a"},{"town":"南四条三丁目","koaza":"","lat":44.363419,"lng":141.70309,"version":"13.0b/18.0a"},{"town":"南四条四丁目","koaza":"","lat":44.362407,"lng":141.701963,"version":"13.0b/18.0a"},{"town":"南四条五丁目","koaza":"","lat":44.36155,"lng":141.70135,"version":"13.0b/18.0a"},{"town":"南四条六丁目","koaza":"","lat":44.360912,"lng":141.699887,"version":"13.0b/18.0a"},{"town":"南五条一丁目","koaza":"","lat":44.365017,"lng":141.706821,"version":"13.0b/18.0a"},{"town":"南五条二丁目","koaza":"","lat":44.363596,"lng":141.70521,"version":"13.0b/18.0a"},{"town":"南五条三丁目","koaza":"","lat":44.36274,"lng":141.704133,"version":"13.0b/18.0a"},{"town":"南五条四丁目","koaza":"","lat":44.361899,"lng":141.703225,"version":"13.0b/18.0a"},{"town":"南五条五丁目","koaza":"","lat":44.360846,"lng":141.702285,"version":"13.0b/18.0a"},{"town":"南五条六丁目","koaza":"","lat":44.360223,"lng":141.700954,"version":"13.0b/18.0a"},{"town":"南六条一丁目","koaza":"","lat":44.364253,"lng":141.708012,"version":"13.0b/18.0a"},{"town":"南六条二丁目","koaza":"","lat":44.362905,"lng":141.7063,"version":"13.0b/18.0a"},{"town":"南六条三丁目","koaza":"","lat":44.362124,"lng":141.705325,"version":"13.0b/18.0a"},{"town":"南六条四丁目","koaza":"","lat":44.361077,"lng":141.704065,"version":"13.0b/18.0a"},{"town":"南六条五丁目","koaza":"","lat":44.36033,"lng":141.703179,"version":"13.0b/18.0a"},{"town":"南六条六丁目","koaza":"","lat":44.359658,"lng":141.702131,"version":"13.0b/18.0a"},{"town":"南七条一丁目","koaza":"","lat":44.363499,"lng":141.708901,"version":"13.0b/18.0a"},{"town":"南七条二丁目","koaza":"","lat":44.362241,"lng":141.7073,"version":"13.0b/18.0a"},{"town":"南七条三丁目","koaza":"","lat":44.361372,"lng":141.706233,"version":"13.0b/18.0a"},{"town":"南七条四丁目","koaza":"","lat":44.360504,"lng":141.705201,"version":"13.0b/18.0a"},{"town":"南七条五丁目","koaza":"","lat":44.359667,"lng":141.704132,"version":"13.0b/18.0a"},{"town":"南七条六丁目","koaza":"","lat":44.359082,"lng":141.703367,"version":"13.0b/18.0a"},{"town":"南大通一丁目","koaza":"","lat":44.367215,"lng":141.704009,"version":"13.0b/18.0a"},{"town":"南大通二丁目","koaza":"","lat":44.365645,"lng":141.70203,"version":"13.0b/18.0a"},{"town":"南大通三丁目","koaza":"","lat":44.364884,"lng":141.701087,"version":"13.0b/18.0a"},{"town":"南大通四丁目","koaza":"","lat":44.363945,"lng":141.699898,"version":"13.0b/18.0a"},{"town":"南大通五丁目","koaza":"","lat":44.363111,"lng":141.698864,"version":"13.0b/18.0a"},{"town":"南大通六丁目","koaza":"","lat":44.362268,"lng":141.697756,"version":"13.0b/18.0a"},{"town":"南町","koaza":"","lat":44.358303,"lng":141.698449,"version":"13.0b/18.0a"},{"town":"字曙","koaza":"","lat":44.36569,"lng":141.854673,"version":"14.0b/19.0a"},{"town":"字朝日","koaza":"","lat":44.350136,"lng":141.771792,"version":"14.0b/19.0a"},{"town":"字上築","koaza":"","lat":44.379717,"lng":141.787887,"version":"14.0b/19.0a"},{"town":"字上羽幌","koaza":"","lat":44.284979,"lng":141.944429,"version":"14.0b/19.0a"},{"town":"字汐見","koaza":"","lat":44.390721,"lng":141.715351,"version":"14.0b/19.0a"},{"town":"字平","koaza":"","lat":44.294718,"lng":141.806681,"version":"14.0b/19.0a"},{"town":"字高台","koaza":"","lat":44.386358,"lng":141.735515,"version":"14.0b/19.0a"},{"town":"字築別","koaza":"","lat":44.409712,"lng":141.756194,"version":"14.0b/19.0a"},{"town":"字築別炭砿","koaza":"","lat":44.409958,"lng":141.940652,"version":"14.0b/19.0a"},{"town":"字中央","koaza":"","lat":44.323894,"lng":141.751181,"version":"14.0b/19.0a"},{"town":"字羽幌砿","koaza":"","lat":44.35043,"lng":141.917874,"version":"14.0b/19.0a"},{"town":"大字天売","koaza":"","lat":44.427689,"lng":141.320501,"version":"14.0b/19.0a"},{"town":"大字焼尻","koaza":"","lat":44.436902,"lng":141.406818,"version":"14.0b/19.0a"},{"town":"北一条一丁目","koaza":"","lat":44.370228,"lng":141.70435,"version":"14.0b/19.0a"},{"town":"北一条二丁目","koaza":"","lat":44.371192,"lng":141.70554,"version":"14.0b/19.0a"},{"town":"北一条三丁目","koaza":"","lat":44.372097,"lng":141.706603,"version":"14.0b/19.0a"},{"town":"北一条四丁目","koaza":"","lat":44.373305,"lng":141.707689,"version":"14.0b/19.0a"},{"town":"北二条一丁目","koaza":"","lat":44.369651,"lng":141.705079,"version":"14.0b/19.0a"},{"town":"北二条二丁目","koaza":"","lat":44.370663,"lng":141.706348,"version":"14.0b/19.0a"},{"town":"北二条三丁目","koaza":"","lat":44.37158,"lng":141.707487,"version":"14.0b/19.0a"},{"town":"北二条四丁目","koaza":"","lat":44.372328,"lng":141.708411,"version":"14.0b/19.0a"},{"town":"北三条一丁目","koaza":"","lat":44.368127,"lng":141.707064,"version":"14.0b/19.0a"},{"town":"北三条二丁目","koaza":"","lat":44.369169,"lng":141.708399,"version":"14.0b/19.0a"},{"town":"北三条三丁目","koaza":"","lat":44.370105,"lng":141.709596,"version":"14.0b/19.0a"},{"town":"北三条四丁目","koaza":"","lat":44.370991,"lng":141.710713,"version":"14.0b/19.0a"},{"town":"北四条一丁目","koaza":"","lat":44.367231,"lng":141.708069,"version":"14.0b/19.0a"},{"town":"北四条二丁目","koaza":"","lat":44.368574,"lng":141.709578,"version":"14.0b/19.0a"},{"town":"北四条三丁目","koaza":"","lat":44.369426,"lng":141.710652,"version":"14.0b/19.0a"},{"town":"北四条四丁目","koaza":"","lat":44.370307,"lng":141.711752,"version":"14.0b/19.0a"},{"town":"北五条一丁目","koaza":"","lat":44.366664,"lng":141.709101,"version":"14.0b/19.0a"},{"town":"北五条二丁目","koaza":"","lat":44.367904,"lng":141.710637,"version":"14.0b/19.0a"},{"town":"北五条三丁目","koaza":"","lat":44.368749,"lng":141.711745,"version":"14.0b/19.0a"},{"town":"北五条四丁目","koaza":"","lat":44.369582,"lng":141.712882,"version":"14.0b/19.0a"},{"town":"北六条一丁目","koaza":"","lat":44.365948,"lng":141.709659,"version":"14.0b/19.0a"},{"town":"北六条二丁目","koaza":"","lat":44.367391,"lng":141.711446,"version":"14.0b/19.0a"},{"town":"北六条三丁目","koaza":"","lat":44.368252,"lng":141.712566,"version":"14.0b/19.0a"},{"town":"北六条四丁目","koaza":"","lat":44.369088,"lng":141.713673,"version":"14.0b/19.0a"},{"town":"北大通一丁目","koaza":"","lat":44.368893,"lng":141.705969,"version":"14.0b/19.0a"},{"town":"北大通二丁目","koaza":"","lat":44.369956,"lng":141.707427,"version":"14.0b/19.0a"},{"town":"北大通三丁目","koaza":"","lat":44.370809,"lng":141.708512,"version":"14.0b/19.0a"},{"town":"北大通四丁目","koaza":"","lat":44.371686,"lng":141.709638,"version":"14.0b/19.0a"},{"town":"北町","koaza":"","lat":44.37349,"lng":141.711577,"version":"14.0b/19.0a"},{"town":"寿町","koaza":"","lat":44.351566,"lng":141.724509,"version":"14.0b/19.0a"},{"town":"幸町","koaza":"","lat":44.362051,"lng":141.693303,"version":"14.0b/19.0a"},{"town":"栄町","koaza":"","lat":44.346289,"lng":141.702082,"version":"14.0b/19.0a"},{"town":"浜町一丁目","koaza":"","lat":44.371051,"lng":141.703534,"version":"14.0b/19.0a"},{"town":"浜町二丁目","koaza":"","lat":44.372972,"lng":141.702991,"version":"14.0b/19.0a"},{"town":"浜町三丁目","koaza":"","lat":44.373046,"lng":141.70495,"version":"14.0b/19.0a"},{"town":"浜町四丁目","koaza":"","lat":44.374276,"lng":141.705823,"version":"14.0b/19.0a"},{"town":"浜町五丁目","koaza":"","lat":44.375909,"lng":141.706365,"version":"14.0b/19.0a"},{"town":"緑町","koaza":"","lat":44.359574,"lng":141.707959,"version":"14.0b/19.0a"},{"town":"港町一丁目","koaza":"","lat":44.369887,"lng":141.702359,"version":"14.0b/19.0a"},{"town":"港町二丁目","koaza":"","lat":44.367857,"lng":141.698555,"version":"14.0b/19.0a"},{"town":"港町三丁目","koaza":"","lat":44.367457,"lng":141.696916,"version":"14.0b/19.0a"},{"town":"港町四丁目","koaza":"","lat":44.366857,"lng":141.695401,"version":"14.0b/19.0a"},{"town":"港町五丁目","koaza":"","lat":44.365737,"lng":141.694718,"version":"14.0b/19.0a"},{"town":"港町六丁目","koaza":"","lat":44.36488,"lng":141.693746,"version":"14.0b/19.0a"},{"town":"南一条一丁目","koaza":"","lat":44.368446,"lng":141.702118,"version":"14.0b/19.0a"},{"town":"南一条二丁目","koaza":"","lat":44.366853,"lng":141.700137,"version":"14.0b/19.0a"},{"town":"南一条三丁目","koaza":"","lat":44.366011,"lng":141.699094,"version":"14.0b/19.0a"},{"town":"南一条四丁目","koaza":"","lat":44.365161,"lng":141.698016,"version":"14.0b/19.0a"},{"town":"南一条五丁目","koaza":"","lat":44.364325,"lng":141.696958,"version":"14.0b/19.0a"},{"town":"南一条六丁目","koaza":"","lat":44.363482,"lng":141.695908,"version":"14.0b/19.0a"},{"town":"南二条一丁目","koaza":"","lat":44.367929,"lng":141.703049,"version":"14.0b/19.0a"},{"town":"南二条二丁目","koaza":"","lat":44.36634,"lng":141.70094,"version":"14.0b/19.0a"},{"town":"南二条三丁目","koaza":"","lat":44.365497,"lng":141.6999,"version":"14.0b/19.0a"},{"town":"南二条四丁目","koaza":"","lat":44.364646,"lng":141.698821,"version":"14.0b/19.0a"},{"town":"南二条五丁目","koaza":"","lat":44.363805,"lng":141.697767,"version":"14.0b/19.0a"},{"town":"南二条六丁目","koaza":"","lat":44.362966,"lng":141.696708,"version":"14.0b/19.0a"},{"town":"南三条一丁目","koaza":"","lat":44.366455,"lng":141.705008,"version":"14.0b/19.0a"},{"town":"南三条二丁目","koaza":"","lat":44.364946,"lng":141.703112,"version":"14.0b/19.0a"},{"town":"南三条三丁目","koaza":"","lat":44.364095,"lng":141.702047,"version":"14.0b/19.0a"},{"town":"南三条四丁目","koaza":"","lat":44.363242,"lng":141.700973,"version":"14.0b/19.0a"},{"town":"南三条五丁目","koaza":"","lat":44.362395,"lng":141.699911,"version":"14.0b/19.0a"},{"town":"南三条六丁目","koaza":"","lat":44.36155,"lng":141.698851,"version":"14.0b/19.0a"},{"town":"南四条一丁目","koaza":"","lat":44.365738,"lng":141.706019,"version":"14.0b/19.0a"},{"town":"南四条二丁目","koaza":"","lat":44.364274,"lng":141.704164,"version":"14.0b/19.0a"},{"town":"南四条三丁目","koaza":"","lat":44.363419,"lng":141.70309,"version":"14.0b/19.0a"},{"town":"南四条四丁目","koaza":"","lat":44.362407,"lng":141.701963,"version":"14.0b/19.0a"},{"town":"南四条五丁目","koaza":"","lat":44.36155,"lng":141.70135,"version":"14.0b/19.0a"},{"town":"南四条六丁目","koaza":"","lat":44.360912,"lng":141.699887,"version":"14.0b/19.0a"},{"town":"南五条一丁目","koaza":"","lat":44.365017,"lng":141.706821,"version":"14.0b/19.0a"},{"town":"南五条二丁目","koaza":"","lat":44.363596,"lng":141.70521,"version":"14.0b/19.0a"},{"town":"南五条三丁目","koaza":"","lat":44.36274,"lng":141.704133,"version":"14.0b/19.0a"},{"town":"南五条四丁目","koaza":"","lat":44.361899,"lng":141.703225,"version":"14.0b/19.0a"},{"town":"南五条五丁目","koaza":"","lat":44.360846,"lng":141.702285,"version":"14.0b/19.0a"},{"town":"南五条六丁目","koaza":"","lat":44.360223,"lng":141.700954,"version":"14.0b/19.0a"},{"town":"南六条一丁目","koaza":"","lat":44.364253,"lng":141.708012,"version":"14.0b/19.0a"},{"town":"南六条二丁目","koaza":"","lat":44.362905,"lng":141.7063,"version":"14.0b/19.0a"},{"town":"南六条三丁目","koaza":"","lat":44.362124,"lng":141.705325,"version":"14.0b/19.0a"},{"town":"南六条四丁目","koaza":"","lat":44.361077,"lng":141.704065,"version":"14.0b/19.0a"},{"town":"南六条五丁目","koaza":"","lat":44.36033,"lng":141.703179,"version":"14.0b/19.0a"},{"town":"南六条六丁目","koaza":"","lat":44.359658,"lng":141.702131,"version":"14.0b/19.0a"},{"town":"南七条一丁目","koaza":"","lat":44.363499,"lng":141.708901,"version":"14.0b/19.0a"},{"town":"南七条二丁目","koaza":"","lat":44.362241,"lng":141.7073,"version":"14.0b/19.0a"},{"town":"南七条三丁目","koaza":"","lat":44.361372,"lng":141.706233,"version":"14.0b/19.0a"},{"town":"南七条四丁目","koaza":"","lat":44.360504,"lng":141.705201,"version":"14.0b/19.0a"},{"town":"南七条五丁目","koaza":"","lat":44.359667,"lng":141.704132,"version":"14.0b/19.0a"},{"town":"南七条六丁目","koaza":"","lat":44.359082,"lng":141.703367,"version":"14.0b/19.0a"},{"town":"南大通一丁目","koaza":"","lat":44.367215,"lng":141.704009,"version":"14.0b/19.0a"},{"town":"南大通二丁目","koaza":"","lat":44.365645,"lng":141.70203,"version":"14.0b/19.0a"},{"town":"南大通三丁目","koaza":"","lat":44.364884,"lng":141.701087,"version":"14.0b/19.0a"},{"town":"南大通四丁目","koaza":"","lat":44.363945,"lng":141.699898,"version":"14.0b/19.0a"},{"town":"南大通五丁目","koaza":"","lat":44.363111,"lng":141.698864,"version":"14.0b/19.0a"},{"town":"南大通六丁目","koaza":"","lat":44.362268,"lng":141.697756,"version":"14.0b/19.0a"},{"town":"南町","koaza":"","lat":44.358303,"lng":141.698449,"version":"14.0b/19.0a"}]