[{"town":"字相川","koaza":"","lat":42.787224,"lng":140.919017,"version":"13.0b/18.0a"},{"town":"字金山","koaza":"","lat":42.724794,"lng":141.02162,"version":"13.0b/18.0a"},{"town":"字川上","koaza":"","lat":42.856793,"lng":141.052958,"version":"13.0b/18.0a"},{"town":"字喜茂別","koaza":"","lat":42.795901,"lng":140.936994,"version":"13.0b/18.0a"},{"town":"字栄","koaza":"","lat":42.812357,"lng":140.999473,"version":"13.0b/18.0a"},{"town":"字尻別","koaza":"","lat":42.771224,"lng":140.935274,"version":"13.0b/18.0a"},{"town":"字鈴川","koaza":"","lat":42.765315,"lng":140.99234,"version":"13.0b/18.0a"},{"town":"字壮園","koaza":"","lat":42.73925,"lng":141.02676,"version":"13.0b/18.0a"},{"town":"字知来別","koaza":"","lat":42.784201,"lng":141.006769,"version":"13.0b/18.0a"},{"town":"字中里","koaza":"","lat":42.755457,"lng":141.017639,"version":"13.0b/18.0a"},{"town":"字花丘","koaza":"","lat":42.781321,"lng":141.050666,"version":"13.0b/18.0a"},{"town":"字比羅岡","koaza":"","lat":42.804753,"lng":140.870346,"version":"13.0b/18.0a"},{"town":"字福丘","koaza":"","lat":42.754116,"lng":140.961088,"version":"13.0b/18.0a"},{"town":"字福島","koaza":"","lat":42.824587,"lng":141.036625,"version":"13.0b/18.0a"},{"town":"字伏見","koaza":"","lat":42.800899,"lng":140.967834,"version":"13.0b/18.0a"},{"town":"字富士見台","koaza":"","lat":42.781593,"lng":140.971643,"version":"13.0b/18.0a"},{"town":"字双葉","koaza":"","lat":42.764931,"lng":141.071897,"version":"13.0b/18.0a"},{"town":"字御園","koaza":"","lat":42.740722,"lng":140.995187,"version":"13.0b/18.0a"},{"town":"字留産","koaza":"","lat":42.795167,"lng":140.90159,"version":"13.0b/18.0a"},{"town":"字相川","koaza":"","lat":42.787224,"lng":140.919017,"version":"14.0b/19.0a"},{"town":"字金山","koaza":"","lat":42.724794,"lng":141.02162,"version":"14.0b/19.0a"},{"town":"字川上","koaza":"","lat":42.856793,"lng":141.052958,"version":"14.0b/19.0a"},{"town":"字喜茂別","koaza":"","lat":42.795901,"lng":140.936994,"version":"14.0b/19.0a"},{"town":"字栄","koaza":"","lat":42.812357,"lng":140.999473,"version":"14.0b/19.0a"},{"town":"字尻別","koaza":"","lat":42.771224,"lng":140.935274,"version":"14.0b/19.0a"},{"town":"字鈴川","koaza":"","lat":42.765315,"lng":140.99234,"version":"14.0b/19.0a"},{"town":"字壮園","koaza":"","lat":42.73925,"lng":141.02676,"version":"14.0b/19.0a"},{"town":"字知来別","koaza":"","lat":42.784201,"lng":141.006769,"version":"14.0b/19.0a"},{"town":"字中里","koaza":"","lat":42.755457,"lng":141.017639,"version":"14.0b/19.0a"},{"town":"字花丘","koaza":"","lat":42.781321,"lng":141.050666,"version":"14.0b/19.0a"},{"town":"字比羅岡","koaza":"","lat":42.804753,"lng":140.870346,"version":"14.0b/19.0a"},{"town":"字福丘","koaza":"","lat":42.754116,"lng":140.961088,"version":"14.0b/19.0a"},{"town":"字福島","koaza":"","lat":42.824587,"lng":141.036625,"version":"14.0b/19.0a"},{"town":"字伏見","koaza":"","lat":42.800899,"lng":140.967834,"version":"14.0b/19.0a"},{"town":"字富士見台","koaza":"","lat":42.781593,"lng":140.971643,"version":"14.0b/19.0a"},{"town":"字双葉","koaza":"","lat":42.764931,"lng":141.071897,"version":"14.0b/19.0a"},{"town":"字御園","koaza":"","lat":42.740722,"lng":140.995187,"version":"14.0b/19.0a"},{"town":"字留産","koaza":"","lat":42.795167,"lng":140.90159,"version":"14.0b/19.0a"}]