[{"town":"字赤平","koaza":"","lat":43.540658,"lng":142.048219,"version":"13.0b/18.0a"},{"town":"字豊里","koaza":"","lat":43.560154,"lng":142.05504,"version":"13.0b/18.0a"},{"town":"字茂尻","koaza":"","lat":43.510733,"lng":142.09303,"version":"13.0b/18.0a"},{"town":"泉町一丁目","koaza":"","lat":43.55621,"lng":142.046923,"version":"13.0b/18.0a"},{"town":"泉町二丁目","koaza":"","lat":43.557722,"lng":142.046225,"version":"13.0b/18.0a"},{"town":"泉町三丁目","koaza":"","lat":43.559061,"lng":142.046126,"version":"13.0b/18.0a"},{"town":"泉町四丁目","koaza":"","lat":43.558411,"lng":142.042631,"version":"13.0b/18.0a"},{"town":"エルム町","koaza":"","lat":43.572391,"lng":142.072977,"version":"13.0b/18.0a"},{"town":"大町一丁目","koaza":"","lat":43.553357,"lng":142.053089,"version":"13.0b/18.0a"},{"town":"大町二丁目","koaza":"","lat":43.55526,"lng":142.051775,"version":"13.0b/18.0a"},{"town":"大町三丁目","koaza":"","lat":43.554299,"lng":142.053828,"version":"13.0b/18.0a"},{"town":"大町四丁目","koaza":"","lat":43.554228,"lng":142.056489,"version":"13.0b/18.0a"},{"town":"北文京町一丁目","koaza":"","lat":43.567608,"lng":142.042918,"version":"13.0b/18.0a"},{"town":"北文京町二丁目","koaza":"","lat":43.567801,"lng":142.045816,"version":"13.0b/18.0a"},{"town":"北文京町三丁目","koaza":"","lat":43.565593,"lng":142.047765,"version":"13.0b/18.0a"},{"town":"北文京町四丁目","koaza":"","lat":43.566985,"lng":142.049394,"version":"13.0b/18.0a"},{"town":"北文京町五丁目","koaza":"","lat":43.568542,"lng":142.049906,"version":"13.0b/18.0a"},{"town":"共和町","koaza":"","lat":43.59495,"lng":142.010065,"version":"13.0b/18.0a"},{"town":"幸町一丁目","koaza":"","lat":43.566095,"lng":142.033431,"version":"13.0b/18.0a"},{"town":"幸町二丁目","koaza":"","lat":43.567307,"lng":142.033042,"version":"13.0b/18.0a"},{"town":"幸町三丁目","koaza":"","lat":43.568045,"lng":142.033292,"version":"13.0b/18.0a"},{"town":"幸町四丁目","koaza":"","lat":43.569707,"lng":142.032701,"version":"13.0b/18.0a"},{"town":"幸町五丁目","koaza":"","lat":43.56889,"lng":142.034396,"version":"13.0b/18.0a"},{"town":"幸町六丁目","koaza":"","lat":43.566769,"lng":142.03558,"version":"13.0b/18.0a"},{"town":"幸町七丁目","koaza":"","lat":43.568323,"lng":142.038114,"version":"13.0b/18.0a"},{"town":"桜木町一丁目","koaza":"","lat":43.562178,"lng":142.030969,"version":"13.0b/18.0a"},{"town":"桜木町二丁目","koaza":"","lat":43.563096,"lng":142.030162,"version":"13.0b/18.0a"},{"town":"桜木町三丁目","koaza":"","lat":43.563835,"lng":142.029447,"version":"13.0b/18.0a"},{"town":"桜木町四丁目","koaza":"","lat":43.563378,"lng":142.02843,"version":"13.0b/18.0a"},{"town":"桜木町五丁目","koaza":"","lat":43.562717,"lng":142.026874,"version":"13.0b/18.0a"},{"town":"昭和町一丁目","koaza":"","lat":43.563005,"lng":142.032142,"version":"13.0b/18.0a"},{"town":"昭和町二丁目","koaza":"","lat":43.564682,"lng":142.030921,"version":"13.0b/18.0a"},{"town":"昭和町三丁目","koaza":"","lat":43.566354,"lng":142.03072,"version":"13.0b/18.0a"},{"town":"昭和町四丁目","koaza":"","lat":43.568882,"lng":142.030398,"version":"13.0b/18.0a"},{"town":"昭和町五丁目","koaza":"","lat":43.568128,"lng":142.026877,"version":"13.0b/18.0a"},{"town":"昭和町六丁目","koaza":"","lat":43.567262,"lng":142.023009,"version":"13.0b/18.0a"},{"town":"住吉町","koaza":"","lat":43.547418,"lng":141.998604,"version":"13.0b/18.0a"},{"town":"豊丘町一丁目","koaza":"","lat":43.564697,"lng":142.047613,"version":"13.0b/18.0a"},{"town":"豊丘町二丁目","koaza":"","lat":43.565279,"lng":142.050311,"version":"13.0b/18.0a"},{"town":"豊丘町三丁目","koaza":"","lat":43.566549,"lng":142.053223,"version":"13.0b/18.0a"},{"town":"錦町一丁目","koaza":"","lat":43.556007,"lng":142.04885,"version":"13.0b/18.0a"},{"town":"錦町二丁目","koaza":"","lat":43.557201,"lng":142.049416,"version":"13.0b/18.0a"},{"town":"錦町三丁目","koaza":"","lat":43.558883,"lng":142.050218,"version":"13.0b/18.0a"},{"town":"西豊里町","koaza":"","lat":43.578955,"lng":142.050809,"version":"13.0b/18.0a"},{"town":"西文京町一丁目","koaza":"","lat":43.561246,"lng":142.039884,"version":"13.0b/18.0a"},{"town":"西文京町二丁目","koaza":"","lat":43.562856,"lng":142.040435,"version":"13.0b/18.0a"},{"town":"西文京町三丁目","koaza":"","lat":43.563978,"lng":142.040422,"version":"13.0b/18.0a"},{"town":"西文京町四丁目","koaza":"","lat":43.565125,"lng":142.040855,"version":"13.0b/18.0a"},{"town":"西文京町五丁目","koaza":"","lat":43.566713,"lng":142.04153,"version":"13.0b/18.0a"},{"town":"東大町一丁目","koaza":"","lat":43.550734,"lng":142.056977,"version":"13.0b/18.0a"},{"town":"東大町二丁目","koaza":"","lat":43.54934,"lng":142.058601,"version":"13.0b/18.0a"},{"town":"東大町三丁目","koaza":"","lat":43.55191,"lng":142.058012,"version":"13.0b/18.0a"},{"town":"東豊里町","koaza":"","lat":43.568693,"lng":142.061909,"version":"13.0b/18.0a"},{"town":"東文京町一丁目","koaza":"","lat":43.560733,"lng":142.045106,"version":"13.0b/18.0a"},{"town":"東文京町二丁目","koaza":"","lat":43.562364,"lng":142.044875,"version":"13.0b/18.0a"},{"town":"東文京町三丁目","koaza":"","lat":43.563585,"lng":142.044744,"version":"13.0b/18.0a"},{"town":"東文京町四丁目","koaza":"","lat":43.5652,"lng":142.044277,"version":"13.0b/18.0a"},{"town":"百戸町北","koaza":"","lat":43.596644,"lng":142.097397,"version":"13.0b/18.0a"},{"town":"百戸町西一丁目","koaza":"","lat":43.546114,"lng":142.080239,"version":"13.0b/18.0a"},{"town":"百戸町西二丁目","koaza":"","lat":43.542727,"lng":142.081842,"version":"13.0b/18.0a"},{"town":"百戸町西三丁目","koaza":"","lat":43.543823,"lng":142.079622,"version":"13.0b/18.0a"},{"town":"百戸町西四丁目","koaza":"","lat":43.542007,"lng":142.079321,"version":"13.0b/18.0a"},{"town":"百戸町西五丁目","koaza":"","lat":43.542811,"lng":142.077611,"version":"13.0b/18.0a"},{"town":"百戸町西六丁目","koaza":"","lat":43.544636,"lng":142.072674,"version":"13.0b/18.0a"},{"town":"百戸町東一丁目","koaza":"","lat":43.545954,"lng":142.084164,"version":"13.0b/18.0a"},{"town":"百戸町東二丁目","koaza":"","lat":43.545591,"lng":142.089272,"version":"13.0b/18.0a"},{"town":"百戸町東三丁目","koaza":"","lat":43.545406,"lng":142.096406,"version":"13.0b/18.0a"},{"town":"百戸町東四丁目","koaza":"","lat":43.542737,"lng":142.086373,"version":"13.0b/18.0a"},{"town":"百戸町東五丁目","koaza":"","lat":43.542214,"lng":142.091831,"version":"13.0b/18.0a"},{"town":"平岸曙町一丁目","koaza":"","lat":43.540383,"lng":142.118276,"version":"13.0b/18.0a"},{"town":"平岸曙町二丁目","koaza":"","lat":43.539238,"lng":142.118435,"version":"13.0b/18.0a"},{"town":"平岸曙町三丁目","koaza":"","lat":43.537499,"lng":142.118426,"version":"13.0b/18.0a"},{"town":"平岸曙町四丁目","koaza":"","lat":43.537099,"lng":142.115004,"version":"13.0b/18.0a"},{"town":"平岸曙町五丁目","koaza":"","lat":43.538906,"lng":142.115418,"version":"13.0b/18.0a"},{"town":"平岸曙町六丁目","koaza":"","lat":43.540293,"lng":142.114839,"version":"13.0b/18.0a"},{"town":"平岸桂町","koaza":"","lat":43.537099,"lng":142.102049,"version":"13.0b/18.0a"},{"town":"平岸新光町一丁目","koaza":"","lat":43.541181,"lng":142.116512,"version":"13.0b/18.0a"},{"town":"平岸新光町二丁目","koaza":"","lat":43.542039,"lng":142.118372,"version":"13.0b/18.0a"},{"town":"平岸新光町三丁目","koaza":"","lat":43.543411,"lng":142.118308,"version":"13.0b/18.0a"},{"town":"平岸新光町四丁目","koaza":"","lat":43.542758,"lng":142.115864,"version":"13.0b/18.0a"},{"town":"平岸新光町五丁目","koaza":"","lat":43.541749,"lng":142.114913,"version":"13.0b/18.0a"},{"town":"平岸新光町六丁目","koaza":"","lat":43.543677,"lng":142.114736,"version":"13.0b/18.0a"},{"town":"平岸新光町七丁目","koaza":"","lat":43.543245,"lng":142.111544,"version":"13.0b/18.0a"},{"town":"平岸新光町八丁目","koaza":"","lat":43.542591,"lng":142.109153,"version":"13.0b/18.0a"},{"town":"平岸新光町九丁目","koaza":"","lat":43.541845,"lng":142.106449,"version":"13.0b/18.0a"},{"town":"平岸仲町一丁目","koaza":"","lat":43.541364,"lng":142.123888,"version":"13.0b/18.0a"},{"town":"平岸仲町二丁目","koaza":"","lat":43.542894,"lng":142.122426,"version":"13.0b/18.0a"},{"town":"平岸仲町三丁目","koaza":"","lat":43.543152,"lng":142.125871,"version":"13.0b/18.0a"},{"town":"平岸仲町四丁目","koaza":"","lat":43.541985,"lng":142.125719,"version":"13.0b/18.0a"},{"town":"平岸仲町五丁目","koaza":"","lat":43.538845,"lng":142.121884,"version":"13.0b/18.0a"},{"town":"平岸仲町六丁目","koaza":"","lat":43.539128,"lng":142.125379,"version":"13.0b/18.0a"},{"town":"平岸西町一丁目","koaza":"","lat":43.540462,"lng":142.109585,"version":"13.0b/18.0a"},{"town":"平岸西町二丁目","koaza":"","lat":43.538393,"lng":142.112397,"version":"13.0b/18.0a"},{"town":"平岸西町三丁目","koaza":"","lat":43.539126,"lng":142.10792,"version":"13.0b/18.0a"},{"town":"平岸西町四丁目","koaza":"","lat":43.53844,"lng":142.109661,"version":"13.0b/18.0a"},{"town":"平岸西町五丁目","koaza":"","lat":43.536686,"lng":142.109338,"version":"13.0b/18.0a"},{"town":"平岸西町六丁目","koaza":"","lat":43.538222,"lng":142.104559,"version":"13.0b/18.0a"},{"town":"平岸東町一丁目","koaza":"","lat":43.543612,"lng":142.129008,"version":"13.0b/18.0a"},{"town":"平岸東町二丁目","koaza":"","lat":43.541854,"lng":142.130559,"version":"13.0b/18.0a"},{"town":"平岸東町三丁目","koaza":"","lat":43.541455,"lng":142.136703,"version":"13.0b/18.0a"},{"town":"平岸東町四丁目","koaza":"","lat":43.539504,"lng":142.128881,"version":"13.0b/18.0a"},{"town":"平岸東町五丁目","koaza":"","lat":43.53994,"lng":142.132322,"version":"13.0b/18.0a"},{"town":"平岸東町六丁目","koaza":"","lat":43.537458,"lng":142.141126,"version":"13.0b/18.0a"},{"town":"平岸南町","koaza":"","lat":43.513675,"lng":142.11674,"version":"13.0b/18.0a"},{"town":"豊栄町一丁目","koaza":"","lat":43.564259,"lng":142.036902,"version":"13.0b/18.0a"},{"town":"豊栄町二丁目","koaza":"","lat":43.564431,"lng":142.035005,"version":"13.0b/18.0a"},{"town":"豊栄町三丁目","koaza":"","lat":43.564296,"lng":142.034007,"version":"13.0b/18.0a"},{"town":"豊栄町四丁目","koaza":"","lat":43.564251,"lng":142.033048,"version":"13.0b/18.0a"},{"town":"豊栄町五丁目","koaza":"","lat":43.560726,"lng":142.035726,"version":"13.0b/18.0a"},{"town":"幌岡町","koaza":"","lat":43.599513,"lng":142.056023,"version":"13.0b/18.0a"},{"town":"本町一丁目","koaza":"","lat":43.555259,"lng":142.049945,"version":"13.0b/18.0a"},{"town":"本町二丁目","koaza":"","lat":43.556303,"lng":142.051054,"version":"13.0b/18.0a"},{"town":"本町三丁目","koaza":"","lat":43.557228,"lng":142.053409,"version":"13.0b/18.0a"},{"town":"美園町一丁目","koaza":"","lat":43.553343,"lng":142.046645,"version":"13.0b/18.0a"},{"town":"美園町二丁目","koaza":"","lat":43.556193,"lng":142.042019,"version":"13.0b/18.0a"},{"town":"美園町三丁目","koaza":"","lat":43.554062,"lng":142.038049,"version":"13.0b/18.0a"},{"town":"美園町四丁目","koaza":"","lat":43.556358,"lng":142.039198,"version":"13.0b/18.0a"},{"town":"美園町五丁目","koaza":"","lat":43.557609,"lng":142.038822,"version":"13.0b/18.0a"},{"town":"宮下町一丁目","koaza":"","lat":43.558133,"lng":142.037034,"version":"13.0b/18.0a"},{"town":"宮下町二丁目","koaza":"","lat":43.556542,"lng":142.035169,"version":"13.0b/18.0a"},{"town":"宮下町三丁目","koaza":"","lat":43.556714,"lng":142.029766,"version":"13.0b/18.0a"},{"town":"宮下町四丁目","koaza":"","lat":43.560191,"lng":142.034171,"version":"13.0b/18.0a"},{"town":"宮下町五丁目","koaza":"","lat":43.561025,"lng":142.031794,"version":"13.0b/18.0a"},{"town":"茂尻旭町一丁目","koaza":"","lat":43.53607,"lng":142.091268,"version":"13.0b/18.0a"},{"town":"茂尻旭町二丁目","koaza":"","lat":43.534393,"lng":142.091606,"version":"13.0b/18.0a"},{"town":"茂尻旭町三丁目","koaza":"","lat":43.533863,"lng":142.088427,"version":"13.0b/18.0a"},{"town":"茂尻春日町一丁目","koaza":"","lat":43.538753,"lng":142.087095,"version":"13.0b/18.0a"},{"town":"茂尻春日町二丁目","koaza":"","lat":43.5377,"lng":142.08747,"version":"13.0b/18.0a"},{"town":"茂尻春日町三丁目","koaza":"","lat":43.538044,"lng":142.088946,"version":"13.0b/18.0a"},{"town":"茂尻栄町一丁目","koaza":"","lat":43.536277,"lng":142.080832,"version":"13.0b/18.0a"},{"town":"茂尻栄町二丁目","koaza":"","lat":43.536305,"lng":142.079795,"version":"13.0b/18.0a"},{"town":"茂尻栄町三丁目","koaza":"","lat":43.534528,"lng":142.081169,"version":"13.0b/18.0a"},{"town":"茂尻栄町四丁目","koaza":"","lat":43.534557,"lng":142.079803,"version":"13.0b/18.0a"},{"town":"茂尻栄町五丁目","koaza":"","lat":43.536014,"lng":142.077004,"version":"13.0b/18.0a"},{"town":"茂尻新春日町一丁目","koaza":"","lat":43.540488,"lng":142.085829,"version":"13.0b/18.0a"},{"town":"茂尻新春日町二丁目","koaza":"","lat":43.540624,"lng":142.087621,"version":"13.0b/18.0a"},{"town":"茂尻新町一丁目","koaza":"","lat":43.536405,"lng":142.085627,"version":"13.0b/18.0a"},{"town":"茂尻新町二丁目","koaza":"","lat":43.536191,"lng":142.08312,"version":"13.0b/18.0a"},{"town":"茂尻新町三丁目","koaza":"","lat":43.536261,"lng":142.081862,"version":"13.0b/18.0a"},{"town":"茂尻新町四丁目","koaza":"","lat":43.534466,"lng":142.082536,"version":"13.0b/18.0a"},{"town":"茂尻新町五丁目","koaza":"","lat":43.534135,"lng":142.08544,"version":"13.0b/18.0a"},{"town":"茂尻中央町北一丁目","koaza":"","lat":43.539705,"lng":142.084211,"version":"13.0b/18.0a"},{"town":"茂尻中央町北二丁目","koaza":"","lat":43.5399,"lng":142.084914,"version":"13.0b/18.0a"},{"town":"茂尻中央町南一丁目","koaza":"","lat":43.538155,"lng":142.084106,"version":"13.0b/18.0a"},{"town":"茂尻中央町南二丁目","koaza":"","lat":43.538153,"lng":142.084448,"version":"13.0b/18.0a"},{"town":"茂尻中央町南三丁目","koaza":"","lat":43.538191,"lng":142.085059,"version":"13.0b/18.0a"},{"town":"茂尻中央町南四丁目","koaza":"","lat":43.538185,"lng":142.085688,"version":"13.0b/18.0a"},{"town":"茂尻中央町南五丁目","koaza":"","lat":43.538246,"lng":142.086215,"version":"13.0b/18.0a"},{"town":"茂尻中央町南六丁目","koaza":"","lat":43.537083,"lng":142.085946,"version":"13.0b/18.0a"},{"town":"茂尻本町一丁目","koaza":"","lat":43.539846,"lng":142.091482,"version":"13.0b/18.0a"},{"town":"茂尻本町二丁目","koaza":"","lat":43.5376,"lng":142.094357,"version":"13.0b/18.0a"},{"town":"茂尻本町三丁目","koaza":"","lat":43.537709,"lng":142.091188,"version":"13.0b/18.0a"},{"town":"茂尻本町四丁目","koaza":"","lat":43.536645,"lng":142.094215,"version":"13.0b/18.0a"},{"town":"茂尻宮下町一丁目","koaza":"","lat":43.532702,"lng":142.093125,"version":"13.0b/18.0a"},{"town":"茂尻元町北一丁目","koaza":"","lat":43.540212,"lng":142.082863,"version":"13.0b/18.0a"},{"town":"茂尻元町北二丁目","koaza":"","lat":43.540079,"lng":142.081653,"version":"13.0b/18.0a"},{"town":"茂尻元町北三丁目","koaza":"","lat":43.539972,"lng":142.080409,"version":"13.0b/18.0a"},{"town":"茂尻元町北四丁目","koaza":"","lat":43.539772,"lng":142.079107,"version":"13.0b/18.0a"},{"town":"茂尻元町北五丁目","koaza":"","lat":43.539671,"lng":142.077469,"version":"13.0b/18.0a"},{"town":"茂尻元町北六丁目","koaza":"","lat":43.540228,"lng":142.073237,"version":"13.0b/18.0a"},{"town":"茂尻元町南一丁目","koaza":"","lat":43.538187,"lng":142.083416,"version":"13.0b/18.0a"},{"town":"茂尻元町南二丁目","koaza":"","lat":43.537802,"lng":142.082202,"version":"13.0b/18.0a"},{"town":"茂尻元町南三丁目","koaza":"","lat":43.537972,"lng":142.080803,"version":"13.0b/18.0a"},{"town":"茂尻元町南四丁目","koaza":"","lat":43.537957,"lng":142.079299,"version":"13.0b/18.0a"},{"town":"茂尻元町南五丁目","koaza":"","lat":43.538855,"lng":142.073155,"version":"13.0b/18.0a"},{"town":"若木町北一丁目","koaza":"","lat":43.573511,"lng":142.041796,"version":"13.0b/18.0a"},{"town":"若木町北二丁目","koaza":"","lat":43.573021,"lng":142.040552,"version":"13.0b/18.0a"},{"town":"若木町北三丁目","koaza":"","lat":43.573798,"lng":142.040283,"version":"13.0b/18.0a"},{"town":"若木町北四丁目","koaza":"","lat":43.575485,"lng":142.039868,"version":"13.0b/18.0a"},{"town":"若木町北五丁目","koaza":"","lat":43.57507,"lng":142.040628,"version":"13.0b/18.0a"},{"town":"若木町北六丁目","koaza":"","lat":43.574945,"lng":142.041079,"version":"13.0b/18.0a"},{"town":"若木町北七丁目","koaza":"","lat":43.574678,"lng":142.041327,"version":"13.0b/18.0a"},{"town":"若木町北八丁目","koaza":"","lat":43.57496,"lng":142.042136,"version":"13.0b/18.0a"},{"town":"若木町西一丁目","koaza":"","lat":43.570404,"lng":142.040198,"version":"13.0b/18.0a"},{"town":"若木町西二丁目","koaza":"","lat":43.571754,"lng":142.039567,"version":"13.0b/18.0a"},{"town":"若木町西三丁目","koaza":"","lat":43.573122,"lng":142.039456,"version":"13.0b/18.0a"},{"town":"若木町西四丁目","koaza":"","lat":43.574246,"lng":142.039199,"version":"13.0b/18.0a"},{"town":"若木町西五丁目","koaza":"","lat":43.573733,"lng":142.038522,"version":"13.0b/18.0a"},{"town":"若木町西六丁目","koaza":"","lat":43.57153,"lng":142.038629,"version":"13.0b/18.0a"},{"town":"若木町東一丁目","koaza":"","lat":43.570165,"lng":142.045338,"version":"13.0b/18.0a"},{"town":"若木町東二丁目","koaza":"","lat":43.570796,"lng":142.044797,"version":"13.0b/18.0a"},{"town":"若木町東三丁目","koaza":"","lat":43.571208,"lng":142.043584,"version":"13.0b/18.0a"},{"town":"若木町東四丁目","koaza":"","lat":43.571917,"lng":142.042362,"version":"13.0b/18.0a"},{"town":"若木町東五丁目","koaza":"","lat":43.572304,"lng":142.041363,"version":"13.0b/18.0a"},{"town":"若木町東六丁目","koaza":"","lat":43.572262,"lng":142.042859,"version":"13.0b/18.0a"},{"town":"若木町東七丁目","koaza":"","lat":43.57168,"lng":142.044461,"version":"13.0b/18.0a"},{"town":"若木町東八丁目","koaza":"","lat":43.571029,"lng":142.045479,"version":"13.0b/18.0a"},{"town":"若木町東九丁目","koaza":"","lat":43.572127,"lng":142.046303,"version":"13.0b/18.0a"},{"town":"若木町南一丁目","koaza":"","lat":43.569419,"lng":142.042453,"version":"13.0b/18.0a"},{"town":"若木町南二丁目","koaza":"","lat":43.570074,"lng":142.042365,"version":"13.0b/18.0a"},{"town":"若木町南三丁目","koaza":"","lat":43.570901,"lng":142.042496,"version":"13.0b/18.0a"},{"town":"若木町南四丁目","koaza":"","lat":43.56969,"lng":142.044973,"version":"13.0b/18.0a"},{"town":"若木町南五丁目","koaza":"","lat":43.569401,"lng":142.043736,"version":"13.0b/18.0a"},{"town":"字赤平","koaza":"","lat":43.540658,"lng":142.048219,"version":"14.0b/19.0a"},{"town":"字豊里","koaza":"","lat":43.560154,"lng":142.05504,"version":"14.0b/19.0a"},{"town":"字茂尻","koaza":"","lat":43.510733,"lng":142.09303,"version":"14.0b/19.0a"},{"town":"泉町一丁目","koaza":"","lat":43.55621,"lng":142.046923,"version":"14.0b/19.0a"},{"town":"泉町二丁目","koaza":"","lat":43.557722,"lng":142.046225,"version":"14.0b/19.0a"},{"town":"泉町三丁目","koaza":"","lat":43.559061,"lng":142.046126,"version":"14.0b/19.0a"},{"town":"泉町四丁目","koaza":"","lat":43.558411,"lng":142.042631,"version":"14.0b/19.0a"},{"town":"エルム町","koaza":"","lat":43.572391,"lng":142.072977,"version":"14.0b/19.0a"},{"town":"大町一丁目","koaza":"","lat":43.553357,"lng":142.053089,"version":"14.0b/19.0a"},{"town":"大町二丁目","koaza":"","lat":43.55526,"lng":142.051775,"version":"14.0b/19.0a"},{"town":"大町三丁目","koaza":"","lat":43.554299,"lng":142.053828,"version":"14.0b/19.0a"},{"town":"大町四丁目","koaza":"","lat":43.554228,"lng":142.056489,"version":"14.0b/19.0a"},{"town":"北文京町一丁目","koaza":"","lat":43.567608,"lng":142.042918,"version":"14.0b/19.0a"},{"town":"北文京町二丁目","koaza":"","lat":43.567801,"lng":142.045816,"version":"14.0b/19.0a"},{"town":"北文京町三丁目","koaza":"","lat":43.565593,"lng":142.047765,"version":"14.0b/19.0a"},{"town":"北文京町四丁目","koaza":"","lat":43.566985,"lng":142.049394,"version":"14.0b/19.0a"},{"town":"北文京町五丁目","koaza":"","lat":43.568542,"lng":142.049906,"version":"14.0b/19.0a"},{"town":"共和町","koaza":"","lat":43.59495,"lng":142.010065,"version":"14.0b/19.0a"},{"town":"幸町一丁目","koaza":"","lat":43.566095,"lng":142.033431,"version":"14.0b/19.0a"},{"town":"幸町二丁目","koaza":"","lat":43.567307,"lng":142.033042,"version":"14.0b/19.0a"},{"town":"幸町三丁目","koaza":"","lat":43.568045,"lng":142.033292,"version":"14.0b/19.0a"},{"town":"幸町四丁目","koaza":"","lat":43.569707,"lng":142.032701,"version":"14.0b/19.0a"},{"town":"幸町五丁目","koaza":"","lat":43.56889,"lng":142.034396,"version":"14.0b/19.0a"},{"town":"幸町六丁目","koaza":"","lat":43.566769,"lng":142.03558,"version":"14.0b/19.0a"},{"town":"幸町七丁目","koaza":"","lat":43.568323,"lng":142.038114,"version":"14.0b/19.0a"},{"town":"桜木町一丁目","koaza":"","lat":43.562178,"lng":142.030969,"version":"14.0b/19.0a"},{"town":"桜木町二丁目","koaza":"","lat":43.563096,"lng":142.030162,"version":"14.0b/19.0a"},{"town":"桜木町三丁目","koaza":"","lat":43.563835,"lng":142.029447,"version":"14.0b/19.0a"},{"town":"桜木町四丁目","koaza":"","lat":43.563378,"lng":142.02843,"version":"14.0b/19.0a"},{"town":"桜木町五丁目","koaza":"","lat":43.562717,"lng":142.026874,"version":"14.0b/19.0a"},{"town":"昭和町一丁目","koaza":"","lat":43.563005,"lng":142.032142,"version":"14.0b/19.0a"},{"town":"昭和町二丁目","koaza":"","lat":43.564682,"lng":142.030921,"version":"14.0b/19.0a"},{"town":"昭和町三丁目","koaza":"","lat":43.566354,"lng":142.03072,"version":"14.0b/19.0a"},{"town":"昭和町四丁目","koaza":"","lat":43.568882,"lng":142.030398,"version":"14.0b/19.0a"},{"town":"昭和町五丁目","koaza":"","lat":43.568128,"lng":142.026877,"version":"14.0b/19.0a"},{"town":"昭和町六丁目","koaza":"","lat":43.567262,"lng":142.023009,"version":"14.0b/19.0a"},{"town":"住吉町","koaza":"","lat":43.547418,"lng":141.998604,"version":"14.0b/19.0a"},{"town":"豊丘町一丁目","koaza":"","lat":43.564697,"lng":142.047613,"version":"14.0b/19.0a"},{"town":"豊丘町二丁目","koaza":"","lat":43.565279,"lng":142.050311,"version":"14.0b/19.0a"},{"town":"豊丘町三丁目","koaza":"","lat":43.566549,"lng":142.053223,"version":"14.0b/19.0a"},{"town":"錦町一丁目","koaza":"","lat":43.556007,"lng":142.04885,"version":"14.0b/19.0a"},{"town":"錦町二丁目","koaza":"","lat":43.557201,"lng":142.049416,"version":"14.0b/19.0a"},{"town":"錦町三丁目","koaza":"","lat":43.558883,"lng":142.050218,"version":"14.0b/19.0a"},{"town":"西豊里町","koaza":"","lat":43.578955,"lng":142.050809,"version":"14.0b/19.0a"},{"town":"西文京町一丁目","koaza":"","lat":43.561246,"lng":142.039884,"version":"14.0b/19.0a"},{"town":"西文京町二丁目","koaza":"","lat":43.562856,"lng":142.040435,"version":"14.0b/19.0a"},{"town":"西文京町三丁目","koaza":"","lat":43.563978,"lng":142.040422,"version":"14.0b/19.0a"},{"town":"西文京町四丁目","koaza":"","lat":43.565125,"lng":142.040855,"version":"14.0b/19.0a"},{"town":"西文京町五丁目","koaza":"","lat":43.566713,"lng":142.04153,"version":"14.0b/19.0a"},{"town":"東大町一丁目","koaza":"","lat":43.550734,"lng":142.056977,"version":"14.0b/19.0a"},{"town":"東大町二丁目","koaza":"","lat":43.54934,"lng":142.058601,"version":"14.0b/19.0a"},{"town":"東大町三丁目","koaza":"","lat":43.55191,"lng":142.058012,"version":"14.0b/19.0a"},{"town":"東豊里町","koaza":"","lat":43.568693,"lng":142.061909,"version":"14.0b/19.0a"},{"town":"東文京町一丁目","koaza":"","lat":43.560733,"lng":142.045106,"version":"14.0b/19.0a"},{"town":"東文京町二丁目","koaza":"","lat":43.562364,"lng":142.044875,"version":"14.0b/19.0a"},{"town":"東文京町三丁目","koaza":"","lat":43.563585,"lng":142.044744,"version":"14.0b/19.0a"},{"town":"東文京町四丁目","koaza":"","lat":43.5652,"lng":142.044277,"version":"14.0b/19.0a"},{"town":"百戸町北","koaza":"","lat":43.596644,"lng":142.097397,"version":"14.0b/19.0a"},{"town":"百戸町西一丁目","koaza":"","lat":43.546114,"lng":142.080239,"version":"14.0b/19.0a"},{"town":"百戸町西二丁目","koaza":"","lat":43.542727,"lng":142.081842,"version":"14.0b/19.0a"},{"town":"百戸町西三丁目","koaza":"","lat":43.543823,"lng":142.079622,"version":"14.0b/19.0a"},{"town":"百戸町西四丁目","koaza":"","lat":43.542007,"lng":142.079321,"version":"14.0b/19.0a"},{"town":"百戸町西五丁目","koaza":"","lat":43.542811,"lng":142.077611,"version":"14.0b/19.0a"},{"town":"百戸町西六丁目","koaza":"","lat":43.544636,"lng":142.072674,"version":"14.0b/19.0a"},{"town":"百戸町東一丁目","koaza":"","lat":43.545954,"lng":142.084164,"version":"14.0b/19.0a"},{"town":"百戸町東二丁目","koaza":"","lat":43.545591,"lng":142.089272,"version":"14.0b/19.0a"},{"town":"百戸町東三丁目","koaza":"","lat":43.545406,"lng":142.096406,"version":"14.0b/19.0a"},{"town":"百戸町東四丁目","koaza":"","lat":43.542737,"lng":142.086373,"version":"14.0b/19.0a"},{"town":"百戸町東五丁目","koaza":"","lat":43.542214,"lng":142.091831,"version":"14.0b/19.0a"},{"town":"平岸曙町一丁目","koaza":"","lat":43.540383,"lng":142.118276,"version":"14.0b/19.0a"},{"town":"平岸曙町二丁目","koaza":"","lat":43.539238,"lng":142.118435,"version":"14.0b/19.0a"},{"town":"平岸曙町三丁目","koaza":"","lat":43.537499,"lng":142.118426,"version":"14.0b/19.0a"},{"town":"平岸曙町四丁目","koaza":"","lat":43.537099,"lng":142.115004,"version":"14.0b/19.0a"},{"town":"平岸曙町五丁目","koaza":"","lat":43.538906,"lng":142.115418,"version":"14.0b/19.0a"},{"town":"平岸曙町六丁目","koaza":"","lat":43.540293,"lng":142.114839,"version":"14.0b/19.0a"},{"town":"平岸桂町","koaza":"","lat":43.537099,"lng":142.102049,"version":"14.0b/19.0a"},{"town":"平岸新光町一丁目","koaza":"","lat":43.541181,"lng":142.116512,"version":"14.0b/19.0a"},{"town":"平岸新光町二丁目","koaza":"","lat":43.542039,"lng":142.118372,"version":"14.0b/19.0a"},{"town":"平岸新光町三丁目","koaza":"","lat":43.543411,"lng":142.118308,"version":"14.0b/19.0a"},{"town":"平岸新光町四丁目","koaza":"","lat":43.542758,"lng":142.115864,"version":"14.0b/19.0a"},{"town":"平岸新光町五丁目","koaza":"","lat":43.541749,"lng":142.114913,"version":"14.0b/19.0a"},{"town":"平岸新光町六丁目","koaza":"","lat":43.543677,"lng":142.114736,"version":"14.0b/19.0a"},{"town":"平岸新光町七丁目","koaza":"","lat":43.543245,"lng":142.111544,"version":"14.0b/19.0a"},{"town":"平岸新光町八丁目","koaza":"","lat":43.542591,"lng":142.109153,"version":"14.0b/19.0a"},{"town":"平岸新光町九丁目","koaza":"","lat":43.541845,"lng":142.106449,"version":"14.0b/19.0a"},{"town":"平岸仲町一丁目","koaza":"","lat":43.541364,"lng":142.123888,"version":"14.0b/19.0a"},{"town":"平岸仲町二丁目","koaza":"","lat":43.542894,"lng":142.122426,"version":"14.0b/19.0a"},{"town":"平岸仲町三丁目","koaza":"","lat":43.543152,"lng":142.125871,"version":"14.0b/19.0a"},{"town":"平岸仲町四丁目","koaza":"","lat":43.541985,"lng":142.125719,"version":"14.0b/19.0a"},{"town":"平岸仲町五丁目","koaza":"","lat":43.538845,"lng":142.121884,"version":"14.0b/19.0a"},{"town":"平岸仲町六丁目","koaza":"","lat":43.539128,"lng":142.125379,"version":"14.0b/19.0a"},{"town":"平岸西町一丁目","koaza":"","lat":43.540462,"lng":142.109585,"version":"14.0b/19.0a"},{"town":"平岸西町二丁目","koaza":"","lat":43.538393,"lng":142.112397,"version":"14.0b/19.0a"},{"town":"平岸西町三丁目","koaza":"","lat":43.539126,"lng":142.10792,"version":"14.0b/19.0a"},{"town":"平岸西町四丁目","koaza":"","lat":43.53844,"lng":142.109661,"version":"14.0b/19.0a"},{"town":"平岸西町五丁目","koaza":"","lat":43.536686,"lng":142.109338,"version":"14.0b/19.0a"},{"town":"平岸西町六丁目","koaza":"","lat":43.538222,"lng":142.104559,"version":"14.0b/19.0a"},{"town":"平岸東町一丁目","koaza":"","lat":43.543612,"lng":142.129008,"version":"14.0b/19.0a"},{"town":"平岸東町二丁目","koaza":"","lat":43.541854,"lng":142.130559,"version":"14.0b/19.0a"},{"town":"平岸東町三丁目","koaza":"","lat":43.541455,"lng":142.136703,"version":"14.0b/19.0a"},{"town":"平岸東町四丁目","koaza":"","lat":43.539504,"lng":142.128881,"version":"14.0b/19.0a"},{"town":"平岸東町五丁目","koaza":"","lat":43.53994,"lng":142.132322,"version":"14.0b/19.0a"},{"town":"平岸東町六丁目","koaza":"","lat":43.537458,"lng":142.141126,"version":"14.0b/19.0a"},{"town":"平岸南町","koaza":"","lat":43.513675,"lng":142.11674,"version":"14.0b/19.0a"},{"town":"豊栄町一丁目","koaza":"","lat":43.564259,"lng":142.036902,"version":"14.0b/19.0a"},{"town":"豊栄町二丁目","koaza":"","lat":43.564431,"lng":142.035005,"version":"14.0b/19.0a"},{"town":"豊栄町三丁目","koaza":"","lat":43.564296,"lng":142.034007,"version":"14.0b/19.0a"},{"town":"豊栄町四丁目","koaza":"","lat":43.564251,"lng":142.033048,"version":"14.0b/19.0a"},{"town":"豊栄町五丁目","koaza":"","lat":43.560726,"lng":142.035726,"version":"14.0b/19.0a"},{"town":"幌岡町","koaza":"","lat":43.599513,"lng":142.056023,"version":"14.0b/19.0a"},{"town":"本町一丁目","koaza":"","lat":43.555259,"lng":142.049945,"version":"14.0b/19.0a"},{"town":"本町二丁目","koaza":"","lat":43.556303,"lng":142.051054,"version":"14.0b/19.0a"},{"town":"本町三丁目","koaza":"","lat":43.557228,"lng":142.053409,"version":"14.0b/19.0a"},{"town":"美園町一丁目","koaza":"","lat":43.553343,"lng":142.046645,"version":"14.0b/19.0a"},{"town":"美園町二丁目","koaza":"","lat":43.556193,"lng":142.042019,"version":"14.0b/19.0a"},{"town":"美園町三丁目","koaza":"","lat":43.554062,"lng":142.038049,"version":"14.0b/19.0a"},{"town":"美園町四丁目","koaza":"","lat":43.556358,"lng":142.039198,"version":"14.0b/19.0a"},{"town":"美園町五丁目","koaza":"","lat":43.557609,"lng":142.038822,"version":"14.0b/19.0a"},{"town":"宮下町一丁目","koaza":"","lat":43.558133,"lng":142.037034,"version":"14.0b/19.0a"},{"town":"宮下町二丁目","koaza":"","lat":43.556542,"lng":142.035169,"version":"14.0b/19.0a"},{"town":"宮下町三丁目","koaza":"","lat":43.556714,"lng":142.029766,"version":"14.0b/19.0a"},{"town":"宮下町四丁目","koaza":"","lat":43.560191,"lng":142.034171,"version":"14.0b/19.0a"},{"town":"宮下町五丁目","koaza":"","lat":43.561025,"lng":142.031794,"version":"14.0b/19.0a"},{"town":"茂尻旭町一丁目","koaza":"","lat":43.53607,"lng":142.091268,"version":"14.0b/19.0a"},{"town":"茂尻旭町二丁目","koaza":"","lat":43.534393,"lng":142.091606,"version":"14.0b/19.0a"},{"town":"茂尻旭町三丁目","koaza":"","lat":43.533863,"lng":142.088427,"version":"14.0b/19.0a"},{"town":"茂尻春日町一丁目","koaza":"","lat":43.538753,"lng":142.087095,"version":"14.0b/19.0a"},{"town":"茂尻春日町二丁目","koaza":"","lat":43.5377,"lng":142.08747,"version":"14.0b/19.0a"},{"town":"茂尻春日町三丁目","koaza":"","lat":43.538044,"lng":142.088946,"version":"14.0b/19.0a"},{"town":"茂尻栄町一丁目","koaza":"","lat":43.536277,"lng":142.080832,"version":"14.0b/19.0a"},{"town":"茂尻栄町二丁目","koaza":"","lat":43.536305,"lng":142.079795,"version":"14.0b/19.0a"},{"town":"茂尻栄町三丁目","koaza":"","lat":43.534528,"lng":142.081169,"version":"14.0b/19.0a"},{"town":"茂尻栄町四丁目","koaza":"","lat":43.534557,"lng":142.079803,"version":"14.0b/19.0a"},{"town":"茂尻栄町五丁目","koaza":"","lat":43.536014,"lng":142.077004,"version":"14.0b/19.0a"},{"town":"茂尻新春日町一丁目","koaza":"","lat":43.540488,"lng":142.085829,"version":"14.0b/19.0a"},{"town":"茂尻新春日町二丁目","koaza":"","lat":43.540624,"lng":142.087621,"version":"14.0b/19.0a"},{"town":"茂尻新町一丁目","koaza":"","lat":43.536405,"lng":142.085627,"version":"14.0b/19.0a"},{"town":"茂尻新町二丁目","koaza":"","lat":43.536191,"lng":142.08312,"version":"14.0b/19.0a"},{"town":"茂尻新町三丁目","koaza":"","lat":43.536261,"lng":142.081862,"version":"14.0b/19.0a"},{"town":"茂尻新町四丁目","koaza":"","lat":43.534466,"lng":142.082536,"version":"14.0b/19.0a"},{"town":"茂尻新町五丁目","koaza":"","lat":43.534135,"lng":142.08544,"version":"14.0b/19.0a"},{"town":"茂尻中央町北一丁目","koaza":"","lat":43.539705,"lng":142.084211,"version":"14.0b/19.0a"},{"town":"茂尻中央町北二丁目","koaza":"","lat":43.5399,"lng":142.084914,"version":"14.0b/19.0a"},{"town":"茂尻中央町南一丁目","koaza":"","lat":43.538155,"lng":142.084106,"version":"14.0b/19.0a"},{"town":"茂尻中央町南二丁目","koaza":"","lat":43.538153,"lng":142.084448,"version":"14.0b/19.0a"},{"town":"茂尻中央町南三丁目","koaza":"","lat":43.538191,"lng":142.085059,"version":"14.0b/19.0a"},{"town":"茂尻中央町南四丁目","koaza":"","lat":43.538185,"lng":142.085688,"version":"14.0b/19.0a"},{"town":"茂尻中央町南五丁目","koaza":"","lat":43.538246,"lng":142.086215,"version":"14.0b/19.0a"},{"town":"茂尻中央町南六丁目","koaza":"","lat":43.537083,"lng":142.085946,"version":"14.0b/19.0a"},{"town":"茂尻本町一丁目","koaza":"","lat":43.539846,"lng":142.091482,"version":"14.0b/19.0a"},{"town":"茂尻本町二丁目","koaza":"","lat":43.5376,"lng":142.094357,"version":"14.0b/19.0a"},{"town":"茂尻本町三丁目","koaza":"","lat":43.537709,"lng":142.091188,"version":"14.0b/19.0a"},{"town":"茂尻本町四丁目","koaza":"","lat":43.536645,"lng":142.094215,"version":"14.0b/19.0a"},{"town":"茂尻宮下町一丁目","koaza":"","lat":43.532702,"lng":142.093125,"version":"14.0b/19.0a"},{"town":"茂尻元町北一丁目","koaza":"","lat":43.540212,"lng":142.082863,"version":"14.0b/19.0a"},{"town":"茂尻元町北二丁目","koaza":"","lat":43.540079,"lng":142.081653,"version":"14.0b/19.0a"},{"town":"茂尻元町北三丁目","koaza":"","lat":43.539972,"lng":142.080409,"version":"14.0b/19.0a"},{"town":"茂尻元町北四丁目","koaza":"","lat":43.539772,"lng":142.079107,"version":"14.0b/19.0a"},{"town":"茂尻元町北五丁目","koaza":"","lat":43.539671,"lng":142.077469,"version":"14.0b/19.0a"},{"town":"茂尻元町北六丁目","koaza":"","lat":43.540228,"lng":142.073237,"version":"14.0b/19.0a"},{"town":"茂尻元町南一丁目","koaza":"","lat":43.538187,"lng":142.083416,"version":"14.0b/19.0a"},{"town":"茂尻元町南二丁目","koaza":"","lat":43.537802,"lng":142.082202,"version":"14.0b/19.0a"},{"town":"茂尻元町南三丁目","koaza":"","lat":43.537972,"lng":142.080803,"version":"14.0b/19.0a"},{"town":"茂尻元町南四丁目","koaza":"","lat":43.537957,"lng":142.079299,"version":"14.0b/19.0a"},{"town":"茂尻元町南五丁目","koaza":"","lat":43.538855,"lng":142.073155,"version":"14.0b/19.0a"},{"town":"若木町北一丁目","koaza":"","lat":43.573511,"lng":142.041796,"version":"14.0b/19.0a"},{"town":"若木町北二丁目","koaza":"","lat":43.573021,"lng":142.040552,"version":"14.0b/19.0a"},{"town":"若木町北三丁目","koaza":"","lat":43.573798,"lng":142.040283,"version":"14.0b/19.0a"},{"town":"若木町北四丁目","koaza":"","lat":43.575485,"lng":142.039868,"version":"14.0b/19.0a"},{"town":"若木町北五丁目","koaza":"","lat":43.57507,"lng":142.040628,"version":"14.0b/19.0a"},{"town":"若木町北六丁目","koaza":"","lat":43.574945,"lng":142.041079,"version":"14.0b/19.0a"},{"town":"若木町北七丁目","koaza":"","lat":43.574678,"lng":142.041327,"version":"14.0b/19.0a"},{"town":"若木町北八丁目","koaza":"","lat":43.57496,"lng":142.042136,"version":"14.0b/19.0a"},{"town":"若木町西一丁目","koaza":"","lat":43.570404,"lng":142.040198,"version":"14.0b/19.0a"},{"town":"若木町西二丁目","koaza":"","lat":43.571754,"lng":142.039567,"version":"14.0b/19.0a"},{"town":"若木町西三丁目","koaza":"","lat":43.573122,"lng":142.039456,"version":"14.0b/19.0a"},{"town":"若木町西四丁目","koaza":"","lat":43.574246,"lng":142.039199,"version":"14.0b/19.0a"},{"town":"若木町西五丁目","koaza":"","lat":43.573733,"lng":142.038522,"version":"14.0b/19.0a"},{"town":"若木町西六丁目","koaza":"","lat":43.57153,"lng":142.038629,"version":"14.0b/19.0a"},{"town":"若木町東一丁目","koaza":"","lat":43.570165,"lng":142.045338,"version":"14.0b/19.0a"},{"town":"若木町東二丁目","koaza":"","lat":43.570796,"lng":142.044797,"version":"14.0b/19.0a"},{"town":"若木町東三丁目","koaza":"","lat":43.571208,"lng":142.043584,"version":"14.0b/19.0a"},{"town":"若木町東四丁目","koaza":"","lat":43.571917,"lng":142.042362,"version":"14.0b/19.0a"},{"town":"若木町東五丁目","koaza":"","lat":43.572304,"lng":142.041363,"version":"14.0b/19.0a"},{"town":"若木町東六丁目","koaza":"","lat":43.572262,"lng":142.042859,"version":"14.0b/19.0a"},{"town":"若木町東七丁目","koaza":"","lat":43.57168,"lng":142.044461,"version":"14.0b/19.0a"},{"town":"若木町東八丁目","koaza":"","lat":43.571029,"lng":142.045479,"version":"14.0b/19.0a"},{"town":"若木町東九丁目","koaza":"","lat":43.572127,"lng":142.046303,"version":"14.0b/19.0a"},{"town":"若木町南一丁目","koaza":"","lat":43.569419,"lng":142.042453,"version":"14.0b/19.0a"},{"town":"若木町南二丁目","koaza":"","lat":43.570074,"lng":142.042365,"version":"14.0b/19.0a"},{"town":"若木町南三丁目","koaza":"","lat":43.570901,"lng":142.042496,"version":"14.0b/19.0a"},{"town":"若木町南四丁目","koaza":"","lat":43.56969,"lng":142.044973,"version":"14.0b/19.0a"},{"town":"若木町南五丁目","koaza":"","lat":43.569401,"lng":142.043736,"version":"14.0b/19.0a"}]