[{"town":"青葉台","koaza":"","lat":34.380439,"lng":133.040829,"version":"13.0b/18.0a"},{"town":"旭町一丁目","koaza":"","lat":34.399487,"lng":133.09041,"version":"13.0b/18.0a"},{"town":"旭町二丁目","koaza":"","lat":34.3993,"lng":133.092719,"version":"13.0b/18.0a"},{"town":"糸崎一丁目","koaza":"","lat":34.398355,"lng":133.098415,"version":"13.0b/18.0a"},{"town":"糸崎二丁目","koaza":"","lat":34.395919,"lng":133.097628,"version":"13.0b/18.0a"},{"town":"糸崎三丁目","koaza":"","lat":34.397242,"lng":133.101248,"version":"13.0b/18.0a"},{"town":"糸崎四丁目","koaza":"","lat":34.393992,"lng":133.10409,"version":"13.0b/18.0a"},{"town":"糸崎五丁目","koaza":"","lat":34.393444,"lng":133.109363,"version":"13.0b/18.0a"},{"town":"糸崎六丁目","koaza":"","lat":34.390463,"lng":133.111934,"version":"13.0b/18.0a"},{"town":"糸崎七丁目","koaza":"","lat":34.388396,"lng":133.110798,"version":"13.0b/18.0a"},{"town":"糸崎八丁目","koaza":"","lat":34.385099,"lng":133.128638,"version":"13.0b/18.0a"},{"town":"糸崎九丁目","koaza":"","lat":34.383369,"lng":133.115909,"version":"13.0b/18.0a"},{"town":"糸崎町","koaza":"","lat":34.397927,"lng":133.112674,"version":"13.0b/18.0a"},{"town":"糸崎南一丁目","koaza":"","lat":34.394269,"lng":133.096018,"version":"13.0b/18.0a"},{"town":"糸崎南二丁目","koaza":"","lat":34.389634,"lng":133.106046,"version":"13.0b/18.0a"},{"town":"円一町一丁目","koaza":"","lat":34.390836,"lng":133.084832,"version":"13.0b/18.0a"},{"town":"円一町二丁目","koaza":"","lat":34.394631,"lng":133.077425,"version":"13.0b/18.0a"},{"town":"円一町三丁目","koaza":"","lat":34.39501,"lng":133.07613,"version":"13.0b/18.0a"},{"town":"円一町四丁目","koaza":"","lat":34.390331,"lng":133.076612,"version":"13.0b/18.0a"},{"town":"円一町五丁目","koaza":"","lat":34.390044,"lng":133.078255,"version":"13.0b/18.0a"},{"town":"大畑町","koaza":"","lat":34.422237,"lng":133.060617,"version":"13.0b/18.0a"},{"town":"沖浦町","koaza":"","lat":34.368927,"lng":133.073377,"version":"13.0b/18.0a"},{"town":"奥野山町","koaza":"","lat":34.398167,"lng":133.142515,"version":"13.0b/18.0a"},{"town":"小坂町","koaza":"","lat":34.425327,"lng":133.019301,"version":"13.0b/18.0a"},{"town":"貝野町","koaza":"","lat":34.378946,"lng":133.081836,"version":"13.0b/18.0a"},{"town":"学園町","koaza":"","lat":34.39136,"lng":133.056513,"version":"13.0b/18.0a"},{"town":"木原一丁目","koaza":"","lat":34.389013,"lng":133.138659,"version":"13.0b/18.0a"},{"town":"木原二丁目","koaza":"","lat":34.390631,"lng":133.139823,"version":"13.0b/18.0a"},{"town":"木原三丁目","koaza":"","lat":34.393686,"lng":133.146084,"version":"13.0b/18.0a"},{"town":"木原四丁目","koaza":"","lat":34.392272,"lng":133.145288,"version":"13.0b/18.0a"},{"town":"木原五丁目","koaza":"","lat":34.39594,"lng":133.150237,"version":"13.0b/18.0a"},{"town":"木原六丁目","koaza":"","lat":34.400798,"lng":133.156967,"version":"13.0b/18.0a"},{"town":"木原町","koaza":"","lat":34.403262,"lng":133.154334,"version":"13.0b/18.0a"},{"town":"久井町莇原","koaza":"","lat":34.554443,"lng":133.044922,"version":"13.0b/18.0a"},{"town":"久井町泉","koaza":"","lat":34.538966,"lng":133.009137,"version":"13.0b/18.0a"},{"town":"久井町江木","koaza":"","lat":34.542275,"lng":133.038807,"version":"13.0b/18.0a"},{"town":"久井町小林","koaza":"","lat":34.495122,"lng":133.000365,"version":"13.0b/18.0a"},{"town":"久井町坂井原","koaza":"","lat":34.483367,"lng":133.037865,"version":"13.0b/18.0a"},{"town":"久井町下津","koaza":"","lat":34.521516,"lng":133.046961,"version":"13.0b/18.0a"},{"town":"久井町土取","koaza":"","lat":34.475529,"lng":133.022376,"version":"13.0b/18.0a"},{"town":"久井町羽倉","koaza":"","lat":34.5064,"lng":133.010042,"version":"13.0b/18.0a"},{"town":"久井町山中野","koaza":"","lat":34.480821,"lng":133.008415,"version":"13.0b/18.0a"},{"town":"久井町吉田","koaza":"","lat":34.537893,"lng":133.069391,"version":"13.0b/18.0a"},{"town":"久井町和草","koaza":"","lat":34.522433,"lng":133.020522,"version":"13.0b/18.0a"},{"town":"小泉町","koaza":"","lat":34.363082,"lng":132.974855,"version":"13.0b/18.0a"},{"town":"古浜一丁目","koaza":"","lat":34.398415,"lng":133.091294,"version":"13.0b/18.0a"},{"town":"古浜二丁目","koaza":"","lat":34.3955,"lng":133.08965,"version":"13.0b/18.0a"},{"town":"古浜三丁目","koaza":"","lat":34.395411,"lng":133.092076,"version":"13.0b/18.0a"},{"town":"駒ケ原町","koaza":"","lat":34.411573,"lng":133.082451,"version":"13.0b/18.0a"},{"town":"幸崎久和喜","koaza":"","lat":34.348481,"lng":133.067756,"version":"13.0b/18.0a"},{"town":"幸崎町久和喜","koaza":"","lat":34.352656,"lng":133.055612,"version":"13.0b/18.0a"},{"town":"幸崎町能地","koaza":"","lat":34.349787,"lng":133.048366,"version":"13.0b/18.0a"},{"town":"幸崎町渡瀬","koaza":"","lat":34.353664,"lng":133.012201,"version":"13.0b/18.0a"},{"town":"幸崎能地一丁目","koaza":"","lat":34.344442,"lng":133.054139,"version":"13.0b/18.0a"},{"town":"幸崎能地二丁目","koaza":"","lat":34.33696,"lng":133.041209,"version":"13.0b/18.0a"},{"town":"幸崎能地三丁目","koaza":"","lat":34.339844,"lng":133.036803,"version":"13.0b/18.0a"},{"town":"幸崎能地四丁目","koaza":"","lat":34.334018,"lng":133.033082,"version":"13.0b/18.0a"},{"town":"幸崎能地五丁目","koaza":"","lat":34.33521,"lng":133.030232,"version":"13.0b/18.0a"},{"town":"幸崎能地六丁目","koaza":"","lat":34.333895,"lng":133.018579,"version":"13.0b/18.0a"},{"town":"幸崎能地七丁目","koaza":"","lat":34.349146,"lng":133.034914,"version":"13.0b/18.0a"},{"town":"幸崎渡瀬","koaza":"","lat":34.348242,"lng":133.0176,"version":"13.0b/18.0a"},{"town":"鷺浦町須波","koaza":"","lat":34.348806,"lng":133.113839,"version":"13.0b/18.0a"},{"town":"鷺浦町向田野浦","koaza":"","lat":34.331097,"lng":133.112273,"version":"13.0b/18.0a"},{"town":"桜山町","koaza":"","lat":34.407001,"lng":133.084874,"version":"13.0b/18.0a"},{"town":"下北方一丁目","koaza":"","lat":34.406395,"lng":132.978195,"version":"13.0b/18.0a"},{"town":"下北方二丁目","koaza":"","lat":34.4086,"lng":132.975071,"version":"13.0b/18.0a"},{"town":"城町一丁目","koaza":"","lat":34.399171,"lng":133.083413,"version":"13.0b/18.0a"},{"town":"城町二丁目","koaza":"","lat":34.399034,"lng":133.087385,"version":"13.0b/18.0a"},{"town":"城町三丁目","koaza":"","lat":34.396496,"lng":133.085381,"version":"13.0b/18.0a"},{"town":"新倉一丁目","koaza":"","lat":34.393144,"lng":133.055496,"version":"13.0b/18.0a"},{"town":"新倉二丁目","koaza":"","lat":34.393246,"lng":133.046073,"version":"13.0b/18.0a"},{"town":"新倉三丁目","koaza":"","lat":34.396169,"lng":133.045789,"version":"13.0b/18.0a"},{"town":"新倉町","koaza":"","lat":34.396563,"lng":133.050744,"version":"13.0b/18.0a"},{"town":"須波一丁目","koaza":"","lat":34.367705,"lng":133.083518,"version":"13.0b/18.0a"},{"town":"須波二丁目","koaza":"","lat":34.367647,"lng":133.081994,"version":"13.0b/18.0a"},{"town":"須波町","koaza":"","lat":34.369665,"lng":133.079263,"version":"13.0b/18.0a"},{"town":"須波西一丁目","koaza":"","lat":34.354883,"lng":133.082185,"version":"13.0b/18.0a"},{"town":"須波西二丁目","koaza":"","lat":34.357819,"lng":133.078371,"version":"13.0b/18.0a"},{"town":"須波西町","koaza":"","lat":34.357497,"lng":133.07249,"version":"13.0b/18.0a"},{"town":"須波ハイツ一丁目","koaza":"","lat":34.347483,"lng":133.07882,"version":"13.0b/18.0a"},{"town":"須波ハイツ二丁目","koaza":"","lat":34.352185,"lng":133.079005,"version":"13.0b/18.0a"},{"town":"須波ハイツ三丁目","koaza":"","lat":34.347478,"lng":133.076174,"version":"13.0b/18.0a"},{"town":"須波ハイツ四丁目","koaza":"","lat":34.351505,"lng":133.075439,"version":"13.0b/18.0a"},{"town":"宗郷一丁目","koaza":"","lat":34.387142,"lng":133.06469,"version":"13.0b/18.0a"},{"town":"宗郷二丁目","koaza":"","lat":34.384277,"lng":133.064468,"version":"13.0b/18.0a"},{"town":"宗郷三丁目","koaza":"","lat":34.386773,"lng":133.059689,"version":"13.0b/18.0a"},{"town":"宗郷四丁目","koaza":"","lat":34.383404,"lng":133.061556,"version":"13.0b/18.0a"},{"town":"宗郷五丁目","koaza":"","lat":34.377423,"lng":133.060617,"version":"13.0b/18.0a"},{"town":"宗郷町","koaza":"","lat":34.374174,"lng":133.066602,"version":"13.0b/18.0a"},{"town":"大和町姥ケ原","koaza":"","lat":34.470572,"lng":132.961699,"version":"13.0b/18.0a"},{"town":"大和町大具","koaza":"","lat":34.537177,"lng":132.910926,"version":"13.0b/18.0a"},{"town":"大和町大草","koaza":"","lat":34.499502,"lng":132.967643,"version":"13.0b/18.0a"},{"town":"大和町上草井","koaza":"","lat":34.542718,"lng":132.861701,"version":"13.0b/18.0a"},{"town":"大和町上徳良","koaza":"","lat":34.533006,"lng":132.974952,"version":"13.0b/18.0a"},{"town":"大和町蔵宗","koaza":"","lat":34.567162,"lng":132.899226,"version":"13.0b/18.0a"},{"town":"大和町篠","koaza":"","lat":34.577598,"lng":132.923181,"version":"13.0b/18.0a"},{"town":"大和町下草井","koaza":"","lat":34.54716,"lng":132.890101,"version":"13.0b/18.0a"},{"town":"大和町下徳良","koaza":"","lat":34.542646,"lng":132.939475,"version":"13.0b/18.0a"},{"town":"大和町萩原","koaza":"","lat":34.566439,"lng":132.948128,"version":"13.0b/18.0a"},{"town":"大和町箱川","koaza":"","lat":34.499949,"lng":132.9022,"version":"13.0b/18.0a"},{"town":"大和町平坂","koaza":"","lat":34.477955,"lng":132.941913,"version":"13.0b/18.0a"},{"town":"大和町福田","koaza":"","lat":34.560269,"lng":132.970363,"version":"13.0b/18.0a"},{"town":"大和町椋梨","koaza":"","lat":34.527096,"lng":132.882404,"version":"13.0b/18.0a"},{"town":"大和町和木","koaza":"","lat":34.500309,"lng":132.916759,"version":"13.0b/18.0a"},{"town":"高坂町真良","koaza":"","lat":34.441338,"lng":132.998571,"version":"13.0b/18.0a"},{"town":"高坂町許山","koaza":"","lat":34.455145,"lng":133.030633,"version":"13.0b/18.0a"},{"town":"田野浦一丁目","koaza":"","lat":34.381381,"lng":133.04675,"version":"13.0b/18.0a"},{"town":"田野浦二丁目","koaza":"","lat":34.381514,"lng":133.044792,"version":"13.0b/18.0a"},{"town":"田野浦三丁目","koaza":"","lat":34.375975,"lng":133.040856,"version":"13.0b/18.0a"},{"town":"田野浦町","koaza":"","lat":34.371668,"lng":133.046788,"version":"13.0b/18.0a"},{"town":"長谷一丁目","koaza":"","lat":34.397713,"lng":133.033212,"version":"13.0b/18.0a"},{"town":"長谷二丁目","koaza":"","lat":34.405085,"lng":133.026978,"version":"13.0b/18.0a"},{"town":"長谷三丁目","koaza":"","lat":34.399335,"lng":133.027732,"version":"13.0b/18.0a"},{"town":"長谷四丁目","koaza":"","lat":34.403497,"lng":133.019365,"version":"13.0b/18.0a"},{"town":"長谷五丁目","koaza":"","lat":34.401533,"lng":133.017889,"version":"13.0b/18.0a"},{"town":"長谷町","koaza":"","lat":34.406042,"lng":133.034347,"version":"13.0b/18.0a"},{"town":"中之町一丁目","koaza":"","lat":34.408633,"lng":133.091204,"version":"13.0b/18.0a"},{"town":"中之町二丁目","koaza":"","lat":34.411513,"lng":133.093588,"version":"13.0b/18.0a"},{"town":"中之町三丁目","koaza":"","lat":34.416581,"lng":133.100488,"version":"13.0b/18.0a"},{"town":"中之町四丁目","koaza":"","lat":34.410167,"lng":133.101188,"version":"13.0b/18.0a"},{"town":"中之町五丁目","koaza":"","lat":34.418936,"lng":133.104531,"version":"13.0b/18.0a"},{"town":"中之町六丁目","koaza":"","lat":34.422592,"lng":133.111091,"version":"13.0b/18.0a"},{"town":"中之町七丁目","koaza":"","lat":34.416989,"lng":133.10735,"version":"13.0b/18.0a"},{"town":"中之町八丁目","koaza":"","lat":34.411844,"lng":133.123961,"version":"13.0b/18.0a"},{"town":"中之町九丁目","koaza":"","lat":34.429317,"lng":133.12,"version":"13.0b/18.0a"},{"town":"中之町北","koaza":"","lat":34.435874,"lng":133.093221,"version":"13.0b/18.0a"},{"town":"中之町南","koaza":"","lat":34.410884,"lng":133.13309,"version":"13.0b/18.0a"},{"town":"西野一丁目","koaza":"","lat":34.402352,"lng":133.061907,"version":"13.0b/18.0a"},{"town":"西野二丁目","koaza":"","lat":34.403121,"lng":133.058891,"version":"13.0b/18.0a"},{"town":"西野三丁目","koaza":"","lat":34.410561,"lng":133.05285,"version":"13.0b/18.0a"},{"town":"西野四丁目","koaza":"","lat":34.4061,"lng":133.060245,"version":"13.0b/18.0a"},{"town":"西野五丁目","koaza":"","lat":34.414146,"lng":133.060084,"version":"13.0b/18.0a"},{"town":"西町一丁目","koaza":"","lat":34.401437,"lng":133.074162,"version":"13.0b/18.0a"},{"town":"西町二丁目","koaza":"","lat":34.404836,"lng":133.075392,"version":"13.0b/18.0a"},{"town":"西宮一丁目","koaza":"","lat":34.404156,"lng":133.069296,"version":"13.0b/18.0a"},{"town":"西宮二丁目","koaza":"","lat":34.407715,"lng":133.067961,"version":"13.0b/18.0a"},{"town":"沼田一丁目","koaza":"","lat":34.398928,"lng":133.040628,"version":"13.0b/18.0a"},{"town":"沼田二丁目","koaza":"","lat":34.409642,"lng":133.041579,"version":"13.0b/18.0a"},{"town":"沼田三丁目","koaza":"","lat":34.419747,"lng":133.045138,"version":"13.0b/18.0a"},{"town":"沼田町","koaza":"","lat":34.423322,"lng":133.035962,"version":"13.0b/18.0a"},{"town":"沼田西町小原","koaza":"","lat":34.396868,"lng":132.993185,"version":"13.0b/18.0a"},{"town":"沼田西町惣定","koaza":"","lat":34.383901,"lng":132.990476,"version":"13.0b/18.0a"},{"town":"沼田西町松江","koaza":"","lat":34.393452,"lng":132.981112,"version":"13.0b/18.0a"},{"town":"沼田東町片島","koaza":"","lat":34.387079,"lng":133.020508,"version":"13.0b/18.0a"},{"town":"沼田東町釜山","koaza":"","lat":34.369266,"lng":133.017898,"version":"13.0b/18.0a"},{"town":"沼田東町七宝","koaza":"","lat":34.390453,"lng":133.032571,"version":"13.0b/18.0a"},{"town":"沼田東町末広","koaza":"","lat":34.387177,"lng":133.00644,"version":"13.0b/18.0a"},{"town":"沼田東町末光","koaza":"","lat":34.371294,"lng":133.031261,"version":"13.0b/18.0a"},{"town":"沼田東町納所","koaza":"","lat":34.397616,"lng":133.009137,"version":"13.0b/18.0a"},{"town":"沼田東町本市","koaza":"","lat":34.394917,"lng":133.022931,"version":"13.0b/18.0a"},{"town":"沼田東町両名","koaza":"","lat":34.382582,"lng":133.03264,"version":"13.0b/18.0a"},{"town":"登町","koaza":"","lat":34.366797,"lng":133.066642,"version":"13.0b/18.0a"},{"town":"鉢ケ峰町","koaza":"","lat":34.393339,"lng":133.134241,"version":"13.0b/18.0a"},{"town":"東町一丁目","koaza":"","lat":34.400185,"lng":133.091974,"version":"13.0b/18.0a"},{"town":"東町二丁目","koaza":"","lat":34.403605,"lng":133.089085,"version":"13.0b/18.0a"},{"town":"東町三丁目","koaza":"","lat":34.402283,"lng":133.091988,"version":"13.0b/18.0a"},{"town":"深町","koaza":"","lat":34.43854,"lng":133.135129,"version":"13.0b/18.0a"},{"town":"本郷北一丁目","koaza":"","lat":34.409397,"lng":133.004159,"version":"13.0b/18.0a"},{"town":"本郷北二丁目","koaza":"","lat":34.417147,"lng":132.997592,"version":"13.0b/18.0a"},{"town":"本郷北三丁目","koaza":"","lat":34.411282,"lng":132.988423,"version":"13.0b/18.0a"},{"town":"本郷北四丁目","koaza":"","lat":34.41438,"lng":132.984837,"version":"13.0b/18.0a"},{"town":"本郷町上北方","koaza":"","lat":34.426427,"lng":132.937324,"version":"13.0b/18.0a"},{"town":"本郷町下北方","koaza":"","lat":34.409834,"lng":132.968729,"version":"13.0b/18.0a"},{"town":"本郷町善入寺","koaza":"","lat":34.436868,"lng":132.909136,"version":"13.0b/18.0a"},{"town":"本郷町船木","koaza":"","lat":34.450962,"lng":132.969022,"version":"13.0b/18.0a"},{"town":"本郷町本郷","koaza":"","lat":34.417393,"lng":132.96928,"version":"13.0b/18.0a"},{"town":"本郷町南方","koaza":"","lat":34.38601,"lng":132.94924,"version":"13.0b/18.0a"},{"town":"本郷南一丁目","koaza":"","lat":34.406531,"lng":133.01014,"version":"13.0b/18.0a"},{"town":"本郷南二丁目","koaza":"","lat":34.406341,"lng":133.002902,"version":"13.0b/18.0a"},{"town":"本郷南三丁目","koaza":"","lat":34.407278,"lng":132.995516,"version":"13.0b/18.0a"},{"town":"本郷南四丁目","koaza":"","lat":34.403671,"lng":132.995115,"version":"13.0b/18.0a"},{"town":"本郷南五丁目","koaza":"","lat":34.40645,"lng":132.989357,"version":"13.0b/18.0a"},{"town":"本郷南六丁目","koaza":"","lat":34.411384,"lng":132.981554,"version":"13.0b/18.0a"},{"town":"本郷南七丁目","koaza":"","lat":34.416028,"lng":132.97658,"version":"13.0b/18.0a"},{"town":"本町一丁目","koaza":"","lat":34.401548,"lng":133.079234,"version":"13.0b/18.0a"},{"town":"本町二丁目","koaza":"","lat":34.404658,"lng":133.082185,"version":"13.0b/18.0a"},{"town":"本町三丁目","koaza":"","lat":34.405237,"lng":133.077059,"version":"13.0b/18.0a"},{"town":"港町一丁目","koaza":"","lat":34.39964,"lng":133.078927,"version":"13.0b/18.0a"},{"town":"港町二丁目","koaza":"","lat":34.399696,"lng":133.075601,"version":"13.0b/18.0a"},{"town":"港町三丁目","koaza":"","lat":34.397934,"lng":133.078607,"version":"13.0b/18.0a"},{"town":"皆実一丁目","koaza":"","lat":34.396874,"lng":133.070328,"version":"13.0b/18.0a"},{"town":"皆実二丁目","koaza":"","lat":34.392105,"lng":133.062598,"version":"13.0b/18.0a"},{"town":"皆実三丁目","koaza":"","lat":34.392022,"lng":133.065529,"version":"13.0b/18.0a"},{"town":"皆実四丁目","koaza":"","lat":34.393575,"lng":133.06948,"version":"13.0b/18.0a"},{"town":"皆実五丁目","koaza":"","lat":34.39014,"lng":133.069702,"version":"13.0b/18.0a"},{"town":"皆実六丁目","koaza":"","lat":34.389914,"lng":133.063254,"version":"13.0b/18.0a"},{"town":"南方一丁目","koaza":"","lat":34.403588,"lng":132.979251,"version":"13.0b/18.0a"},{"town":"南方二丁目","koaza":"","lat":34.400729,"lng":132.971552,"version":"13.0b/18.0a"},{"town":"南方三丁目","koaza":"","lat":34.404583,"lng":132.969581,"version":"13.0b/18.0a"},{"town":"宮浦一丁目","koaza":"","lat":34.401127,"lng":133.064797,"version":"13.0b/18.0a"},{"town":"宮浦二丁目","koaza":"","lat":34.401017,"lng":133.070088,"version":"13.0b/18.0a"},{"town":"宮浦三丁目","koaza":"","lat":34.397604,"lng":133.067611,"version":"13.0b/18.0a"},{"town":"宮浦四丁目","koaza":"","lat":34.398174,"lng":133.063428,"version":"13.0b/18.0a"},{"town":"宮浦五丁目","koaza":"","lat":34.395399,"lng":133.059996,"version":"13.0b/18.0a"},{"town":"宮浦六丁目","koaza":"","lat":34.393128,"lng":133.060816,"version":"13.0b/18.0a"},{"town":"宮沖一丁目","koaza":"","lat":34.398416,"lng":133.074256,"version":"13.0b/18.0a"},{"town":"宮沖二丁目","koaza":"","lat":34.396939,"lng":133.073731,"version":"13.0b/18.0a"},{"town":"宮沖三丁目","koaza":"","lat":34.394958,"lng":133.07383,"version":"13.0b/18.0a"},{"town":"宮沖四丁目","koaza":"","lat":34.392927,"lng":133.073539,"version":"13.0b/18.0a"},{"town":"宮沖五丁目","koaza":"","lat":34.390358,"lng":133.074024,"version":"13.0b/18.0a"},{"town":"明神一丁目","koaza":"","lat":34.3851,"lng":133.054692,"version":"13.0b/18.0a"},{"town":"明神二丁目","koaza":"","lat":34.385719,"lng":133.051202,"version":"13.0b/18.0a"},{"town":"明神三丁目","koaza":"","lat":34.388166,"lng":133.05659,"version":"13.0b/18.0a"},{"town":"明神四丁目","koaza":"","lat":34.389954,"lng":133.050488,"version":"13.0b/18.0a"},{"town":"明神五丁目","koaza":"","lat":34.390826,"lng":133.043418,"version":"13.0b/18.0a"},{"town":"明神町","koaza":"","lat":34.38776,"lng":133.045024,"version":"13.0b/18.0a"},{"town":"館町一丁目","koaza":"","lat":34.40144,"lng":133.08435,"version":"13.0b/18.0a"},{"town":"館町二丁目","koaza":"","lat":34.403794,"lng":133.085141,"version":"13.0b/18.0a"},{"town":"八坂町","koaza":"","lat":34.426356,"lng":133.075031,"version":"13.0b/18.0a"},{"town":"八幡町垣内","koaza":"","lat":34.46396,"lng":133.061708,"version":"13.0b/18.0a"},{"town":"八幡町篝","koaza":"","lat":34.48681,"lng":133.06453,"version":"13.0b/18.0a"},{"town":"八幡町野串","koaza":"","lat":34.477628,"lng":133.07869,"version":"13.0b/18.0a"},{"town":"八幡町本庄","koaza":"","lat":34.476732,"lng":133.113233,"version":"13.0b/18.0a"},{"town":"八幡町美生","koaza":"","lat":34.472185,"lng":133.101254,"version":"13.0b/18.0a"},{"town":"八幡町宮内","koaza":"","lat":34.464608,"lng":133.084127,"version":"13.0b/18.0a"},{"town":"八幡町屋中","koaza":"","lat":34.483184,"lng":133.086027,"version":"13.0b/18.0a"},{"town":"頼兼一丁目","koaza":"","lat":34.400328,"lng":133.058687,"version":"13.0b/18.0a"},{"town":"頼兼二丁目","koaza":"","lat":34.396388,"lng":133.057351,"version":"13.0b/18.0a"},{"town":"和田一丁目","koaza":"","lat":34.386976,"lng":133.070322,"version":"13.0b/18.0a"},{"town":"和田二丁目","koaza":"","lat":34.383481,"lng":133.074687,"version":"13.0b/18.0a"},{"town":"和田三丁目","koaza":"","lat":34.384008,"lng":133.069641,"version":"13.0b/18.0a"},{"town":"和田沖町","koaza":"","lat":34.383509,"lng":133.083358,"version":"13.0b/18.0a"},{"town":"和田町","koaza":"","lat":34.378908,"lng":133.071732,"version":"13.0b/18.0a"},{"town":"本郷町善入寺","koaza":"平岩","lat":34.443449,"lng":132.918082,"version":"13.0b/18.0a"},{"town":"本郷町善入寺","koaza":"北雑木谷","lat":34.440563,"lng":132.911323,"version":"13.0b/18.0a"},{"town":"青葉台","koaza":"","lat":34.380439,"lng":133.040829,"version":"14.0b/19.0a"},{"town":"旭町一丁目","koaza":"","lat":34.399487,"lng":133.09041,"version":"14.0b/19.0a"},{"town":"旭町二丁目","koaza":"","lat":34.3993,"lng":133.092719,"version":"14.0b/19.0a"},{"town":"糸崎一丁目","koaza":"","lat":34.398355,"lng":133.098415,"version":"14.0b/19.0a"},{"town":"糸崎二丁目","koaza":"","lat":34.395919,"lng":133.097628,"version":"14.0b/19.0a"},{"town":"糸崎三丁目","koaza":"","lat":34.397242,"lng":133.101248,"version":"14.0b/19.0a"},{"town":"糸崎四丁目","koaza":"","lat":34.393992,"lng":133.10409,"version":"14.0b/19.0a"},{"town":"糸崎五丁目","koaza":"","lat":34.393444,"lng":133.109363,"version":"14.0b/19.0a"},{"town":"糸崎六丁目","koaza":"","lat":34.390463,"lng":133.111934,"version":"14.0b/19.0a"},{"town":"糸崎七丁目","koaza":"","lat":34.388396,"lng":133.110798,"version":"14.0b/19.0a"},{"town":"糸崎八丁目","koaza":"","lat":34.385099,"lng":133.128638,"version":"14.0b/19.0a"},{"town":"糸崎九丁目","koaza":"","lat":34.383369,"lng":133.115909,"version":"14.0b/19.0a"},{"town":"糸崎町","koaza":"","lat":34.397927,"lng":133.112674,"version":"14.0b/19.0a"},{"town":"糸崎南一丁目","koaza":"","lat":34.394269,"lng":133.096018,"version":"14.0b/19.0a"},{"town":"糸崎南二丁目","koaza":"","lat":34.389634,"lng":133.106046,"version":"14.0b/19.0a"},{"town":"円一町一丁目","koaza":"","lat":34.390836,"lng":133.084832,"version":"14.0b/19.0a"},{"town":"円一町二丁目","koaza":"","lat":34.394631,"lng":133.077425,"version":"14.0b/19.0a"},{"town":"円一町三丁目","koaza":"","lat":34.39501,"lng":133.07613,"version":"14.0b/19.0a"},{"town":"円一町四丁目","koaza":"","lat":34.390331,"lng":133.076612,"version":"14.0b/19.0a"},{"town":"円一町五丁目","koaza":"","lat":34.390044,"lng":133.078255,"version":"14.0b/19.0a"},{"town":"大畑町","koaza":"","lat":34.422237,"lng":133.060617,"version":"14.0b/19.0a"},{"town":"沖浦町","koaza":"","lat":34.368927,"lng":133.073377,"version":"14.0b/19.0a"},{"town":"奥野山町","koaza":"","lat":34.398167,"lng":133.142515,"version":"14.0b/19.0a"},{"town":"小坂町","koaza":"","lat":34.425327,"lng":133.019301,"version":"14.0b/19.0a"},{"town":"貝野町","koaza":"","lat":34.378946,"lng":133.081836,"version":"14.0b/19.0a"},{"town":"学園町","koaza":"","lat":34.39136,"lng":133.056513,"version":"14.0b/19.0a"},{"town":"木原一丁目","koaza":"","lat":34.389013,"lng":133.138659,"version":"14.0b/19.0a"},{"town":"木原二丁目","koaza":"","lat":34.390631,"lng":133.139823,"version":"14.0b/19.0a"},{"town":"木原三丁目","koaza":"","lat":34.393686,"lng":133.146084,"version":"14.0b/19.0a"},{"town":"木原四丁目","koaza":"","lat":34.392272,"lng":133.145288,"version":"14.0b/19.0a"},{"town":"木原五丁目","koaza":"","lat":34.39594,"lng":133.150237,"version":"14.0b/19.0a"},{"town":"木原六丁目","koaza":"","lat":34.400798,"lng":133.156967,"version":"14.0b/19.0a"},{"town":"木原町","koaza":"","lat":34.403262,"lng":133.154334,"version":"14.0b/19.0a"},{"town":"久井町莇原","koaza":"","lat":34.554443,"lng":133.044922,"version":"14.0b/19.0a"},{"town":"久井町泉","koaza":"","lat":34.538966,"lng":133.009137,"version":"14.0b/19.0a"},{"town":"久井町江木","koaza":"","lat":34.542275,"lng":133.038807,"version":"14.0b/19.0a"},{"town":"久井町小林","koaza":"","lat":34.495122,"lng":133.000365,"version":"14.0b/19.0a"},{"town":"久井町坂井原","koaza":"","lat":34.483367,"lng":133.037865,"version":"14.0b/19.0a"},{"town":"久井町下津","koaza":"","lat":34.521516,"lng":133.046961,"version":"14.0b/19.0a"},{"town":"久井町土取","koaza":"","lat":34.475529,"lng":133.022376,"version":"14.0b/19.0a"},{"town":"久井町羽倉","koaza":"","lat":34.5064,"lng":133.010042,"version":"14.0b/19.0a"},{"town":"久井町山中野","koaza":"","lat":34.480821,"lng":133.008415,"version":"14.0b/19.0a"},{"town":"久井町吉田","koaza":"","lat":34.537893,"lng":133.069391,"version":"14.0b/19.0a"},{"town":"久井町和草","koaza":"","lat":34.522433,"lng":133.020522,"version":"14.0b/19.0a"},{"town":"小泉町","koaza":"","lat":34.363082,"lng":132.974855,"version":"14.0b/19.0a"},{"town":"古浜一丁目","koaza":"","lat":34.398415,"lng":133.091294,"version":"14.0b/19.0a"},{"town":"古浜二丁目","koaza":"","lat":34.3955,"lng":133.08965,"version":"14.0b/19.0a"},{"town":"古浜三丁目","koaza":"","lat":34.395411,"lng":133.092076,"version":"14.0b/19.0a"},{"town":"駒ケ原町","koaza":"","lat":34.411573,"lng":133.082451,"version":"14.0b/19.0a"},{"town":"幸崎久和喜","koaza":"","lat":34.348481,"lng":133.067756,"version":"14.0b/19.0a"},{"town":"幸崎町久和喜","koaza":"","lat":34.352656,"lng":133.055612,"version":"14.0b/19.0a"},{"town":"幸崎町能地","koaza":"","lat":34.349787,"lng":133.048366,"version":"14.0b/19.0a"},{"town":"幸崎町渡瀬","koaza":"","lat":34.353664,"lng":133.012201,"version":"14.0b/19.0a"},{"town":"幸崎能地一丁目","koaza":"","lat":34.344442,"lng":133.054139,"version":"14.0b/19.0a"},{"town":"幸崎能地二丁目","koaza":"","lat":34.33696,"lng":133.041209,"version":"14.0b/19.0a"},{"town":"幸崎能地三丁目","koaza":"","lat":34.339844,"lng":133.036803,"version":"14.0b/19.0a"},{"town":"幸崎能地四丁目","koaza":"","lat":34.334018,"lng":133.033082,"version":"14.0b/19.0a"},{"town":"幸崎能地五丁目","koaza":"","lat":34.33521,"lng":133.030232,"version":"14.0b/19.0a"},{"town":"幸崎能地六丁目","koaza":"","lat":34.333895,"lng":133.018579,"version":"14.0b/19.0a"},{"town":"幸崎能地七丁目","koaza":"","lat":34.349146,"lng":133.034914,"version":"14.0b/19.0a"},{"town":"幸崎渡瀬","koaza":"","lat":34.348242,"lng":133.0176,"version":"14.0b/19.0a"},{"town":"鷺浦町須波","koaza":"","lat":34.348806,"lng":133.113839,"version":"14.0b/19.0a"},{"town":"鷺浦町向田野浦","koaza":"","lat":34.331097,"lng":133.112273,"version":"14.0b/19.0a"},{"town":"桜山町","koaza":"","lat":34.407001,"lng":133.084874,"version":"14.0b/19.0a"},{"town":"下北方一丁目","koaza":"","lat":34.406395,"lng":132.978195,"version":"14.0b/19.0a"},{"town":"下北方二丁目","koaza":"","lat":34.4086,"lng":132.975071,"version":"14.0b/19.0a"},{"town":"城町一丁目","koaza":"","lat":34.399171,"lng":133.083413,"version":"14.0b/19.0a"},{"town":"城町二丁目","koaza":"","lat":34.399034,"lng":133.087385,"version":"14.0b/19.0a"},{"town":"城町三丁目","koaza":"","lat":34.396496,"lng":133.085381,"version":"14.0b/19.0a"},{"town":"新倉一丁目","koaza":"","lat":34.393144,"lng":133.055496,"version":"14.0b/19.0a"},{"town":"新倉二丁目","koaza":"","lat":34.393246,"lng":133.046073,"version":"14.0b/19.0a"},{"town":"新倉三丁目","koaza":"","lat":34.396169,"lng":133.045789,"version":"14.0b/19.0a"},{"town":"新倉町","koaza":"","lat":34.396563,"lng":133.050744,"version":"14.0b/19.0a"},{"town":"須波一丁目","koaza":"","lat":34.367705,"lng":133.083518,"version":"14.0b/19.0a"},{"town":"須波二丁目","koaza":"","lat":34.367647,"lng":133.081994,"version":"14.0b/19.0a"},{"town":"須波町","koaza":"","lat":34.369665,"lng":133.079263,"version":"14.0b/19.0a"},{"town":"須波西一丁目","koaza":"","lat":34.354883,"lng":133.082185,"version":"14.0b/19.0a"},{"town":"須波西二丁目","koaza":"","lat":34.357819,"lng":133.078371,"version":"14.0b/19.0a"},{"town":"須波西町","koaza":"","lat":34.357497,"lng":133.07249,"version":"14.0b/19.0a"},{"town":"須波ハイツ一丁目","koaza":"","lat":34.347483,"lng":133.07882,"version":"14.0b/19.0a"},{"town":"須波ハイツ二丁目","koaza":"","lat":34.352185,"lng":133.079005,"version":"14.0b/19.0a"},{"town":"須波ハイツ三丁目","koaza":"","lat":34.347478,"lng":133.076174,"version":"14.0b/19.0a"},{"town":"須波ハイツ四丁目","koaza":"","lat":34.351505,"lng":133.075439,"version":"14.0b/19.0a"},{"town":"宗郷一丁目","koaza":"","lat":34.387142,"lng":133.06469,"version":"14.0b/19.0a"},{"town":"宗郷二丁目","koaza":"","lat":34.384277,"lng":133.064468,"version":"14.0b/19.0a"},{"town":"宗郷三丁目","koaza":"","lat":34.386773,"lng":133.059689,"version":"14.0b/19.0a"},{"town":"宗郷四丁目","koaza":"","lat":34.383404,"lng":133.061556,"version":"14.0b/19.0a"},{"town":"宗郷五丁目","koaza":"","lat":34.377423,"lng":133.060617,"version":"14.0b/19.0a"},{"town":"宗郷町","koaza":"","lat":34.374174,"lng":133.066602,"version":"14.0b/19.0a"},{"town":"大和町姥ケ原","koaza":"","lat":34.470572,"lng":132.961699,"version":"14.0b/19.0a"},{"town":"大和町大具","koaza":"","lat":34.537177,"lng":132.910926,"version":"14.0b/19.0a"},{"town":"大和町大草","koaza":"","lat":34.499502,"lng":132.967643,"version":"14.0b/19.0a"},{"town":"大和町上草井","koaza":"","lat":34.542718,"lng":132.861701,"version":"14.0b/19.0a"},{"town":"大和町上徳良","koaza":"","lat":34.533006,"lng":132.974952,"version":"14.0b/19.0a"},{"town":"大和町蔵宗","koaza":"","lat":34.567162,"lng":132.899226,"version":"14.0b/19.0a"},{"town":"大和町篠","koaza":"","lat":34.577598,"lng":132.923181,"version":"14.0b/19.0a"},{"town":"大和町下草井","koaza":"","lat":34.54716,"lng":132.890101,"version":"14.0b/19.0a"},{"town":"大和町下徳良","koaza":"","lat":34.542646,"lng":132.939475,"version":"14.0b/19.0a"},{"town":"大和町萩原","koaza":"","lat":34.566439,"lng":132.948128,"version":"14.0b/19.0a"},{"town":"大和町箱川","koaza":"","lat":34.499949,"lng":132.9022,"version":"14.0b/19.0a"},{"town":"大和町平坂","koaza":"","lat":34.477955,"lng":132.941913,"version":"14.0b/19.0a"},{"town":"大和町福田","koaza":"","lat":34.560269,"lng":132.970363,"version":"14.0b/19.0a"},{"town":"大和町椋梨","koaza":"","lat":34.527096,"lng":132.882404,"version":"14.0b/19.0a"},{"town":"大和町和木","koaza":"","lat":34.500309,"lng":132.916759,"version":"14.0b/19.0a"},{"town":"高坂町真良","koaza":"","lat":34.441338,"lng":132.998571,"version":"14.0b/19.0a"},{"town":"高坂町許山","koaza":"","lat":34.455145,"lng":133.030633,"version":"14.0b/19.0a"},{"town":"田野浦一丁目","koaza":"","lat":34.381381,"lng":133.04675,"version":"14.0b/19.0a"},{"town":"田野浦二丁目","koaza":"","lat":34.381514,"lng":133.044792,"version":"14.0b/19.0a"},{"town":"田野浦三丁目","koaza":"","lat":34.375975,"lng":133.040856,"version":"14.0b/19.0a"},{"town":"田野浦町","koaza":"","lat":34.371668,"lng":133.046788,"version":"14.0b/19.0a"},{"town":"長谷一丁目","koaza":"","lat":34.397713,"lng":133.033212,"version":"14.0b/19.0a"},{"town":"長谷二丁目","koaza":"","lat":34.405085,"lng":133.026978,"version":"14.0b/19.0a"},{"town":"長谷三丁目","koaza":"","lat":34.399335,"lng":133.027732,"version":"14.0b/19.0a"},{"town":"長谷四丁目","koaza":"","lat":34.403497,"lng":133.019365,"version":"14.0b/19.0a"},{"town":"長谷五丁目","koaza":"","lat":34.401533,"lng":133.017889,"version":"14.0b/19.0a"},{"town":"長谷町","koaza":"","lat":34.406042,"lng":133.034347,"version":"14.0b/19.0a"},{"town":"中之町一丁目","koaza":"","lat":34.408633,"lng":133.091204,"version":"14.0b/19.0a"},{"town":"中之町二丁目","koaza":"","lat":34.411513,"lng":133.093588,"version":"14.0b/19.0a"},{"town":"中之町三丁目","koaza":"","lat":34.416581,"lng":133.100488,"version":"14.0b/19.0a"},{"town":"中之町四丁目","koaza":"","lat":34.410167,"lng":133.101188,"version":"14.0b/19.0a"},{"town":"中之町五丁目","koaza":"","lat":34.418936,"lng":133.104531,"version":"14.0b/19.0a"},{"town":"中之町六丁目","koaza":"","lat":34.422592,"lng":133.111091,"version":"14.0b/19.0a"},{"town":"中之町七丁目","koaza":"","lat":34.416989,"lng":133.10735,"version":"14.0b/19.0a"},{"town":"中之町八丁目","koaza":"","lat":34.411844,"lng":133.123961,"version":"14.0b/19.0a"},{"town":"中之町九丁目","koaza":"","lat":34.429317,"lng":133.12,"version":"14.0b/19.0a"},{"town":"中之町北","koaza":"","lat":34.435874,"lng":133.093221,"version":"14.0b/19.0a"},{"town":"中之町南","koaza":"","lat":34.410884,"lng":133.13309,"version":"14.0b/19.0a"},{"town":"西野一丁目","koaza":"","lat":34.402352,"lng":133.061907,"version":"14.0b/19.0a"},{"town":"西野二丁目","koaza":"","lat":34.403121,"lng":133.058891,"version":"14.0b/19.0a"},{"town":"西野三丁目","koaza":"","lat":34.410561,"lng":133.05285,"version":"14.0b/19.0a"},{"town":"西野四丁目","koaza":"","lat":34.4061,"lng":133.060245,"version":"14.0b/19.0a"},{"town":"西野五丁目","koaza":"","lat":34.414146,"lng":133.060084,"version":"14.0b/19.0a"},{"town":"西町一丁目","koaza":"","lat":34.401437,"lng":133.074162,"version":"14.0b/19.0a"},{"town":"西町二丁目","koaza":"","lat":34.404836,"lng":133.075392,"version":"14.0b/19.0a"},{"town":"西宮一丁目","koaza":"","lat":34.404156,"lng":133.069296,"version":"14.0b/19.0a"},{"town":"西宮二丁目","koaza":"","lat":34.407715,"lng":133.067961,"version":"14.0b/19.0a"},{"town":"沼田一丁目","koaza":"","lat":34.398928,"lng":133.040628,"version":"14.0b/19.0a"},{"town":"沼田二丁目","koaza":"","lat":34.409642,"lng":133.041579,"version":"14.0b/19.0a"},{"town":"沼田三丁目","koaza":"","lat":34.419747,"lng":133.045138,"version":"14.0b/19.0a"},{"town":"沼田町","koaza":"","lat":34.423322,"lng":133.035962,"version":"14.0b/19.0a"},{"town":"沼田西町小原","koaza":"","lat":34.396868,"lng":132.993185,"version":"14.0b/19.0a"},{"town":"沼田西町惣定","koaza":"","lat":34.383901,"lng":132.990476,"version":"14.0b/19.0a"},{"town":"沼田西町松江","koaza":"","lat":34.393452,"lng":132.981112,"version":"14.0b/19.0a"},{"town":"沼田東町片島","koaza":"","lat":34.387079,"lng":133.020508,"version":"14.0b/19.0a"},{"town":"沼田東町釜山","koaza":"","lat":34.369266,"lng":133.017898,"version":"14.0b/19.0a"},{"town":"沼田東町七宝","koaza":"","lat":34.390453,"lng":133.032571,"version":"14.0b/19.0a"},{"town":"沼田東町末広","koaza":"","lat":34.387177,"lng":133.00644,"version":"14.0b/19.0a"},{"town":"沼田東町末光","koaza":"","lat":34.371294,"lng":133.031261,"version":"14.0b/19.0a"},{"town":"沼田東町納所","koaza":"","lat":34.397616,"lng":133.009137,"version":"14.0b/19.0a"},{"town":"沼田東町本市","koaza":"","lat":34.394917,"lng":133.022931,"version":"14.0b/19.0a"},{"town":"沼田東町両名","koaza":"","lat":34.382582,"lng":133.03264,"version":"14.0b/19.0a"},{"town":"登町","koaza":"","lat":34.366797,"lng":133.066642,"version":"14.0b/19.0a"},{"town":"鉢ケ峰町","koaza":"","lat":34.393339,"lng":133.134241,"version":"14.0b/19.0a"},{"town":"東町一丁目","koaza":"","lat":34.400185,"lng":133.091974,"version":"14.0b/19.0a"},{"town":"東町二丁目","koaza":"","lat":34.403605,"lng":133.089085,"version":"14.0b/19.0a"},{"town":"東町三丁目","koaza":"","lat":34.402283,"lng":133.091988,"version":"14.0b/19.0a"},{"town":"深町","koaza":"","lat":34.43854,"lng":133.135129,"version":"14.0b/19.0a"},{"town":"本郷北一丁目","koaza":"","lat":34.409397,"lng":133.004159,"version":"14.0b/19.0a"},{"town":"本郷北二丁目","koaza":"","lat":34.417147,"lng":132.997592,"version":"14.0b/19.0a"},{"town":"本郷北三丁目","koaza":"","lat":34.411282,"lng":132.988423,"version":"14.0b/19.0a"},{"town":"本郷北四丁目","koaza":"","lat":34.41438,"lng":132.984837,"version":"14.0b/19.0a"},{"town":"本郷町上北方","koaza":"","lat":34.426427,"lng":132.937324,"version":"14.0b/19.0a"},{"town":"本郷町下北方","koaza":"","lat":34.409834,"lng":132.968729,"version":"14.0b/19.0a"},{"town":"本郷町善入寺","koaza":"","lat":34.436868,"lng":132.909136,"version":"14.0b/19.0a"},{"town":"本郷町船木","koaza":"","lat":34.450962,"lng":132.969022,"version":"14.0b/19.0a"},{"town":"本郷町本郷","koaza":"","lat":34.417393,"lng":132.96928,"version":"14.0b/19.0a"},{"town":"本郷町南方","koaza":"","lat":34.38601,"lng":132.94924,"version":"14.0b/19.0a"},{"town":"本郷南一丁目","koaza":"","lat":34.406531,"lng":133.01014,"version":"14.0b/19.0a"},{"town":"本郷南二丁目","koaza":"","lat":34.406341,"lng":133.002902,"version":"14.0b/19.0a"},{"town":"本郷南三丁目","koaza":"","lat":34.407278,"lng":132.995516,"version":"14.0b/19.0a"},{"town":"本郷南四丁目","koaza":"","lat":34.403671,"lng":132.995115,"version":"14.0b/19.0a"},{"town":"本郷南五丁目","koaza":"","lat":34.40645,"lng":132.989357,"version":"14.0b/19.0a"},{"town":"本郷南六丁目","koaza":"","lat":34.411384,"lng":132.981554,"version":"14.0b/19.0a"},{"town":"本郷南七丁目","koaza":"","lat":34.416028,"lng":132.97658,"version":"14.0b/19.0a"},{"town":"本町一丁目","koaza":"","lat":34.401548,"lng":133.079234,"version":"14.0b/19.0a"},{"town":"本町二丁目","koaza":"","lat":34.404658,"lng":133.082185,"version":"14.0b/19.0a"},{"town":"本町三丁目","koaza":"","lat":34.405237,"lng":133.077059,"version":"14.0b/19.0a"},{"town":"港町一丁目","koaza":"","lat":34.39964,"lng":133.078927,"version":"14.0b/19.0a"},{"town":"港町二丁目","koaza":"","lat":34.399696,"lng":133.075601,"version":"14.0b/19.0a"},{"town":"港町三丁目","koaza":"","lat":34.397934,"lng":133.078607,"version":"14.0b/19.0a"},{"town":"皆実一丁目","koaza":"","lat":34.396874,"lng":133.070328,"version":"14.0b/19.0a"},{"town":"皆実二丁目","koaza":"","lat":34.392105,"lng":133.062598,"version":"14.0b/19.0a"},{"town":"皆実三丁目","koaza":"","lat":34.392022,"lng":133.065529,"version":"14.0b/19.0a"},{"town":"皆実四丁目","koaza":"","lat":34.393575,"lng":133.06948,"version":"14.0b/19.0a"},{"town":"皆実五丁目","koaza":"","lat":34.39014,"lng":133.069702,"version":"14.0b/19.0a"},{"town":"皆実六丁目","koaza":"","lat":34.389914,"lng":133.063254,"version":"14.0b/19.0a"},{"town":"南方一丁目","koaza":"","lat":34.403588,"lng":132.979251,"version":"14.0b/19.0a"},{"town":"南方二丁目","koaza":"","lat":34.400729,"lng":132.971552,"version":"14.0b/19.0a"},{"town":"南方三丁目","koaza":"","lat":34.404583,"lng":132.969581,"version":"14.0b/19.0a"},{"town":"宮浦一丁目","koaza":"","lat":34.401127,"lng":133.064797,"version":"14.0b/19.0a"},{"town":"宮浦二丁目","koaza":"","lat":34.401017,"lng":133.070088,"version":"14.0b/19.0a"},{"town":"宮浦三丁目","koaza":"","lat":34.397604,"lng":133.067611,"version":"14.0b/19.0a"},{"town":"宮浦四丁目","koaza":"","lat":34.398174,"lng":133.063428,"version":"14.0b/19.0a"},{"town":"宮浦五丁目","koaza":"","lat":34.395399,"lng":133.059996,"version":"14.0b/19.0a"},{"town":"宮浦六丁目","koaza":"","lat":34.393128,"lng":133.060816,"version":"14.0b/19.0a"},{"town":"宮沖一丁目","koaza":"","lat":34.398416,"lng":133.074256,"version":"14.0b/19.0a"},{"town":"宮沖二丁目","koaza":"","lat":34.396939,"lng":133.073731,"version":"14.0b/19.0a"},{"town":"宮沖三丁目","koaza":"","lat":34.394958,"lng":133.07383,"version":"14.0b/19.0a"},{"town":"宮沖四丁目","koaza":"","lat":34.392927,"lng":133.073539,"version":"14.0b/19.0a"},{"town":"宮沖五丁目","koaza":"","lat":34.390358,"lng":133.074024,"version":"14.0b/19.0a"},{"town":"明神一丁目","koaza":"","lat":34.3851,"lng":133.054692,"version":"14.0b/19.0a"},{"town":"明神二丁目","koaza":"","lat":34.385719,"lng":133.051202,"version":"14.0b/19.0a"},{"town":"明神三丁目","koaza":"","lat":34.388166,"lng":133.05659,"version":"14.0b/19.0a"},{"town":"明神四丁目","koaza":"","lat":34.389954,"lng":133.050488,"version":"14.0b/19.0a"},{"town":"明神五丁目","koaza":"","lat":34.390826,"lng":133.043418,"version":"14.0b/19.0a"},{"town":"明神町","koaza":"","lat":34.38776,"lng":133.045024,"version":"14.0b/19.0a"},{"town":"館町一丁目","koaza":"","lat":34.40144,"lng":133.08435,"version":"14.0b/19.0a"},{"town":"館町二丁目","koaza":"","lat":34.403794,"lng":133.085141,"version":"14.0b/19.0a"},{"town":"八坂町","koaza":"","lat":34.426356,"lng":133.075031,"version":"14.0b/19.0a"},{"town":"八幡町垣内","koaza":"","lat":34.46396,"lng":133.061708,"version":"14.0b/19.0a"},{"town":"八幡町篝","koaza":"","lat":34.48681,"lng":133.06453,"version":"14.0b/19.0a"},{"town":"八幡町野串","koaza":"","lat":34.477628,"lng":133.07869,"version":"14.0b/19.0a"},{"town":"八幡町本庄","koaza":"","lat":34.476732,"lng":133.113233,"version":"14.0b/19.0a"},{"town":"八幡町美生","koaza":"","lat":34.472185,"lng":133.101254,"version":"14.0b/19.0a"},{"town":"八幡町宮内","koaza":"","lat":34.464608,"lng":133.084127,"version":"14.0b/19.0a"},{"town":"八幡町屋中","koaza":"","lat":34.483184,"lng":133.086027,"version":"14.0b/19.0a"},{"town":"頼兼一丁目","koaza":"","lat":34.400328,"lng":133.058687,"version":"14.0b/19.0a"},{"town":"頼兼二丁目","koaza":"","lat":34.396388,"lng":133.057351,"version":"14.0b/19.0a"},{"town":"和田一丁目","koaza":"","lat":34.386976,"lng":133.070322,"version":"14.0b/19.0a"},{"town":"和田二丁目","koaza":"","lat":34.383481,"lng":133.074687,"version":"14.0b/19.0a"},{"town":"和田三丁目","koaza":"","lat":34.384008,"lng":133.069641,"version":"14.0b/19.0a"},{"town":"和田沖町","koaza":"","lat":34.383509,"lng":133.083358,"version":"14.0b/19.0a"},{"town":"和田町","koaza":"","lat":34.378908,"lng":133.071732,"version":"14.0b/19.0a"},{"town":"本郷町善入寺","koaza":"平岩","lat":34.443449,"lng":132.918082,"version":"14.0b/19.0a"},{"town":"本郷町善入寺","koaza":"北雑木谷","lat":34.440563,"lng":132.911323,"version":"14.0b/19.0a"}]