[{"town":"大字遊谷","koaza":"","lat":34.580925,"lng":132.225123,"version":"13.0b/18.0a"},{"town":"大字穴","koaza":"","lat":34.576323,"lng":132.368516,"version":"13.0b/18.0a"},{"town":"大字板ケ谷","koaza":"","lat":34.630258,"lng":132.232157,"version":"13.0b/18.0a"},{"town":"大字猪山","koaza":"","lat":34.659254,"lng":132.310122,"version":"13.0b/18.0a"},{"town":"大字打梨","koaza":"","lat":34.560152,"lng":132.173938,"version":"13.0b/18.0a"},{"town":"大字加計","koaza":"","lat":34.609979,"lng":132.322024,"version":"13.0b/18.0a"},{"town":"大字梶ノ木","koaza":"","lat":34.609473,"lng":132.222646,"version":"13.0b/18.0a"},{"town":"大字上筒賀","koaza":"","lat":34.556918,"lng":132.24152,"version":"13.0b/18.0a"},{"town":"大字上殿","koaza":"","lat":34.575343,"lng":132.269998,"version":"13.0b/18.0a"},{"town":"大字川手","koaza":"","lat":34.608384,"lng":132.218156,"version":"13.0b/18.0a"},{"town":"大字観音","koaza":"","lat":34.649391,"lng":132.349747,"version":"13.0b/18.0a"},{"town":"大字下筒賀","koaza":"","lat":34.58472,"lng":132.292946,"version":"13.0b/18.0a"},{"town":"大字下殿河内","koaza":"","lat":34.58685,"lng":132.292279,"version":"13.0b/18.0a"},{"town":"大字寺領","koaza":"","lat":34.601921,"lng":132.256612,"version":"13.0b/18.0a"},{"town":"大字柴木","koaza":"","lat":34.596993,"lng":132.211104,"version":"13.0b/18.0a"},{"town":"大字田吹","koaza":"","lat":34.565503,"lng":132.216166,"version":"13.0b/18.0a"},{"town":"大字津浪","koaza":"","lat":34.583109,"lng":132.332946,"version":"13.0b/18.0a"},{"town":"大字坪野","koaza":"","lat":34.557405,"lng":132.336481,"version":"13.0b/18.0a"},{"town":"大字土居","koaza":"","lat":34.573744,"lng":132.238877,"version":"13.0b/18.0a"},{"town":"大字戸河内","koaza":"","lat":34.576773,"lng":132.227131,"version":"13.0b/18.0a"},{"town":"大字中筒賀","koaza":"","lat":34.561748,"lng":132.246629,"version":"13.0b/18.0a"},{"town":"大字那須","koaza":"","lat":34.577926,"lng":132.181386,"version":"13.0b/18.0a"},{"town":"大字平見谷","koaza":"","lat":34.693499,"lng":132.335577,"version":"13.0b/18.0a"},{"town":"大字横川","koaza":"","lat":34.591712,"lng":132.147974,"version":"13.0b/18.0a"},{"town":"大字吉和郷","koaza":"","lat":34.577037,"lng":132.218061,"version":"13.0b/18.0a"},{"town":"大字小板","koaza":"","lat":34.668813,"lng":132.247065,"version":"13.0b/18.0a"},{"town":"大字松原","koaza":"","lat":34.65949,"lng":132.243754,"version":"13.0b/18.0a"},{"town":"大字遊谷","koaza":"","lat":34.580925,"lng":132.225123,"version":"14.0b/19.0a"},{"town":"大字穴","koaza":"","lat":34.576323,"lng":132.368516,"version":"14.0b/19.0a"},{"town":"大字板ケ谷","koaza":"","lat":34.630258,"lng":132.232157,"version":"14.0b/19.0a"},{"town":"大字猪山","koaza":"","lat":34.659254,"lng":132.310122,"version":"14.0b/19.0a"},{"town":"大字打梨","koaza":"","lat":34.560152,"lng":132.173938,"version":"14.0b/19.0a"},{"town":"大字加計","koaza":"","lat":34.609979,"lng":132.322024,"version":"14.0b/19.0a"},{"town":"大字梶ノ木","koaza":"","lat":34.609473,"lng":132.222646,"version":"14.0b/19.0a"},{"town":"大字上筒賀","koaza":"","lat":34.556918,"lng":132.24152,"version":"14.0b/19.0a"},{"town":"大字上殿","koaza":"","lat":34.575343,"lng":132.269998,"version":"14.0b/19.0a"},{"town":"大字川手","koaza":"","lat":34.608384,"lng":132.218156,"version":"14.0b/19.0a"},{"town":"大字観音","koaza":"","lat":34.649391,"lng":132.349747,"version":"14.0b/19.0a"},{"town":"大字下筒賀","koaza":"","lat":34.58472,"lng":132.292946,"version":"14.0b/19.0a"},{"town":"大字下殿河内","koaza":"","lat":34.58685,"lng":132.292279,"version":"14.0b/19.0a"},{"town":"大字寺領","koaza":"","lat":34.601921,"lng":132.256612,"version":"14.0b/19.0a"},{"town":"大字柴木","koaza":"","lat":34.596993,"lng":132.211104,"version":"14.0b/19.0a"},{"town":"大字田吹","koaza":"","lat":34.565503,"lng":132.216166,"version":"14.0b/19.0a"},{"town":"大字津浪","koaza":"","lat":34.583109,"lng":132.332946,"version":"14.0b/19.0a"},{"town":"大字坪野","koaza":"","lat":34.557405,"lng":132.336481,"version":"14.0b/19.0a"},{"town":"大字土居","koaza":"","lat":34.573744,"lng":132.238877,"version":"14.0b/19.0a"},{"town":"大字戸河内","koaza":"","lat":34.576773,"lng":132.227131,"version":"14.0b/19.0a"},{"town":"大字中筒賀","koaza":"","lat":34.561748,"lng":132.246629,"version":"14.0b/19.0a"},{"town":"大字那須","koaza":"","lat":34.577926,"lng":132.181386,"version":"14.0b/19.0a"},{"town":"大字平見谷","koaza":"","lat":34.693499,"lng":132.335577,"version":"14.0b/19.0a"},{"town":"大字横川","koaza":"","lat":34.591712,"lng":132.147974,"version":"14.0b/19.0a"},{"town":"大字吉和郷","koaza":"","lat":34.577037,"lng":132.218061,"version":"14.0b/19.0a"},{"town":"大字小板","koaza":"","lat":34.668813,"lng":132.247065,"version":"14.0b/19.0a"},{"town":"大字松原","koaza":"","lat":34.65949,"lng":132.243754,"version":"14.0b/19.0a"}]