[{"town":"青崎一丁目","koaza":"","lat":34.372525,"lng":132.506174,"version":"13.0b/18.0a"},{"town":"青崎二丁目","koaza":"","lat":34.372455,"lng":132.507946,"version":"13.0b/18.0a"},{"town":"旭一丁目","koaza":"","lat":34.374588,"lng":132.478923,"version":"13.0b/18.0a"},{"town":"旭二丁目","koaza":"","lat":34.373261,"lng":132.476948,"version":"13.0b/18.0a"},{"town":"旭三丁目","koaza":"","lat":34.369723,"lng":132.475707,"version":"13.0b/18.0a"},{"town":"稲荷町","koaza":"","lat":34.391905,"lng":132.470473,"version":"13.0b/18.0a"},{"town":"宇品海岸一丁目","koaza":"","lat":34.353162,"lng":132.456147,"version":"13.0b/18.0a"},{"town":"宇品海岸二丁目","koaza":"","lat":34.35448,"lng":132.4614,"version":"13.0b/18.0a"},{"town":"宇品海岸三丁目","koaza":"","lat":34.354662,"lng":132.468719,"version":"13.0b/18.0a"},{"town":"宇品神田一丁目","koaza":"","lat":34.367569,"lng":132.465948,"version":"13.0b/18.0a"},{"town":"宇品神田二丁目","koaza":"","lat":34.365088,"lng":132.465994,"version":"13.0b/18.0a"},{"town":"宇品神田三丁目","koaza":"","lat":34.363067,"lng":132.465823,"version":"13.0b/18.0a"},{"town":"宇品神田四丁目","koaza":"","lat":34.361272,"lng":132.465659,"version":"13.0b/18.0a"},{"town":"宇品神田五丁目","koaza":"","lat":34.358095,"lng":132.465369,"version":"13.0b/18.0a"},{"town":"宇品西一丁目","koaza":"","lat":34.370437,"lng":132.46161,"version":"13.0b/18.0a"},{"town":"宇品西二丁目","koaza":"","lat":34.365266,"lng":132.458594,"version":"13.0b/18.0a"},{"town":"宇品西三丁目","koaza":"","lat":34.361543,"lng":132.459859,"version":"13.0b/18.0a"},{"town":"宇品西四丁目","koaza":"","lat":34.357568,"lng":132.459475,"version":"13.0b/18.0a"},{"town":"宇品西五丁目","koaza":"","lat":34.361427,"lng":132.458002,"version":"13.0b/18.0a"},{"town":"宇品西六丁目","koaza":"","lat":34.357414,"lng":132.457646,"version":"13.0b/18.0a"},{"town":"宇品東一丁目","koaza":"","lat":34.365683,"lng":132.468833,"version":"13.0b/18.0a"},{"town":"宇品東二丁目","koaza":"","lat":34.365535,"lng":132.471233,"version":"13.0b/18.0a"},{"town":"宇品東三丁目","koaza":"","lat":34.365416,"lng":132.473632,"version":"13.0b/18.0a"},{"town":"宇品東四丁目","koaza":"","lat":34.362312,"lng":132.477094,"version":"13.0b/18.0a"},{"town":"宇品東五丁目","koaza":"","lat":34.359898,"lng":132.472063,"version":"13.0b/18.0a"},{"town":"宇品東六丁目","koaza":"","lat":34.362107,"lng":132.468526,"version":"13.0b/18.0a"},{"town":"宇品東七丁目","koaza":"","lat":34.358692,"lng":132.468162,"version":"13.0b/18.0a"},{"town":"宇品町","koaza":"","lat":34.338758,"lng":132.482896,"version":"13.0b/18.0a"},{"town":"宇品御幸一丁目","koaza":"","lat":34.370164,"lng":132.462796,"version":"13.0b/18.0a"},{"town":"宇品御幸二丁目","koaza":"","lat":34.365731,"lng":132.463157,"version":"13.0b/18.0a"},{"town":"宇品御幸三丁目","koaza":"","lat":34.363479,"lng":132.462694,"version":"13.0b/18.0a"},{"town":"宇品御幸四丁目","koaza":"","lat":34.359761,"lng":132.46228,"version":"13.0b/18.0a"},{"town":"宇品御幸五丁目","koaza":"","lat":34.357338,"lng":132.462035,"version":"13.0b/18.0a"},{"town":"黄金山町","koaza":"","lat":34.366948,"lng":132.49052,"version":"13.0b/18.0a"},{"town":"大州一丁目","koaza":"","lat":34.387489,"lng":132.489307,"version":"13.0b/18.0a"},{"town":"大州二丁目","koaza":"","lat":34.389978,"lng":132.489205,"version":"13.0b/18.0a"},{"town":"大州三丁目","koaza":"","lat":34.389222,"lng":132.492555,"version":"13.0b/18.0a"},{"town":"大州四丁目","koaza":"","lat":34.38802,"lng":132.496674,"version":"13.0b/18.0a"},{"town":"大州五丁目","koaza":"","lat":34.383958,"lng":132.49717,"version":"13.0b/18.0a"},{"town":"大須賀町","koaza":"","lat":34.400896,"lng":132.469696,"version":"13.0b/18.0a"},{"town":"霞一丁目","koaza":"","lat":34.38092,"lng":132.48043,"version":"13.0b/18.0a"},{"town":"霞二丁目","koaza":"","lat":34.378739,"lng":132.48153,"version":"13.0b/18.0a"},{"town":"上東雲町","koaza":"","lat":34.385553,"lng":132.487093,"version":"13.0b/18.0a"},{"town":"北大河町","koaza":"","lat":34.372436,"lng":132.481799,"version":"13.0b/18.0a"},{"town":"京橋町","koaza":"","lat":34.394958,"lng":132.471686,"version":"13.0b/18.0a"},{"town":"金屋町","koaza":"","lat":34.391437,"lng":132.47275,"version":"13.0b/18.0a"},{"town":"楠那町","koaza":"","lat":34.363737,"lng":132.48667,"version":"13.0b/18.0a"},{"town":"小磯町","koaza":"","lat":34.370263,"lng":132.503202,"version":"13.0b/18.0a"},{"town":"荒神町","koaza":"","lat":34.394655,"lng":132.477843,"version":"13.0b/18.0a"},{"town":"東雲一丁目","koaza":"","lat":34.383872,"lng":132.491214,"version":"13.0b/18.0a"},{"town":"東雲二丁目","koaza":"","lat":34.381224,"lng":132.492327,"version":"13.0b/18.0a"},{"town":"東雲三丁目","koaza":"","lat":34.377742,"lng":132.496967,"version":"13.0b/18.0a"},{"town":"東雲本町一丁目","koaza":"","lat":34.381924,"lng":132.484312,"version":"13.0b/18.0a"},{"town":"東雲本町二丁目","koaza":"","lat":34.381595,"lng":132.487,"version":"13.0b/18.0a"},{"town":"東雲本町三丁目","koaza":"","lat":34.378351,"lng":132.48729,"version":"13.0b/18.0a"},{"town":"丹那新町","koaza":"","lat":34.367868,"lng":132.485022,"version":"13.0b/18.0a"},{"town":"丹那町","koaza":"","lat":34.36594,"lng":132.480741,"version":"13.0b/18.0a"},{"town":"段原一丁目","koaza":"","lat":34.390507,"lng":132.475487,"version":"13.0b/18.0a"},{"town":"段原二丁目","koaza":"","lat":34.388252,"lng":132.476049,"version":"13.0b/18.0a"},{"town":"段原三丁目","koaza":"","lat":34.388323,"lng":132.478046,"version":"13.0b/18.0a"},{"town":"段原四丁目","koaza":"","lat":34.388831,"lng":132.480213,"version":"13.0b/18.0a"},{"town":"段原日出一丁目","koaza":"","lat":34.387436,"lng":132.482029,"version":"13.0b/18.0a"},{"town":"段原日出二丁目","koaza":"","lat":34.38667,"lng":132.483799,"version":"13.0b/18.0a"},{"town":"段原南一丁目","koaza":"","lat":34.383867,"lng":132.476067,"version":"13.0b/18.0a"},{"town":"段原南二丁目","koaza":"","lat":34.38492,"lng":132.478108,"version":"13.0b/18.0a"},{"town":"段原山崎一丁目","koaza":"","lat":34.384383,"lng":132.479297,"version":"13.0b/18.0a"},{"town":"段原山崎二丁目","koaza":"","lat":34.384857,"lng":132.480814,"version":"13.0b/18.0a"},{"town":"段原山崎三丁目","koaza":"","lat":34.384848,"lng":132.483086,"version":"13.0b/18.0a"},{"town":"月見町","koaza":"","lat":34.363304,"lng":132.513331,"version":"13.0b/18.0a"},{"town":"出汐一丁目","koaza":"","lat":34.379795,"lng":132.476016,"version":"13.0b/18.0a"},{"town":"出汐二丁目","koaza":"","lat":34.376042,"lng":132.474295,"version":"13.0b/18.0a"},{"town":"出汐三丁目","koaza":"","lat":34.376953,"lng":132.47786,"version":"13.0b/18.0a"},{"town":"出汐四丁目","koaza":"","lat":34.377941,"lng":132.477769,"version":"13.0b/18.0a"},{"town":"出島一丁目","koaza":"","lat":34.358887,"lng":132.454163,"version":"13.0b/18.0a"},{"town":"出島二丁目","koaza":"","lat":34.352556,"lng":132.445964,"version":"13.0b/18.0a"},{"town":"出島三丁目","koaza":"","lat":34.348637,"lng":132.440938,"version":"13.0b/18.0a"},{"town":"出島四丁目","koaza":"","lat":34.349578,"lng":132.445773,"version":"13.0b/18.0a"},{"town":"西旭町","koaza":"","lat":34.371416,"lng":132.474153,"version":"13.0b/18.0a"},{"town":"西霞町","koaza":"","lat":34.375934,"lng":132.481846,"version":"13.0b/18.0a"},{"town":"西蟹屋一丁目","koaza":"","lat":34.392596,"lng":132.477405,"version":"13.0b/18.0a"},{"town":"西蟹屋二丁目","koaza":"","lat":34.393499,"lng":132.480035,"version":"13.0b/18.0a"},{"town":"西蟹屋三丁目","koaza":"","lat":34.392579,"lng":132.481372,"version":"13.0b/18.0a"},{"town":"西蟹屋四丁目","koaza":"","lat":34.391006,"lng":132.479743,"version":"13.0b/18.0a"},{"town":"西荒神町","koaza":"","lat":34.393563,"lng":132.476961,"version":"13.0b/18.0a"},{"town":"西本浦町","koaza":"","lat":34.375909,"lng":132.486274,"version":"13.0b/18.0a"},{"town":"西翠町","koaza":"","lat":34.369937,"lng":132.464372,"version":"13.0b/18.0a"},{"town":"仁保町","koaza":"","lat":34.313867,"lng":132.46253,"version":"13.0b/18.0a"},{"town":"似島町","koaza":"","lat":34.311304,"lng":132.436899,"version":"13.0b/18.0a"},{"town":"仁保一丁目","koaza":"","lat":34.371539,"lng":132.492914,"version":"13.0b/18.0a"},{"town":"仁保二丁目","koaza":"","lat":34.371028,"lng":132.498312,"version":"13.0b/18.0a"},{"town":"仁保三丁目","koaza":"","lat":34.368109,"lng":132.49658,"version":"13.0b/18.0a"},{"town":"仁保四丁目","koaza":"","lat":34.363634,"lng":132.498267,"version":"13.0b/18.0a"},{"town":"仁保沖町","koaza":"","lat":34.358159,"lng":132.489227,"version":"13.0b/18.0a"},{"town":"仁保新町一丁目","koaza":"","lat":34.377245,"lng":132.492266,"version":"13.0b/18.0a"},{"town":"仁保新町二丁目","koaza":"","lat":34.375792,"lng":132.495244,"version":"13.0b/18.0a"},{"town":"仁保南一丁目","koaza":"","lat":34.36475,"lng":132.496612,"version":"13.0b/18.0a"},{"town":"仁保南二丁目","koaza":"","lat":34.363841,"lng":132.494553,"version":"13.0b/18.0a"},{"town":"日宇那町","koaza":"","lat":34.363486,"lng":132.492457,"version":"13.0b/18.0a"},{"town":"東青崎町","koaza":"","lat":34.374018,"lng":132.509117,"version":"13.0b/18.0a"},{"town":"東駅町","koaza":"","lat":34.392446,"lng":132.489869,"version":"13.0b/18.0a"},{"town":"東霞町","koaza":"","lat":34.377137,"lng":132.484206,"version":"13.0b/18.0a"},{"town":"東荒神町","koaza":"","lat":34.394227,"lng":132.479294,"version":"13.0b/18.0a"},{"town":"東本浦町","koaza":"","lat":34.376306,"lng":132.489701,"version":"13.0b/18.0a"},{"town":"比治山公園","koaza":"","lat":34.384012,"lng":132.472991,"version":"13.0b/18.0a"},{"town":"比治山町","koaza":"","lat":34.38788,"lng":132.47191,"version":"13.0b/18.0a"},{"town":"比治山本町","koaza":"","lat":34.382471,"lng":132.469492,"version":"13.0b/18.0a"},{"town":"堀越一丁目","koaza":"","lat":34.373877,"lng":132.511203,"version":"13.0b/18.0a"},{"town":"堀越二丁目","koaza":"","lat":34.373626,"lng":132.514594,"version":"13.0b/18.0a"},{"town":"堀越三丁目","koaza":"","lat":34.370081,"lng":132.512892,"version":"13.0b/18.0a"},{"town":"本浦町","koaza":"","lat":34.373284,"lng":132.488208,"version":"13.0b/18.0a"},{"town":"松川町","koaza":"","lat":34.390236,"lng":132.47166,"version":"13.0b/18.0a"},{"town":"的場町一丁目","koaza":"","lat":34.393779,"lng":132.474079,"version":"13.0b/18.0a"},{"town":"的場町二丁目","koaza":"","lat":34.391701,"lng":132.474886,"version":"13.0b/18.0a"},{"town":"翠一丁目","koaza":"","lat":34.371149,"lng":132.466284,"version":"13.0b/18.0a"},{"town":"翠二丁目","koaza":"","lat":34.372124,"lng":132.46967,"version":"13.0b/18.0a"},{"town":"翠三丁目","koaza":"","lat":34.371793,"lng":132.471927,"version":"13.0b/18.0a"},{"town":"翠四丁目","koaza":"","lat":34.368568,"lng":132.472594,"version":"13.0b/18.0a"},{"town":"翠五丁目","koaza":"","lat":34.368991,"lng":132.467885,"version":"13.0b/18.0a"},{"town":"南大河町","koaza":"","lat":34.369833,"lng":132.482224,"version":"13.0b/18.0a"},{"town":"南蟹屋一丁目","koaza":"","lat":34.389261,"lng":132.484148,"version":"13.0b/18.0a"},{"town":"南蟹屋二丁目","koaza":"","lat":34.391159,"lng":132.486,"version":"13.0b/18.0a"},{"town":"皆実町一丁目","koaza":"","lat":34.379137,"lng":132.468063,"version":"13.0b/18.0a"},{"town":"皆実町二丁目","koaza":"","lat":34.37629,"lng":132.463586,"version":"13.0b/18.0a"},{"town":"皆実町三丁目","koaza":"","lat":34.376029,"lng":132.466916,"version":"13.0b/18.0a"},{"town":"皆実町四丁目","koaza":"","lat":34.375703,"lng":132.470419,"version":"13.0b/18.0a"},{"town":"皆実町五丁目","koaza":"","lat":34.374014,"lng":132.466555,"version":"13.0b/18.0a"},{"town":"皆実町六丁目","koaza":"","lat":34.372528,"lng":132.463412,"version":"13.0b/18.0a"},{"town":"向洋大原町","koaza":"","lat":34.363813,"lng":132.501801,"version":"13.0b/18.0a"},{"town":"向洋沖町","koaza":"","lat":34.358238,"lng":132.503954,"version":"13.0b/18.0a"},{"town":"向洋新町一丁目","koaza":"","lat":34.366869,"lng":132.511679,"version":"13.0b/18.0a"},{"town":"向洋新町二丁目","koaza":"","lat":34.363946,"lng":132.509993,"version":"13.0b/18.0a"},{"town":"向洋新町三丁目","koaza":"","lat":34.362408,"lng":132.506177,"version":"13.0b/18.0a"},{"town":"向洋新町四丁目","koaza":"","lat":34.361411,"lng":132.502544,"version":"13.0b/18.0a"},{"town":"向洋中町","koaza":"","lat":34.367389,"lng":132.507702,"version":"13.0b/18.0a"},{"town":"向洋本町","koaza":"","lat":34.368909,"lng":132.507415,"version":"13.0b/18.0a"},{"town":"元宇品町","koaza":"","lat":34.34599,"lng":132.461073,"version":"13.0b/18.0a"},{"town":"山城町","koaza":"","lat":34.368482,"lng":132.477072,"version":"13.0b/18.0a"},{"town":"松原町","koaza":"","lat":34.397093,"lng":132.475343,"version":"13.0b/18.0a"},{"town":"猿猴橋町","koaza":"","lat":34.395034,"lng":132.476503,"version":"13.0b/18.0a"},{"town":"青崎一丁目","koaza":"","lat":34.372525,"lng":132.506174,"version":"14.0b/19.0a"},{"town":"青崎二丁目","koaza":"","lat":34.372455,"lng":132.507946,"version":"14.0b/19.0a"},{"town":"旭一丁目","koaza":"","lat":34.374588,"lng":132.478923,"version":"14.0b/19.0a"},{"town":"旭二丁目","koaza":"","lat":34.373261,"lng":132.476948,"version":"14.0b/19.0a"},{"town":"旭三丁目","koaza":"","lat":34.369723,"lng":132.475707,"version":"14.0b/19.0a"},{"town":"稲荷町","koaza":"","lat":34.391905,"lng":132.470473,"version":"14.0b/19.0a"},{"town":"宇品海岸一丁目","koaza":"","lat":34.353162,"lng":132.456147,"version":"14.0b/19.0a"},{"town":"宇品海岸二丁目","koaza":"","lat":34.35448,"lng":132.4614,"version":"14.0b/19.0a"},{"town":"宇品海岸三丁目","koaza":"","lat":34.354662,"lng":132.468719,"version":"14.0b/19.0a"},{"town":"宇品神田一丁目","koaza":"","lat":34.367569,"lng":132.465948,"version":"14.0b/19.0a"},{"town":"宇品神田二丁目","koaza":"","lat":34.365088,"lng":132.465994,"version":"14.0b/19.0a"},{"town":"宇品神田三丁目","koaza":"","lat":34.363067,"lng":132.465823,"version":"14.0b/19.0a"},{"town":"宇品神田四丁目","koaza":"","lat":34.361272,"lng":132.465659,"version":"14.0b/19.0a"},{"town":"宇品神田五丁目","koaza":"","lat":34.358095,"lng":132.465369,"version":"14.0b/19.0a"},{"town":"宇品西一丁目","koaza":"","lat":34.370437,"lng":132.46161,"version":"14.0b/19.0a"},{"town":"宇品西二丁目","koaza":"","lat":34.365266,"lng":132.458594,"version":"14.0b/19.0a"},{"town":"宇品西三丁目","koaza":"","lat":34.361543,"lng":132.459859,"version":"14.0b/19.0a"},{"town":"宇品西四丁目","koaza":"","lat":34.357568,"lng":132.459475,"version":"14.0b/19.0a"},{"town":"宇品西五丁目","koaza":"","lat":34.361427,"lng":132.458002,"version":"14.0b/19.0a"},{"town":"宇品西六丁目","koaza":"","lat":34.357414,"lng":132.457646,"version":"14.0b/19.0a"},{"town":"宇品東一丁目","koaza":"","lat":34.365683,"lng":132.468833,"version":"14.0b/19.0a"},{"town":"宇品東二丁目","koaza":"","lat":34.365535,"lng":132.471233,"version":"14.0b/19.0a"},{"town":"宇品東三丁目","koaza":"","lat":34.365416,"lng":132.473632,"version":"14.0b/19.0a"},{"town":"宇品東四丁目","koaza":"","lat":34.362312,"lng":132.477094,"version":"14.0b/19.0a"},{"town":"宇品東五丁目","koaza":"","lat":34.359898,"lng":132.472063,"version":"14.0b/19.0a"},{"town":"宇品東六丁目","koaza":"","lat":34.362107,"lng":132.468526,"version":"14.0b/19.0a"},{"town":"宇品東七丁目","koaza":"","lat":34.358692,"lng":132.468162,"version":"14.0b/19.0a"},{"town":"宇品町","koaza":"","lat":34.338758,"lng":132.482896,"version":"14.0b/19.0a"},{"town":"宇品御幸一丁目","koaza":"","lat":34.370164,"lng":132.462796,"version":"14.0b/19.0a"},{"town":"宇品御幸二丁目","koaza":"","lat":34.365731,"lng":132.463157,"version":"14.0b/19.0a"},{"town":"宇品御幸三丁目","koaza":"","lat":34.363479,"lng":132.462694,"version":"14.0b/19.0a"},{"town":"宇品御幸四丁目","koaza":"","lat":34.359761,"lng":132.46228,"version":"14.0b/19.0a"},{"town":"宇品御幸五丁目","koaza":"","lat":34.357338,"lng":132.462035,"version":"14.0b/19.0a"},{"town":"黄金山町","koaza":"","lat":34.366948,"lng":132.49052,"version":"14.0b/19.0a"},{"town":"大州一丁目","koaza":"","lat":34.387489,"lng":132.489307,"version":"14.0b/19.0a"},{"town":"大州二丁目","koaza":"","lat":34.389978,"lng":132.489205,"version":"14.0b/19.0a"},{"town":"大州三丁目","koaza":"","lat":34.389222,"lng":132.492555,"version":"14.0b/19.0a"},{"town":"大州四丁目","koaza":"","lat":34.38802,"lng":132.496674,"version":"14.0b/19.0a"},{"town":"大州五丁目","koaza":"","lat":34.383958,"lng":132.49717,"version":"14.0b/19.0a"},{"town":"大須賀町","koaza":"","lat":34.400896,"lng":132.469696,"version":"14.0b/19.0a"},{"town":"霞一丁目","koaza":"","lat":34.38092,"lng":132.48043,"version":"14.0b/19.0a"},{"town":"霞二丁目","koaza":"","lat":34.378739,"lng":132.48153,"version":"14.0b/19.0a"},{"town":"上東雲町","koaza":"","lat":34.385553,"lng":132.487093,"version":"14.0b/19.0a"},{"town":"北大河町","koaza":"","lat":34.372436,"lng":132.481799,"version":"14.0b/19.0a"},{"town":"京橋町","koaza":"","lat":34.394958,"lng":132.471686,"version":"14.0b/19.0a"},{"town":"金屋町","koaza":"","lat":34.391437,"lng":132.47275,"version":"14.0b/19.0a"},{"town":"楠那町","koaza":"","lat":34.363737,"lng":132.48667,"version":"14.0b/19.0a"},{"town":"小磯町","koaza":"","lat":34.370263,"lng":132.503202,"version":"14.0b/19.0a"},{"town":"荒神町","koaza":"","lat":34.394655,"lng":132.477843,"version":"14.0b/19.0a"},{"town":"東雲一丁目","koaza":"","lat":34.383872,"lng":132.491214,"version":"14.0b/19.0a"},{"town":"東雲二丁目","koaza":"","lat":34.381224,"lng":132.492327,"version":"14.0b/19.0a"},{"town":"東雲三丁目","koaza":"","lat":34.377742,"lng":132.496967,"version":"14.0b/19.0a"},{"town":"東雲本町一丁目","koaza":"","lat":34.381924,"lng":132.484312,"version":"14.0b/19.0a"},{"town":"東雲本町二丁目","koaza":"","lat":34.381595,"lng":132.487,"version":"14.0b/19.0a"},{"town":"東雲本町三丁目","koaza":"","lat":34.378351,"lng":132.48729,"version":"14.0b/19.0a"},{"town":"丹那新町","koaza":"","lat":34.367868,"lng":132.485022,"version":"14.0b/19.0a"},{"town":"丹那町","koaza":"","lat":34.36594,"lng":132.480741,"version":"14.0b/19.0a"},{"town":"段原一丁目","koaza":"","lat":34.390507,"lng":132.475487,"version":"14.0b/19.0a"},{"town":"段原二丁目","koaza":"","lat":34.388252,"lng":132.476049,"version":"14.0b/19.0a"},{"town":"段原三丁目","koaza":"","lat":34.388323,"lng":132.478046,"version":"14.0b/19.0a"},{"town":"段原四丁目","koaza":"","lat":34.388831,"lng":132.480213,"version":"14.0b/19.0a"},{"town":"段原日出一丁目","koaza":"","lat":34.387436,"lng":132.482029,"version":"14.0b/19.0a"},{"town":"段原日出二丁目","koaza":"","lat":34.38667,"lng":132.483799,"version":"14.0b/19.0a"},{"town":"段原南一丁目","koaza":"","lat":34.383867,"lng":132.476067,"version":"14.0b/19.0a"},{"town":"段原南二丁目","koaza":"","lat":34.38492,"lng":132.478108,"version":"14.0b/19.0a"},{"town":"段原山崎一丁目","koaza":"","lat":34.384383,"lng":132.479297,"version":"14.0b/19.0a"},{"town":"段原山崎二丁目","koaza":"","lat":34.384857,"lng":132.480814,"version":"14.0b/19.0a"},{"town":"段原山崎三丁目","koaza":"","lat":34.384848,"lng":132.483086,"version":"14.0b/19.0a"},{"town":"月見町","koaza":"","lat":34.363304,"lng":132.513331,"version":"14.0b/19.0a"},{"town":"出汐一丁目","koaza":"","lat":34.379795,"lng":132.476016,"version":"14.0b/19.0a"},{"town":"出汐二丁目","koaza":"","lat":34.376042,"lng":132.474295,"version":"14.0b/19.0a"},{"town":"出汐三丁目","koaza":"","lat":34.376953,"lng":132.47786,"version":"14.0b/19.0a"},{"town":"出汐四丁目","koaza":"","lat":34.377941,"lng":132.477769,"version":"14.0b/19.0a"},{"town":"出島一丁目","koaza":"","lat":34.358887,"lng":132.454163,"version":"14.0b/19.0a"},{"town":"出島二丁目","koaza":"","lat":34.352556,"lng":132.445964,"version":"14.0b/19.0a"},{"town":"出島三丁目","koaza":"","lat":34.348637,"lng":132.440938,"version":"14.0b/19.0a"},{"town":"出島四丁目","koaza":"","lat":34.349578,"lng":132.445773,"version":"14.0b/19.0a"},{"town":"西旭町","koaza":"","lat":34.371416,"lng":132.474153,"version":"14.0b/19.0a"},{"town":"西霞町","koaza":"","lat":34.375934,"lng":132.481846,"version":"14.0b/19.0a"},{"town":"西蟹屋一丁目","koaza":"","lat":34.392596,"lng":132.477405,"version":"14.0b/19.0a"},{"town":"西蟹屋二丁目","koaza":"","lat":34.393499,"lng":132.480035,"version":"14.0b/19.0a"},{"town":"西蟹屋三丁目","koaza":"","lat":34.392579,"lng":132.481372,"version":"14.0b/19.0a"},{"town":"西蟹屋四丁目","koaza":"","lat":34.391006,"lng":132.479743,"version":"14.0b/19.0a"},{"town":"西荒神町","koaza":"","lat":34.393563,"lng":132.476961,"version":"14.0b/19.0a"},{"town":"西本浦町","koaza":"","lat":34.375909,"lng":132.486274,"version":"14.0b/19.0a"},{"town":"西翠町","koaza":"","lat":34.369937,"lng":132.464372,"version":"14.0b/19.0a"},{"town":"仁保町","koaza":"","lat":34.313867,"lng":132.46253,"version":"14.0b/19.0a"},{"town":"似島町","koaza":"","lat":34.311304,"lng":132.436899,"version":"14.0b/19.0a"},{"town":"仁保一丁目","koaza":"","lat":34.371539,"lng":132.492914,"version":"14.0b/19.0a"},{"town":"仁保二丁目","koaza":"","lat":34.371028,"lng":132.498312,"version":"14.0b/19.0a"},{"town":"仁保三丁目","koaza":"","lat":34.368109,"lng":132.49658,"version":"14.0b/19.0a"},{"town":"仁保四丁目","koaza":"","lat":34.363634,"lng":132.498267,"version":"14.0b/19.0a"},{"town":"仁保沖町","koaza":"","lat":34.358159,"lng":132.489227,"version":"14.0b/19.0a"},{"town":"仁保新町一丁目","koaza":"","lat":34.377245,"lng":132.492266,"version":"14.0b/19.0a"},{"town":"仁保新町二丁目","koaza":"","lat":34.375792,"lng":132.495244,"version":"14.0b/19.0a"},{"town":"仁保南一丁目","koaza":"","lat":34.36475,"lng":132.496612,"version":"14.0b/19.0a"},{"town":"仁保南二丁目","koaza":"","lat":34.363841,"lng":132.494553,"version":"14.0b/19.0a"},{"town":"日宇那町","koaza":"","lat":34.363486,"lng":132.492457,"version":"14.0b/19.0a"},{"town":"東青崎町","koaza":"","lat":34.374018,"lng":132.509117,"version":"14.0b/19.0a"},{"town":"東駅町","koaza":"","lat":34.392446,"lng":132.489869,"version":"14.0b/19.0a"},{"town":"東霞町","koaza":"","lat":34.377137,"lng":132.484206,"version":"14.0b/19.0a"},{"town":"東荒神町","koaza":"","lat":34.394227,"lng":132.479294,"version":"14.0b/19.0a"},{"town":"東本浦町","koaza":"","lat":34.376306,"lng":132.489701,"version":"14.0b/19.0a"},{"town":"比治山公園","koaza":"","lat":34.384012,"lng":132.472991,"version":"14.0b/19.0a"},{"town":"比治山町","koaza":"","lat":34.38788,"lng":132.47191,"version":"14.0b/19.0a"},{"town":"比治山本町","koaza":"","lat":34.382471,"lng":132.469492,"version":"14.0b/19.0a"},{"town":"堀越一丁目","koaza":"","lat":34.373877,"lng":132.511203,"version":"14.0b/19.0a"},{"town":"堀越二丁目","koaza":"","lat":34.373626,"lng":132.514594,"version":"14.0b/19.0a"},{"town":"堀越三丁目","koaza":"","lat":34.370081,"lng":132.512892,"version":"14.0b/19.0a"},{"town":"本浦町","koaza":"","lat":34.373284,"lng":132.488208,"version":"14.0b/19.0a"},{"town":"松川町","koaza":"","lat":34.390236,"lng":132.47166,"version":"14.0b/19.0a"},{"town":"的場町一丁目","koaza":"","lat":34.393779,"lng":132.474079,"version":"14.0b/19.0a"},{"town":"的場町二丁目","koaza":"","lat":34.391701,"lng":132.474886,"version":"14.0b/19.0a"},{"town":"翠一丁目","koaza":"","lat":34.371149,"lng":132.466284,"version":"14.0b/19.0a"},{"town":"翠二丁目","koaza":"","lat":34.372124,"lng":132.46967,"version":"14.0b/19.0a"},{"town":"翠三丁目","koaza":"","lat":34.371793,"lng":132.471927,"version":"14.0b/19.0a"},{"town":"翠四丁目","koaza":"","lat":34.368568,"lng":132.472594,"version":"14.0b/19.0a"},{"town":"翠五丁目","koaza":"","lat":34.368991,"lng":132.467885,"version":"14.0b/19.0a"},{"town":"南大河町","koaza":"","lat":34.369833,"lng":132.482224,"version":"14.0b/19.0a"},{"town":"南蟹屋一丁目","koaza":"","lat":34.389261,"lng":132.484148,"version":"14.0b/19.0a"},{"town":"南蟹屋二丁目","koaza":"","lat":34.391159,"lng":132.486,"version":"14.0b/19.0a"},{"town":"皆実町一丁目","koaza":"","lat":34.379137,"lng":132.468063,"version":"14.0b/19.0a"},{"town":"皆実町二丁目","koaza":"","lat":34.37629,"lng":132.463586,"version":"14.0b/19.0a"},{"town":"皆実町三丁目","koaza":"","lat":34.376029,"lng":132.466916,"version":"14.0b/19.0a"},{"town":"皆実町四丁目","koaza":"","lat":34.375703,"lng":132.470419,"version":"14.0b/19.0a"},{"town":"皆実町五丁目","koaza":"","lat":34.374014,"lng":132.466555,"version":"14.0b/19.0a"},{"town":"皆実町六丁目","koaza":"","lat":34.372528,"lng":132.463412,"version":"14.0b/19.0a"},{"town":"向洋大原町","koaza":"","lat":34.363813,"lng":132.501801,"version":"14.0b/19.0a"},{"town":"向洋沖町","koaza":"","lat":34.358238,"lng":132.503954,"version":"14.0b/19.0a"},{"town":"向洋新町一丁目","koaza":"","lat":34.366869,"lng":132.511679,"version":"14.0b/19.0a"},{"town":"向洋新町二丁目","koaza":"","lat":34.363946,"lng":132.509993,"version":"14.0b/19.0a"},{"town":"向洋新町三丁目","koaza":"","lat":34.362408,"lng":132.506177,"version":"14.0b/19.0a"},{"town":"向洋新町四丁目","koaza":"","lat":34.361411,"lng":132.502544,"version":"14.0b/19.0a"},{"town":"向洋中町","koaza":"","lat":34.367389,"lng":132.507702,"version":"14.0b/19.0a"},{"town":"向洋本町","koaza":"","lat":34.368909,"lng":132.507415,"version":"14.0b/19.0a"},{"town":"元宇品町","koaza":"","lat":34.34599,"lng":132.461073,"version":"14.0b/19.0a"},{"town":"山城町","koaza":"","lat":34.368482,"lng":132.477072,"version":"14.0b/19.0a"},{"town":"松原町","koaza":"","lat":34.397093,"lng":132.475343,"version":"14.0b/19.0a"},{"town":"猿猴橋町","koaza":"","lat":34.395034,"lng":132.476503,"version":"14.0b/19.0a"}]