[{"town":"阿字町","koaza":"","lat":34.61866,"lng":133.179216,"version":"13.0b/18.0a"},{"town":"荒谷町","koaza":"","lat":34.602321,"lng":133.21536,"version":"13.0b/18.0a"},{"town":"鵜飼町","koaza":"","lat":34.576825,"lng":133.24986,"version":"13.0b/18.0a"},{"town":"上山町","koaza":"","lat":34.579993,"lng":133.207474,"version":"13.0b/18.0a"},{"town":"小国町","koaza":"","lat":34.554187,"lng":133.178127,"version":"13.0b/18.0a"},{"town":"河南町","koaza":"","lat":34.538825,"lng":133.193369,"version":"13.0b/18.0a"},{"town":"河佐町","koaza":"","lat":34.591862,"lng":133.19361,"version":"13.0b/18.0a"},{"town":"木野山町","koaza":"","lat":34.632187,"lng":133.201867,"version":"13.0b/18.0a"},{"town":"久佐町","koaza":"","lat":34.597493,"lng":133.163278,"version":"13.0b/18.0a"},{"town":"栗柄町","koaza":"","lat":34.542852,"lng":133.23166,"version":"13.0b/18.0a"},{"town":"河面町","koaza":"","lat":34.567794,"lng":133.19588,"version":"13.0b/18.0a"},{"town":"桜が丘一丁目","koaza":"","lat":34.579416,"lng":133.243159,"version":"13.0b/18.0a"},{"town":"桜が丘二丁目","koaza":"","lat":34.578798,"lng":133.247222,"version":"13.0b/18.0a"},{"town":"桜が丘三丁目","koaza":"","lat":34.581336,"lng":133.245731,"version":"13.0b/18.0a"},{"town":"三郎丸町","koaza":"","lat":34.545806,"lng":133.185794,"version":"13.0b/18.0a"},{"town":"篠根町","koaza":"","lat":34.552685,"lng":133.200553,"version":"13.0b/18.0a"},{"town":"上下町有福","koaza":"","lat":34.730806,"lng":133.118131,"version":"13.0b/18.0a"},{"town":"上下町井永","koaza":"","lat":34.681403,"lng":133.142122,"version":"13.0b/18.0a"},{"town":"上下町岡屋","koaza":"","lat":34.67532,"lng":133.169005,"version":"13.0b/18.0a"},{"town":"上下町小塚","koaza":"","lat":34.744938,"lng":133.148163,"version":"13.0b/18.0a"},{"town":"上下町国留","koaza":"","lat":34.687118,"lng":133.10452,"version":"13.0b/18.0a"},{"town":"上下町小堀","koaza":"","lat":34.718042,"lng":133.148483,"version":"13.0b/18.0a"},{"town":"上下町佐倉","koaza":"","lat":34.663945,"lng":133.148209,"version":"13.0b/18.0a"},{"town":"上下町階見","koaza":"","lat":34.698662,"lng":133.178245,"version":"13.0b/18.0a"},{"town":"上下町上下","koaza":"","lat":34.698008,"lng":133.133268,"version":"13.0b/18.0a"},{"town":"上下町深江","koaza":"","lat":34.693747,"lng":133.114442,"version":"13.0b/18.0a"},{"town":"上下町二森","koaza":"","lat":34.703835,"lng":133.145706,"version":"13.0b/18.0a"},{"town":"上下町松崎","koaza":"","lat":34.649895,"lng":133.122592,"version":"13.0b/18.0a"},{"town":"上下町水永","koaza":"","lat":34.661992,"lng":133.15859,"version":"13.0b/18.0a"},{"town":"上下町矢多田","koaza":"","lat":34.652196,"lng":133.143657,"version":"13.0b/18.0a"},{"town":"上下町矢野","koaza":"","lat":34.671427,"lng":133.101513,"version":"13.0b/18.0a"},{"town":"僧殿町","koaza":"","lat":34.54319,"lng":133.207523,"version":"13.0b/18.0a"},{"town":"高木町","koaza":"","lat":34.560904,"lng":133.246238,"version":"13.0b/18.0a"},{"town":"父石町","koaza":"","lat":34.555451,"lng":133.212548,"version":"13.0b/18.0a"},{"town":"出口町","koaza":"","lat":34.586572,"lng":133.225454,"version":"13.0b/18.0a"},{"town":"斗升町","koaza":"","lat":34.650811,"lng":133.170987,"version":"13.0b/18.0a"},{"town":"中須町","koaza":"","lat":34.557375,"lng":133.260539,"version":"13.0b/18.0a"},{"town":"土生町","koaza":"","lat":34.562796,"lng":133.226709,"version":"13.0b/18.0a"},{"town":"広谷町","koaza":"","lat":34.571495,"lng":133.260051,"version":"13.0b/18.0a"},{"town":"府川町","koaza":"","lat":34.567649,"lng":133.236891,"version":"13.0b/18.0a"},{"town":"府中町","koaza":"","lat":34.577183,"lng":133.232682,"version":"13.0b/18.0a"},{"town":"行縢町","koaza":"","lat":34.650009,"lng":133.19585,"version":"13.0b/18.0a"},{"town":"目崎町","koaza":"","lat":34.572086,"lng":133.218138,"version":"13.0b/18.0a"},{"town":"元町","koaza":"","lat":34.575103,"lng":133.239187,"version":"13.0b/18.0a"},{"town":"本山町","koaza":"","lat":34.593652,"lng":133.239247,"version":"13.0b/18.0a"},{"town":"諸毛町","koaza":"","lat":34.574525,"lng":133.165225,"version":"13.0b/18.0a"},{"town":"用土町","koaza":"","lat":34.559315,"lng":133.234908,"version":"13.0b/18.0a"},{"town":"土生町","koaza":"梶屋","lat":34.561174,"lng":133.229081,"version":"13.0b/18.0a"},{"town":"高木町","koaza":"松清","lat":34.562889,"lng":133.246503,"version":"13.0b/18.0a"},{"town":"中須町","koaza":"橋の外","lat":34.554449,"lng":133.26737,"version":"13.0b/18.0a"},{"town":"阿字町","koaza":"","lat":34.61866,"lng":133.179216,"version":"14.0b/19.0a"},{"town":"荒谷町","koaza":"","lat":34.602321,"lng":133.21536,"version":"14.0b/19.0a"},{"town":"鵜飼町","koaza":"","lat":34.576825,"lng":133.24986,"version":"14.0b/19.0a"},{"town":"上山町","koaza":"","lat":34.579993,"lng":133.207474,"version":"14.0b/19.0a"},{"town":"小国町","koaza":"","lat":34.554187,"lng":133.178127,"version":"14.0b/19.0a"},{"town":"河南町","koaza":"","lat":34.538825,"lng":133.193369,"version":"14.0b/19.0a"},{"town":"河佐町","koaza":"","lat":34.591862,"lng":133.19361,"version":"14.0b/19.0a"},{"town":"木野山町","koaza":"","lat":34.632187,"lng":133.201867,"version":"14.0b/19.0a"},{"town":"久佐町","koaza":"","lat":34.597493,"lng":133.163278,"version":"14.0b/19.0a"},{"town":"栗柄町","koaza":"","lat":34.542852,"lng":133.23166,"version":"14.0b/19.0a"},{"town":"河面町","koaza":"","lat":34.567794,"lng":133.19588,"version":"14.0b/19.0a"},{"town":"桜が丘一丁目","koaza":"","lat":34.579416,"lng":133.243159,"version":"14.0b/19.0a"},{"town":"桜が丘二丁目","koaza":"","lat":34.578798,"lng":133.247222,"version":"14.0b/19.0a"},{"town":"桜が丘三丁目","koaza":"","lat":34.581336,"lng":133.245731,"version":"14.0b/19.0a"},{"town":"三郎丸町","koaza":"","lat":34.545806,"lng":133.185794,"version":"14.0b/19.0a"},{"town":"篠根町","koaza":"","lat":34.552685,"lng":133.200553,"version":"14.0b/19.0a"},{"town":"上下町有福","koaza":"","lat":34.730806,"lng":133.118131,"version":"14.0b/19.0a"},{"town":"上下町井永","koaza":"","lat":34.681403,"lng":133.142122,"version":"14.0b/19.0a"},{"town":"上下町岡屋","koaza":"","lat":34.67532,"lng":133.169005,"version":"14.0b/19.0a"},{"town":"上下町小塚","koaza":"","lat":34.744938,"lng":133.148163,"version":"14.0b/19.0a"},{"town":"上下町国留","koaza":"","lat":34.687118,"lng":133.10452,"version":"14.0b/19.0a"},{"town":"上下町小堀","koaza":"","lat":34.718042,"lng":133.148483,"version":"14.0b/19.0a"},{"town":"上下町佐倉","koaza":"","lat":34.663945,"lng":133.148209,"version":"14.0b/19.0a"},{"town":"上下町階見","koaza":"","lat":34.698662,"lng":133.178245,"version":"14.0b/19.0a"},{"town":"上下町上下","koaza":"","lat":34.698008,"lng":133.133268,"version":"14.0b/19.0a"},{"town":"上下町深江","koaza":"","lat":34.693747,"lng":133.114442,"version":"14.0b/19.0a"},{"town":"上下町二森","koaza":"","lat":34.703835,"lng":133.145706,"version":"14.0b/19.0a"},{"town":"上下町松崎","koaza":"","lat":34.649895,"lng":133.122592,"version":"14.0b/19.0a"},{"town":"上下町水永","koaza":"","lat":34.661992,"lng":133.15859,"version":"14.0b/19.0a"},{"town":"上下町矢多田","koaza":"","lat":34.652196,"lng":133.143657,"version":"14.0b/19.0a"},{"town":"上下町矢野","koaza":"","lat":34.671427,"lng":133.101513,"version":"14.0b/19.0a"},{"town":"僧殿町","koaza":"","lat":34.54319,"lng":133.207523,"version":"14.0b/19.0a"},{"town":"高木町","koaza":"","lat":34.560904,"lng":133.246238,"version":"14.0b/19.0a"},{"town":"父石町","koaza":"","lat":34.555451,"lng":133.212548,"version":"14.0b/19.0a"},{"town":"出口町","koaza":"","lat":34.586572,"lng":133.225454,"version":"14.0b/19.0a"},{"town":"斗升町","koaza":"","lat":34.650811,"lng":133.170987,"version":"14.0b/19.0a"},{"town":"中須町","koaza":"","lat":34.557375,"lng":133.260539,"version":"14.0b/19.0a"},{"town":"土生町","koaza":"","lat":34.562796,"lng":133.226709,"version":"14.0b/19.0a"},{"town":"広谷町","koaza":"","lat":34.571495,"lng":133.260051,"version":"14.0b/19.0a"},{"town":"府川町","koaza":"","lat":34.567649,"lng":133.236891,"version":"14.0b/19.0a"},{"town":"府中町","koaza":"","lat":34.577183,"lng":133.232682,"version":"14.0b/19.0a"},{"town":"行縢町","koaza":"","lat":34.650009,"lng":133.19585,"version":"14.0b/19.0a"},{"town":"目崎町","koaza":"","lat":34.572086,"lng":133.218138,"version":"14.0b/19.0a"},{"town":"元町","koaza":"","lat":34.575103,"lng":133.239187,"version":"14.0b/19.0a"},{"town":"本山町","koaza":"","lat":34.593652,"lng":133.239247,"version":"14.0b/19.0a"},{"town":"諸毛町","koaza":"","lat":34.574525,"lng":133.165225,"version":"14.0b/19.0a"},{"town":"用土町","koaza":"","lat":34.559315,"lng":133.234908,"version":"14.0b/19.0a"},{"town":"土生町","koaza":"梶屋","lat":34.561174,"lng":133.229081,"version":"14.0b/19.0a"},{"town":"高木町","koaza":"松清","lat":34.562889,"lng":133.246503,"version":"14.0b/19.0a"},{"town":"中須町","koaza":"橋の外","lat":34.554449,"lng":133.26737,"version":"14.0b/19.0a"}]