[{"town":"茜ケ丘","koaza":"","lat":37.857526,"lng":139.139964,"version":"13.0b/18.0a"},{"town":"阿賀野一丁目","koaza":"","lat":37.831463,"lng":139.167735,"version":"13.0b/18.0a"},{"town":"阿賀野二丁目","koaza":"","lat":37.827275,"lng":139.166847,"version":"13.0b/18.0a"},{"town":"曙町一丁目","koaza":"","lat":37.861324,"lng":139.122152,"version":"13.0b/18.0a"},{"town":"曙町二丁目","koaza":"","lat":37.859572,"lng":139.119565,"version":"13.0b/18.0a"},{"town":"曙町三丁目","koaza":"","lat":37.858987,"lng":139.124156,"version":"13.0b/18.0a"},{"town":"曙町四丁目","koaza":"","lat":37.858557,"lng":139.128201,"version":"13.0b/18.0a"},{"town":"曙町五丁目","koaza":"","lat":37.858872,"lng":139.130853,"version":"13.0b/18.0a"},{"town":"旭一丁目","koaza":"","lat":37.877843,"lng":139.10468,"version":"13.0b/18.0a"},{"town":"旭二丁目","koaza":"","lat":37.876325,"lng":139.104401,"version":"13.0b/18.0a"},{"town":"旭三丁目","koaza":"","lat":37.87523,"lng":139.101744,"version":"13.0b/18.0a"},{"town":"旭四丁目","koaza":"","lat":37.877135,"lng":139.10273,"version":"13.0b/18.0a"},{"town":"天野","koaza":"","lat":37.84708,"lng":139.030048,"version":"13.0b/18.0a"},{"town":"天野一丁目","koaza":"","lat":37.855461,"lng":139.028155,"version":"13.0b/18.0a"},{"town":"天野二丁目","koaza":"","lat":37.856292,"lng":139.032417,"version":"13.0b/18.0a"},{"town":"天野三丁目","koaza":"","lat":37.855672,"lng":139.036246,"version":"13.0b/18.0a"},{"town":"粟山","koaza":"","lat":37.89191,"lng":139.105314,"version":"13.0b/18.0a"},{"town":"泉町一丁目","koaza":"","lat":37.866781,"lng":139.095821,"version":"13.0b/18.0a"},{"town":"泉町二丁目","koaza":"","lat":37.863792,"lng":139.096265,"version":"13.0b/18.0a"},{"town":"泉町三丁目","koaza":"","lat":37.867583,"lng":139.093045,"version":"13.0b/18.0a"},{"town":"泉町四丁目","koaza":"","lat":37.866405,"lng":139.093774,"version":"13.0b/18.0a"},{"town":"泉町五丁目","koaza":"","lat":37.864661,"lng":139.094646,"version":"13.0b/18.0a"},{"town":"稲葉一丁目","koaza":"","lat":37.875003,"lng":139.11412,"version":"13.0b/18.0a"},{"town":"稲葉二丁目","koaza":"","lat":37.87308,"lng":139.115019,"version":"13.0b/18.0a"},{"town":"稲葉三丁目","koaza":"","lat":37.872255,"lng":139.116142,"version":"13.0b/18.0a"},{"town":"いぶき野一丁目","koaza":"","lat":37.857583,"lng":139.143824,"version":"13.0b/18.0a"},{"town":"いぶき野二丁目","koaza":"","lat":37.859392,"lng":139.142805,"version":"13.0b/18.0a"},{"town":"うぐいす一丁目","koaza":"","lat":37.8755,"lng":139.133613,"version":"13.0b/18.0a"},{"town":"うぐいす二丁目","koaza":"","lat":37.876608,"lng":139.135559,"version":"13.0b/18.0a"},{"town":"鵜ノ子","koaza":"","lat":37.878117,"lng":139.086827,"version":"13.0b/18.0a"},{"town":"鵜ノ子一丁目","koaza":"","lat":37.872976,"lng":139.093992,"version":"13.0b/18.0a"},{"town":"鵜ノ子二丁目","koaza":"","lat":37.872461,"lng":139.092038,"version":"13.0b/18.0a"},{"town":"鵜ノ子三丁目","koaza":"","lat":37.875497,"lng":139.090885,"version":"13.0b/18.0a"},{"town":"鵜ノ子四丁目","koaza":"","lat":37.871839,"lng":139.089903,"version":"13.0b/18.0a"},{"town":"鵜ノ子五丁目","koaza":"","lat":37.871073,"lng":139.087896,"version":"13.0b/18.0a"},{"town":"姥ケ山","koaza":"","lat":37.879279,"lng":139.075794,"version":"13.0b/18.0a"},{"town":"梅見台一丁目","koaza":"","lat":37.864174,"lng":139.101869,"version":"13.0b/18.0a"},{"town":"梅見台二丁目","koaza":"","lat":37.862693,"lng":139.103015,"version":"13.0b/18.0a"},{"town":"梅見台三丁目","koaza":"","lat":37.86023,"lng":139.106412,"version":"13.0b/18.0a"},{"town":"江口","koaza":"","lat":37.905484,"lng":139.139783,"version":"13.0b/18.0a"},{"town":"大渕","koaza":"","lat":37.896939,"lng":139.135219,"version":"13.0b/18.0a"},{"town":"荻曽根","koaza":"","lat":37.878564,"lng":139.093666,"version":"13.0b/18.0a"},{"town":"荻曽根一丁目","koaza":"","lat":37.867435,"lng":139.100155,"version":"13.0b/18.0a"},{"town":"荻曽根二丁目","koaza":"","lat":37.866266,"lng":139.100886,"version":"13.0b/18.0a"},{"town":"荻曽根三丁目","koaza":"","lat":37.867566,"lng":139.097226,"version":"13.0b/18.0a"},{"town":"荻曽根四丁目","koaza":"","lat":37.866476,"lng":139.09816,"version":"13.0b/18.0a"},{"town":"荻曽根五丁目","koaza":"","lat":37.864775,"lng":139.09906,"version":"13.0b/18.0a"},{"town":"祖父興野","koaza":"","lat":37.867713,"lng":139.028909,"version":"13.0b/18.0a"},{"town":"嘉木","koaza":"","lat":37.852256,"lng":139.050243,"version":"13.0b/18.0a"},{"town":"嘉瀬","koaza":"","lat":37.846824,"lng":139.074977,"version":"13.0b/18.0a"},{"town":"上和田","koaza":"","lat":37.843505,"lng":139.059192,"version":"13.0b/18.0a"},{"town":"亀田","koaza":"","lat":37.883335,"lng":139.097825,"version":"13.0b/18.0a"},{"town":"亀田東町一丁目","koaza":"","lat":37.869671,"lng":139.11382,"version":"13.0b/18.0a"},{"town":"亀田東町二丁目","koaza":"","lat":37.867295,"lng":139.113623,"version":"13.0b/18.0a"},{"town":"亀田東町三丁目","koaza":"","lat":37.868173,"lng":139.114629,"version":"13.0b/18.0a"},{"town":"亀田東町四丁目","koaza":"","lat":37.868227,"lng":139.115954,"version":"13.0b/18.0a"},{"town":"亀田大月一丁目","koaza":"","lat":37.87947,"lng":139.102904,"version":"13.0b/18.0a"},{"town":"亀田大月二丁目","koaza":"","lat":37.8819,"lng":139.101649,"version":"13.0b/18.0a"},{"town":"亀田大月三丁目","koaza":"","lat":37.885407,"lng":139.099503,"version":"13.0b/18.0a"},{"town":"亀田工業団地一丁目","koaza":"","lat":37.871258,"lng":139.083949,"version":"13.0b/18.0a"},{"town":"亀田工業団地二丁目","koaza":"","lat":37.871374,"lng":139.080168,"version":"13.0b/18.0a"},{"town":"亀田工業団地三丁目","koaza":"","lat":37.873783,"lng":139.082511,"version":"13.0b/18.0a"},{"town":"亀田向陽一丁目","koaza":"","lat":37.876815,"lng":139.110644,"version":"13.0b/18.0a"},{"town":"亀田向陽二丁目","koaza":"","lat":37.877993,"lng":139.113115,"version":"13.0b/18.0a"},{"town":"亀田向陽三丁目","koaza":"","lat":37.879541,"lng":139.108269,"version":"13.0b/18.0a"},{"town":"亀田向陽四丁目","koaza":"","lat":37.880549,"lng":139.110307,"version":"13.0b/18.0a"},{"town":"亀田新明町一丁目","koaza":"","lat":37.868482,"lng":139.111583,"version":"13.0b/18.0a"},{"town":"亀田新明町二丁目","koaza":"","lat":37.867767,"lng":139.109919,"version":"13.0b/18.0a"},{"town":"亀田新明町三丁目","koaza":"","lat":37.866819,"lng":139.111668,"version":"13.0b/18.0a"},{"town":"亀田新明町四丁目","koaza":"","lat":37.865594,"lng":139.11174,"version":"13.0b/18.0a"},{"town":"亀田新明町五丁目","koaza":"","lat":37.865255,"lng":139.110707,"version":"13.0b/18.0a"},{"town":"亀田水道町一丁目","koaza":"","lat":37.870682,"lng":139.116374,"version":"13.0b/18.0a"},{"town":"亀田水道町二丁目","koaza":"","lat":37.869927,"lng":139.117861,"version":"13.0b/18.0a"},{"town":"亀田水道町三丁目","koaza":"","lat":37.868583,"lng":139.118281,"version":"13.0b/18.0a"},{"town":"亀田水道町四丁目","koaza":"","lat":37.869333,"lng":139.120468,"version":"13.0b/18.0a"},{"town":"亀田水道町五丁目","koaza":"","lat":37.867089,"lng":139.119131,"version":"13.0b/18.0a"},{"town":"亀田中島一丁目","koaza":"","lat":37.880888,"lng":139.104856,"version":"13.0b/18.0a"},{"town":"亀田中島二丁目","koaza":"","lat":37.8837,"lng":139.103144,"version":"13.0b/18.0a"},{"town":"亀田中島三丁目","koaza":"","lat":37.886271,"lng":139.101572,"version":"13.0b/18.0a"},{"town":"亀田中島四丁目","koaza":"","lat":37.888781,"lng":139.100446,"version":"13.0b/18.0a"},{"town":"亀田長潟","koaza":"","lat":37.872814,"lng":139.066571,"version":"13.0b/18.0a"},{"town":"亀田ノ内高山","koaza":"","lat":37.879682,"lng":139.100705,"version":"13.0b/18.0a"},{"town":"亀田早通","koaza":"","lat":37.862191,"lng":139.079666,"version":"13.0b/18.0a"},{"town":"亀田本町一丁目","koaza":"","lat":37.872851,"lng":139.107424,"version":"13.0b/18.0a"},{"town":"亀田本町二丁目","koaza":"","lat":37.870745,"lng":139.108376,"version":"13.0b/18.0a"},{"town":"亀田本町三丁目","koaza":"","lat":37.868442,"lng":139.107523,"version":"13.0b/18.0a"},{"town":"亀田本町四丁目","koaza":"","lat":37.867407,"lng":139.108509,"version":"13.0b/18.0a"},{"town":"亀田緑町一丁目","koaza":"","lat":37.87264,"lng":139.10134,"version":"13.0b/18.0a"},{"town":"亀田緑町二丁目","koaza":"","lat":37.870982,"lng":139.102672,"version":"13.0b/18.0a"},{"town":"亀田緑町三丁目","koaza":"","lat":37.872401,"lng":139.100003,"version":"13.0b/18.0a"},{"town":"亀田緑町四丁目","koaza":"","lat":37.869949,"lng":139.101383,"version":"13.0b/18.0a"},{"town":"亀田四ツ興野一丁目","koaza":"","lat":37.87246,"lng":139.09769,"version":"13.0b/18.0a"},{"town":"亀田四ツ興野二丁目","koaza":"","lat":37.870836,"lng":139.096064,"version":"13.0b/18.0a"},{"town":"亀田四ツ興野三丁目","koaza":"","lat":37.870998,"lng":139.098453,"version":"13.0b/18.0a"},{"town":"亀田四ツ興野四丁目","koaza":"","lat":37.869559,"lng":139.099286,"version":"13.0b/18.0a"},{"town":"亀田四ツ興野五丁目","koaza":"","lat":37.868718,"lng":139.096784,"version":"13.0b/18.0a"},{"town":"北山","koaza":"","lat":37.880715,"lng":139.114306,"version":"13.0b/18.0a"},{"town":"木津","koaza":"","lat":37.840163,"lng":139.144519,"version":"13.0b/18.0a"},{"town":"木津一丁目","koaza":"","lat":37.835427,"lng":139.13714,"version":"13.0b/18.0a"},{"town":"木津二丁目","koaza":"","lat":37.836589,"lng":139.133096,"version":"13.0b/18.0a"},{"town":"木津三丁目","koaza":"","lat":37.838078,"lng":139.13061,"version":"13.0b/18.0a"},{"town":"木津四丁目","koaza":"","lat":37.837876,"lng":139.125822,"version":"13.0b/18.0a"},{"town":"木津五丁目","koaza":"","lat":37.837026,"lng":139.122078,"version":"13.0b/18.0a"},{"town":"木津工業団地","koaza":"","lat":37.840303,"lng":139.130754,"version":"13.0b/18.0a"},{"town":"久蔵興野","koaza":"","lat":37.872491,"lng":139.031251,"version":"13.0b/18.0a"},{"town":"蔵岡","koaza":"","lat":37.884944,"lng":139.155249,"version":"13.0b/18.0a"},{"town":"小杉","koaza":"","lat":37.873032,"lng":139.150953,"version":"13.0b/18.0a"},{"town":"小杉一丁目","koaza":"","lat":37.868411,"lng":139.161256,"version":"13.0b/18.0a"},{"town":"小杉二丁目","koaza":"","lat":37.870618,"lng":139.161592,"version":"13.0b/18.0a"},{"town":"小杉三丁目","koaza":"","lat":37.873956,"lng":139.161015,"version":"13.0b/18.0a"},{"town":"小杉四丁目","koaza":"","lat":37.877058,"lng":139.158342,"version":"13.0b/18.0a"},{"town":"小杉五丁目","koaza":"","lat":37.880905,"lng":139.156717,"version":"13.0b/18.0a"},{"town":"駒込","koaza":"","lat":37.869472,"lng":139.135882,"version":"13.0b/18.0a"},{"town":"駒込一丁目","koaza":"","lat":37.873211,"lng":139.132652,"version":"13.0b/18.0a"},{"town":"駒込二丁目","koaza":"","lat":37.873615,"lng":139.13514,"version":"13.0b/18.0a"},{"town":"酒屋町","koaza":"","lat":37.842239,"lng":139.065753,"version":"13.0b/18.0a"},{"town":"笹山","koaza":"","lat":37.880578,"lng":139.150841,"version":"13.0b/18.0a"},{"town":"五月町一丁目","koaza":"","lat":37.875381,"lng":139.099422,"version":"13.0b/18.0a"},{"town":"五月町二丁目","koaza":"","lat":37.87423,"lng":139.097072,"version":"13.0b/18.0a"},{"town":"五月町三丁目","koaza":"","lat":37.873474,"lng":139.095036,"version":"13.0b/18.0a"},{"town":"早苗一丁目","koaza":"","lat":37.870465,"lng":139.094743,"version":"13.0b/18.0a"},{"town":"早苗二丁目","koaza":"","lat":37.870404,"lng":139.092051,"version":"13.0b/18.0a"},{"town":"早苗三丁目","koaza":"","lat":37.868953,"lng":139.09267,"version":"13.0b/18.0a"},{"town":"早苗四丁目","koaza":"","lat":37.868591,"lng":139.08966,"version":"13.0b/18.0a"},{"town":"三條岡一丁目","koaza":"","lat":37.8704,"lng":139.123093,"version":"13.0b/18.0a"},{"town":"三條岡二丁目","koaza":"","lat":37.869132,"lng":139.123696,"version":"13.0b/18.0a"},{"town":"三百地","koaza":"","lat":37.898872,"lng":139.145117,"version":"13.0b/18.0a"},{"town":"下早通一丁目","koaza":"","lat":37.868082,"lng":139.077471,"version":"13.0b/18.0a"},{"town":"下早通二丁目","koaza":"","lat":37.871634,"lng":139.074445,"version":"13.0b/18.0a"},{"town":"下早通柳田一丁目","koaza":"","lat":37.876559,"lng":139.080957,"version":"13.0b/18.0a"},{"town":"下早通柳田二丁目","koaza":"","lat":37.875539,"lng":139.077832,"version":"13.0b/18.0a"},{"town":"鐘木","koaza":"","lat":37.871464,"lng":139.048146,"version":"13.0b/18.0a"},{"town":"城所","koaza":"","lat":37.855143,"lng":139.117513,"version":"13.0b/18.0a"},{"town":"城所一丁目","koaza":"","lat":37.860057,"lng":139.108509,"version":"13.0b/18.0a"},{"town":"城所二丁目","koaza":"","lat":37.862252,"lng":139.105674,"version":"13.0b/18.0a"},{"town":"城山一丁目","koaza":"","lat":37.863435,"lng":139.111055,"version":"13.0b/18.0a"},{"town":"城山二丁目","koaza":"","lat":37.860891,"lng":139.110633,"version":"13.0b/18.0a"},{"town":"城山三丁目","koaza":"","lat":37.85923,"lng":139.11093,"version":"13.0b/18.0a"},{"town":"城山四丁目","koaza":"","lat":37.859911,"lng":139.114497,"version":"13.0b/18.0a"},{"town":"砂岡一丁目","koaza":"","lat":37.866763,"lng":139.121297,"version":"13.0b/18.0a"},{"town":"砂岡二丁目","koaza":"","lat":37.865815,"lng":139.122855,"version":"13.0b/18.0a"},{"town":"砂岡三丁目","koaza":"","lat":37.863158,"lng":139.122602,"version":"13.0b/18.0a"},{"town":"砂岡四丁目","koaza":"","lat":37.864601,"lng":139.124301,"version":"13.0b/18.0a"},{"town":"砂岡五丁目","koaza":"","lat":37.862249,"lng":139.12596,"version":"13.0b/18.0a"},{"town":"砂崩","koaza":"","lat":37.867232,"lng":139.131224,"version":"13.0b/18.0a"},{"town":"砂山一丁目","koaza":"","lat":37.868716,"lng":139.126647,"version":"13.0b/18.0a"},{"town":"砂山二丁目","koaza":"","lat":37.870505,"lng":139.129599,"version":"13.0b/18.0a"},{"town":"諏訪一丁目","koaza":"","lat":37.874186,"lng":139.111623,"version":"13.0b/18.0a"},{"town":"諏訪二丁目","koaza":"","lat":37.872598,"lng":139.112239,"version":"13.0b/18.0a"},{"town":"諏訪三丁目","koaza":"","lat":37.870795,"lng":139.113308,"version":"13.0b/18.0a"},{"town":"清五郎","koaza":"","lat":37.875247,"lng":139.062192,"version":"13.0b/18.0a"},{"town":"沢海","koaza":"","lat":37.829696,"lng":139.160906,"version":"13.0b/18.0a"},{"town":"沢海一丁目","koaza":"","lat":37.835552,"lng":139.149382,"version":"13.0b/18.0a"},{"town":"沢海二丁目","koaza":"","lat":37.831215,"lng":139.152866,"version":"13.0b/18.0a"},{"town":"沢海三丁目","koaza":"","lat":37.826434,"lng":139.153348,"version":"13.0b/18.0a"},{"town":"楚川","koaza":"","lat":37.860938,"lng":139.03321,"version":"13.0b/18.0a"},{"town":"曽川","koaza":"","lat":37.862404,"lng":139.048348,"version":"13.0b/18.0a"},{"town":"曽野木一丁目","koaza":"","lat":37.86567,"lng":139.040962,"version":"13.0b/18.0a"},{"town":"曽野木二丁目","koaza":"","lat":37.862159,"lng":139.038834,"version":"13.0b/18.0a"},{"town":"太右エ門新田","koaza":"","lat":37.875507,"lng":139.030437,"version":"13.0b/18.0a"},{"town":"俵柳","koaza":"","lat":37.862056,"lng":139.026933,"version":"13.0b/18.0a"},{"town":"茅野山","koaza":"","lat":37.854878,"lng":139.106066,"version":"13.0b/18.0a"},{"town":"茅野山一丁目","koaza":"","lat":37.854932,"lng":139.101037,"version":"13.0b/18.0a"},{"town":"茅野山二丁目","koaza":"","lat":37.85364,"lng":139.097207,"version":"13.0b/18.0a"},{"town":"茅野山三丁目","koaza":"","lat":37.856553,"lng":139.098805,"version":"13.0b/18.0a"},{"town":"手代山一丁目","koaza":"","lat":37.861942,"lng":139.101762,"version":"13.0b/18.0a"},{"town":"手代山二丁目","koaza":"","lat":37.862097,"lng":139.10035,"version":"13.0b/18.0a"},{"town":"所島一丁目","koaza":"","lat":37.862117,"lng":139.113959,"version":"13.0b/18.0a"},{"town":"所島二丁目","koaza":"","lat":37.861429,"lng":139.117379,"version":"13.0b/18.0a"},{"town":"泥潟","koaza":"","lat":37.863932,"lng":139.091932,"version":"13.0b/18.0a"},{"town":"直り山","koaza":"","lat":37.889593,"lng":139.138227,"version":"13.0b/18.0a"},{"town":"長潟","koaza":"","lat":37.876881,"lng":139.068328,"version":"13.0b/18.0a"},{"town":"長潟一丁目","koaza":"","lat":37.870534,"lng":139.068795,"version":"13.0b/18.0a"},{"town":"中野山","koaza":"","lat":37.894065,"lng":139.109288,"version":"13.0b/18.0a"},{"town":"鍋潟新田","koaza":"","lat":37.869935,"lng":139.060228,"version":"13.0b/18.0a"},{"town":"西野","koaza":"","lat":37.898053,"lng":139.121441,"version":"13.0b/18.0a"},{"town":"西町一丁目","koaza":"","lat":37.874998,"lng":139.106672,"version":"13.0b/18.0a"},{"town":"西町二丁目","koaza":"","lat":37.874972,"lng":139.105115,"version":"13.0b/18.0a"},{"town":"西町三丁目","koaza":"","lat":37.873871,"lng":139.101743,"version":"13.0b/18.0a"},{"town":"西町四丁目","koaza":"","lat":37.873748,"lng":139.105494,"version":"13.0b/18.0a"},{"town":"西町五丁目","koaza":"","lat":37.872993,"lng":139.103298,"version":"13.0b/18.0a"},{"town":"西町六丁目","koaza":"","lat":37.872174,"lng":139.104982,"version":"13.0b/18.0a"},{"town":"西山","koaza":"","lat":37.885462,"lng":139.13532,"version":"13.0b/18.0a"},{"town":"二本木","koaza":"","lat":37.846102,"lng":139.119838,"version":"13.0b/18.0a"},{"town":"二本木一丁目","koaza":"","lat":37.840426,"lng":139.121284,"version":"13.0b/18.0a"},{"town":"二本木二丁目","koaza":"","lat":37.843392,"lng":139.11315,"version":"13.0b/18.0a"},{"town":"二本木三丁目","koaza":"","lat":37.84557,"lng":139.114856,"version":"13.0b/18.0a"},{"town":"二本木四丁目","koaza":"","lat":37.848243,"lng":139.112615,"version":"13.0b/18.0a"},{"town":"二本木五丁目","koaza":"","lat":37.844591,"lng":139.108649,"version":"13.0b/18.0a"},{"town":"花ノ牧","koaza":"","lat":37.839239,"lng":139.062083,"version":"13.0b/18.0a"},{"town":"早通一丁目","koaza":"","lat":37.862565,"lng":139.089179,"version":"13.0b/18.0a"},{"town":"早通二丁目","koaza":"","lat":37.86423,"lng":139.08797,"version":"13.0b/18.0a"},{"town":"早通三丁目","koaza":"","lat":37.853192,"lng":139.086935,"version":"13.0b/18.0a"},{"town":"早通四丁目","koaza":"","lat":37.858617,"lng":139.086709,"version":"13.0b/18.0a"},{"town":"早通五丁目","koaza":"","lat":37.861919,"lng":139.08541,"version":"13.0b/18.0a"},{"town":"早通六丁目","koaza":"","lat":37.864481,"lng":139.080414,"version":"13.0b/18.0a"},{"town":"東早通一丁目","koaza":"","lat":37.868023,"lng":139.085829,"version":"13.0b/18.0a"},{"town":"東早通二丁目","koaza":"","lat":37.869327,"lng":139.085167,"version":"13.0b/18.0a"},{"town":"東早通三丁目","koaza":"","lat":37.866905,"lng":139.082711,"version":"13.0b/18.0a"},{"town":"東早通四丁目","koaza":"","lat":37.868216,"lng":139.081969,"version":"13.0b/18.0a"},{"town":"東船場一丁目","koaza":"","lat":37.876058,"lng":139.108216,"version":"13.0b/18.0a"},{"town":"東船場二丁目","koaza":"","lat":37.87548,"lng":139.107309,"version":"13.0b/18.0a"},{"town":"東船場三丁目","koaza":"","lat":37.877831,"lng":139.107105,"version":"13.0b/18.0a"},{"town":"東船場四丁目","koaza":"","lat":37.877905,"lng":139.105579,"version":"13.0b/18.0a"},{"town":"東船場五丁目","koaza":"","lat":37.879475,"lng":139.106024,"version":"13.0b/18.0a"},{"town":"東本町一丁目","koaza":"","lat":37.873761,"lng":139.1097,"version":"13.0b/18.0a"},{"town":"東本町二丁目","koaza":"","lat":37.87349,"lng":139.108773,"version":"13.0b/18.0a"},{"town":"東本町三丁目","koaza":"","lat":37.871982,"lng":139.109713,"version":"13.0b/18.0a"},{"town":"東本町四丁目","koaza":"","lat":37.871257,"lng":139.110421,"version":"13.0b/18.0a"},{"town":"東本町五丁目","koaza":"","lat":37.869691,"lng":139.110721,"version":"13.0b/18.0a"},{"town":"日水一丁目","koaza":"","lat":37.858533,"lng":139.10725,"version":"13.0b/18.0a"},{"town":"日水二丁目","koaza":"","lat":37.857573,"lng":139.105178,"version":"13.0b/18.0a"},{"town":"日水三丁目","koaza":"","lat":37.857044,"lng":139.108264,"version":"13.0b/18.0a"},{"town":"平賀","koaza":"","lat":37.845478,"lng":139.042237,"version":"13.0b/18.0a"},{"town":"平山","koaza":"","lat":37.880548,"lng":139.146148,"version":"13.0b/18.0a"},{"town":"袋津","koaza":"","lat":37.863332,"lng":139.129762,"version":"13.0b/18.0a"},{"town":"袋津一丁目","koaza":"","lat":37.865566,"lng":139.114077,"version":"13.0b/18.0a"},{"town":"袋津二丁目","koaza":"","lat":37.866269,"lng":139.116437,"version":"13.0b/18.0a"},{"town":"袋津三丁目","koaza":"","lat":37.865183,"lng":139.117317,"version":"13.0b/18.0a"},{"town":"袋津四丁目","koaza":"","lat":37.864079,"lng":139.11429,"version":"13.0b/18.0a"},{"town":"袋津五丁目","koaza":"","lat":37.86358,"lng":139.117611,"version":"13.0b/18.0a"},{"town":"袋津六丁目","koaza":"","lat":37.863505,"lng":139.1203,"version":"13.0b/18.0a"},{"town":"藤山","koaza":"","lat":37.871406,"lng":139.14065,"version":"13.0b/18.0a"},{"town":"藤山一丁目","koaza":"","lat":37.876366,"lng":139.138836,"version":"13.0b/18.0a"},{"town":"藤山二丁目","koaza":"","lat":37.876893,"lng":139.141005,"version":"13.0b/18.0a"},{"town":"船戸山","koaza":"","lat":37.878581,"lng":139.098412,"version":"13.0b/18.0a"},{"town":"船戸山一丁目","koaza":"","lat":37.870691,"lng":139.105909,"version":"13.0b/18.0a"},{"town":"船戸山二丁目","koaza":"","lat":37.869727,"lng":139.106667,"version":"13.0b/18.0a"},{"town":"船戸山三丁目","koaza":"","lat":37.86934,"lng":139.103482,"version":"13.0b/18.0a"},{"town":"船戸山四丁目","koaza":"","lat":37.867556,"lng":139.105962,"version":"13.0b/18.0a"},{"town":"船戸山五丁目","koaza":"","lat":37.867734,"lng":139.103194,"version":"13.0b/18.0a"},{"town":"細山","koaza":"","lat":37.889515,"lng":139.151516,"version":"13.0b/18.0a"},{"town":"舞潟","koaza":"","lat":37.839803,"lng":139.041623,"version":"13.0b/18.0a"},{"town":"松山","koaza":"","lat":37.884469,"lng":139.14571,"version":"13.0b/18.0a"},{"town":"丸潟","koaza":"","lat":37.860505,"lng":139.075071,"version":"13.0b/18.0a"},{"town":"丸潟一丁目","koaza":"","lat":37.86123,"lng":139.07009,"version":"13.0b/18.0a"},{"town":"丸潟新田","koaza":"","lat":37.859149,"lng":139.058087,"version":"13.0b/18.0a"},{"town":"丸山","koaza":"","lat":37.882188,"lng":139.118102,"version":"13.0b/18.0a"},{"town":"丸山ノ内善之丞組","koaza":"","lat":37.88125,"lng":139.125034,"version":"13.0b/18.0a"},{"town":"茗荷谷","koaza":"","lat":37.88451,"lng":139.128127,"version":"13.0b/18.0a"},{"town":"元町一丁目","koaza":"","lat":37.864471,"lng":139.109545,"version":"13.0b/18.0a"},{"town":"元町二丁目","koaza":"","lat":37.864516,"lng":139.107774,"version":"13.0b/18.0a"},{"town":"元町三丁目","koaza":"","lat":37.865566,"lng":139.105579,"version":"13.0b/18.0a"},{"town":"元町四丁目","koaza":"","lat":37.866073,"lng":139.102907,"version":"13.0b/18.0a"},{"town":"元町五丁目","koaza":"","lat":37.863504,"lng":139.104375,"version":"13.0b/18.0a"},{"town":"山二ツ","koaza":"","lat":37.886514,"lng":139.094352,"version":"13.0b/18.0a"},{"town":"横越","koaza":"","lat":37.86221,"lng":139.146517,"version":"13.0b/18.0a"},{"town":"横越上町一丁目","koaza":"","lat":37.850951,"lng":139.146476,"version":"13.0b/18.0a"},{"town":"横越上町二丁目","koaza":"","lat":37.848919,"lng":139.148604,"version":"13.0b/18.0a"},{"town":"横越上町三丁目","koaza":"","lat":37.844672,"lng":139.14659,"version":"13.0b/18.0a"},{"town":"横越上町四丁目","koaza":"","lat":37.845642,"lng":139.144625,"version":"13.0b/18.0a"},{"town":"横越上町五丁目","koaza":"","lat":37.848597,"lng":139.144893,"version":"13.0b/18.0a"},{"town":"横越川根町一丁目","koaza":"","lat":37.854537,"lng":139.142512,"version":"13.0b/18.0a"},{"town":"横越川根町二丁目","koaza":"","lat":37.854068,"lng":139.13763,"version":"13.0b/18.0a"},{"town":"横越川根町三丁目","koaza":"","lat":37.85711,"lng":139.137184,"version":"13.0b/18.0a"},{"town":"横越川根町四丁目","koaza":"","lat":37.857359,"lng":139.134029,"version":"13.0b/18.0a"},{"town":"横越川根町五丁目","koaza":"","lat":37.860216,"lng":139.134443,"version":"13.0b/18.0a"},{"town":"横越中央一丁目","koaza":"","lat":37.855805,"lng":139.144064,"version":"13.0b/18.0a"},{"town":"横越中央二丁目","koaza":"","lat":37.856081,"lng":139.147874,"version":"13.0b/18.0a"},{"town":"横越中央三丁目","koaza":"","lat":37.85513,"lng":139.150892,"version":"13.0b/18.0a"},{"town":"横越中央四丁目","koaza":"","lat":37.854353,"lng":139.152996,"version":"13.0b/18.0a"},{"town":"横越中央五丁目","koaza":"","lat":37.851457,"lng":139.151188,"version":"13.0b/18.0a"},{"town":"横越中央六丁目","koaza":"","lat":37.852795,"lng":139.148319,"version":"13.0b/18.0a"},{"town":"横越中央七丁目","koaza":"","lat":37.853406,"lng":139.145139,"version":"13.0b/18.0a"},{"town":"横越中央八丁目","koaza":"","lat":37.851292,"lng":139.142705,"version":"13.0b/18.0a"},{"town":"横越東町一丁目","koaza":"","lat":37.855668,"lng":139.156217,"version":"13.0b/18.0a"},{"town":"横越東町二丁目","koaza":"","lat":37.859707,"lng":139.158892,"version":"13.0b/18.0a"},{"town":"両川一丁目","koaza":"","lat":37.845985,"lng":139.084154,"version":"13.0b/18.0a"},{"town":"両川二丁目","koaza":"","lat":37.848473,"lng":139.083615,"version":"13.0b/18.0a"},{"town":"和田","koaza":"","lat":37.845098,"lng":139.053559,"version":"13.0b/18.0a"},{"town":"割野","koaza":"","lat":37.84774,"lng":139.094506,"version":"13.0b/18.0a"},{"town":"茜ケ丘","koaza":"","lat":37.857526,"lng":139.139964,"version":"14.0b/19.0a"},{"town":"阿賀野一丁目","koaza":"","lat":37.831463,"lng":139.167735,"version":"14.0b/19.0a"},{"town":"阿賀野二丁目","koaza":"","lat":37.827275,"lng":139.166847,"version":"14.0b/19.0a"},{"town":"曙町一丁目","koaza":"","lat":37.861324,"lng":139.122152,"version":"14.0b/19.0a"},{"town":"曙町二丁目","koaza":"","lat":37.859572,"lng":139.119565,"version":"14.0b/19.0a"},{"town":"曙町三丁目","koaza":"","lat":37.858987,"lng":139.124156,"version":"14.0b/19.0a"},{"town":"曙町四丁目","koaza":"","lat":37.858557,"lng":139.128201,"version":"14.0b/19.0a"},{"town":"曙町五丁目","koaza":"","lat":37.858872,"lng":139.130853,"version":"14.0b/19.0a"},{"town":"旭一丁目","koaza":"","lat":37.877843,"lng":139.10468,"version":"14.0b/19.0a"},{"town":"旭二丁目","koaza":"","lat":37.876325,"lng":139.104401,"version":"14.0b/19.0a"},{"town":"旭三丁目","koaza":"","lat":37.87523,"lng":139.101744,"version":"14.0b/19.0a"},{"town":"旭四丁目","koaza":"","lat":37.877135,"lng":139.10273,"version":"14.0b/19.0a"},{"town":"天野","koaza":"","lat":37.84708,"lng":139.030048,"version":"14.0b/19.0a"},{"town":"天野一丁目","koaza":"","lat":37.855461,"lng":139.028155,"version":"14.0b/19.0a"},{"town":"天野二丁目","koaza":"","lat":37.856292,"lng":139.032417,"version":"14.0b/19.0a"},{"town":"天野三丁目","koaza":"","lat":37.855672,"lng":139.036246,"version":"14.0b/19.0a"},{"town":"粟山","koaza":"","lat":37.89191,"lng":139.105314,"version":"14.0b/19.0a"},{"town":"泉町一丁目","koaza":"","lat":37.866781,"lng":139.095821,"version":"14.0b/19.0a"},{"town":"泉町二丁目","koaza":"","lat":37.863792,"lng":139.096265,"version":"14.0b/19.0a"},{"town":"泉町三丁目","koaza":"","lat":37.867583,"lng":139.093045,"version":"14.0b/19.0a"},{"town":"泉町四丁目","koaza":"","lat":37.866405,"lng":139.093774,"version":"14.0b/19.0a"},{"town":"泉町五丁目","koaza":"","lat":37.864661,"lng":139.094646,"version":"14.0b/19.0a"},{"town":"稲葉一丁目","koaza":"","lat":37.875003,"lng":139.11412,"version":"14.0b/19.0a"},{"town":"稲葉二丁目","koaza":"","lat":37.87308,"lng":139.115019,"version":"14.0b/19.0a"},{"town":"稲葉三丁目","koaza":"","lat":37.872255,"lng":139.116142,"version":"14.0b/19.0a"},{"town":"いぶき野一丁目","koaza":"","lat":37.857583,"lng":139.143824,"version":"14.0b/19.0a"},{"town":"いぶき野二丁目","koaza":"","lat":37.859392,"lng":139.142805,"version":"14.0b/19.0a"},{"town":"うぐいす一丁目","koaza":"","lat":37.8755,"lng":139.133613,"version":"14.0b/19.0a"},{"town":"うぐいす二丁目","koaza":"","lat":37.876608,"lng":139.135559,"version":"14.0b/19.0a"},{"town":"鵜ノ子","koaza":"","lat":37.878117,"lng":139.086827,"version":"14.0b/19.0a"},{"town":"鵜ノ子一丁目","koaza":"","lat":37.872976,"lng":139.093992,"version":"14.0b/19.0a"},{"town":"鵜ノ子二丁目","koaza":"","lat":37.872461,"lng":139.092038,"version":"14.0b/19.0a"},{"town":"鵜ノ子三丁目","koaza":"","lat":37.875497,"lng":139.090885,"version":"14.0b/19.0a"},{"town":"鵜ノ子四丁目","koaza":"","lat":37.871839,"lng":139.089903,"version":"14.0b/19.0a"},{"town":"鵜ノ子五丁目","koaza":"","lat":37.871073,"lng":139.087896,"version":"14.0b/19.0a"},{"town":"姥ケ山","koaza":"","lat":37.879279,"lng":139.075794,"version":"14.0b/19.0a"},{"town":"梅見台一丁目","koaza":"","lat":37.864174,"lng":139.101869,"version":"14.0b/19.0a"},{"town":"梅見台二丁目","koaza":"","lat":37.862693,"lng":139.103015,"version":"14.0b/19.0a"},{"town":"梅見台三丁目","koaza":"","lat":37.86023,"lng":139.106412,"version":"14.0b/19.0a"},{"town":"江口","koaza":"","lat":37.905484,"lng":139.139783,"version":"14.0b/19.0a"},{"town":"大渕","koaza":"","lat":37.896939,"lng":139.135219,"version":"14.0b/19.0a"},{"town":"荻曽根","koaza":"","lat":37.878564,"lng":139.093666,"version":"14.0b/19.0a"},{"town":"荻曽根一丁目","koaza":"","lat":37.867435,"lng":139.100155,"version":"14.0b/19.0a"},{"town":"荻曽根二丁目","koaza":"","lat":37.866266,"lng":139.100886,"version":"14.0b/19.0a"},{"town":"荻曽根三丁目","koaza":"","lat":37.867566,"lng":139.097226,"version":"14.0b/19.0a"},{"town":"荻曽根四丁目","koaza":"","lat":37.866476,"lng":139.09816,"version":"14.0b/19.0a"},{"town":"荻曽根五丁目","koaza":"","lat":37.864775,"lng":139.09906,"version":"14.0b/19.0a"},{"town":"祖父興野","koaza":"","lat":37.867713,"lng":139.028909,"version":"14.0b/19.0a"},{"town":"嘉木","koaza":"","lat":37.852256,"lng":139.050243,"version":"14.0b/19.0a"},{"town":"嘉瀬","koaza":"","lat":37.846824,"lng":139.074977,"version":"14.0b/19.0a"},{"town":"上和田","koaza":"","lat":37.843505,"lng":139.059192,"version":"14.0b/19.0a"},{"town":"亀田","koaza":"","lat":37.883335,"lng":139.097825,"version":"14.0b/19.0a"},{"town":"亀田東町一丁目","koaza":"","lat":37.869671,"lng":139.11382,"version":"14.0b/19.0a"},{"town":"亀田東町二丁目","koaza":"","lat":37.867295,"lng":139.113623,"version":"14.0b/19.0a"},{"town":"亀田東町三丁目","koaza":"","lat":37.868173,"lng":139.114629,"version":"14.0b/19.0a"},{"town":"亀田東町四丁目","koaza":"","lat":37.868227,"lng":139.115954,"version":"14.0b/19.0a"},{"town":"亀田大月一丁目","koaza":"","lat":37.87947,"lng":139.102904,"version":"14.0b/19.0a"},{"town":"亀田大月二丁目","koaza":"","lat":37.8819,"lng":139.101649,"version":"14.0b/19.0a"},{"town":"亀田大月三丁目","koaza":"","lat":37.885407,"lng":139.099503,"version":"14.0b/19.0a"},{"town":"亀田工業団地一丁目","koaza":"","lat":37.871258,"lng":139.083949,"version":"14.0b/19.0a"},{"town":"亀田工業団地二丁目","koaza":"","lat":37.871374,"lng":139.080168,"version":"14.0b/19.0a"},{"town":"亀田工業団地三丁目","koaza":"","lat":37.873783,"lng":139.082511,"version":"14.0b/19.0a"},{"town":"亀田向陽一丁目","koaza":"","lat":37.876815,"lng":139.110644,"version":"14.0b/19.0a"},{"town":"亀田向陽二丁目","koaza":"","lat":37.877993,"lng":139.113115,"version":"14.0b/19.0a"},{"town":"亀田向陽三丁目","koaza":"","lat":37.879541,"lng":139.108269,"version":"14.0b/19.0a"},{"town":"亀田向陽四丁目","koaza":"","lat":37.880549,"lng":139.110307,"version":"14.0b/19.0a"},{"town":"亀田新明町一丁目","koaza":"","lat":37.868482,"lng":139.111583,"version":"14.0b/19.0a"},{"town":"亀田新明町二丁目","koaza":"","lat":37.867767,"lng":139.109919,"version":"14.0b/19.0a"},{"town":"亀田新明町三丁目","koaza":"","lat":37.866819,"lng":139.111668,"version":"14.0b/19.0a"},{"town":"亀田新明町四丁目","koaza":"","lat":37.865594,"lng":139.11174,"version":"14.0b/19.0a"},{"town":"亀田新明町五丁目","koaza":"","lat":37.865255,"lng":139.110707,"version":"14.0b/19.0a"},{"town":"亀田水道町一丁目","koaza":"","lat":37.870682,"lng":139.116374,"version":"14.0b/19.0a"},{"town":"亀田水道町二丁目","koaza":"","lat":37.869927,"lng":139.117861,"version":"14.0b/19.0a"},{"town":"亀田水道町三丁目","koaza":"","lat":37.868583,"lng":139.118281,"version":"14.0b/19.0a"},{"town":"亀田水道町四丁目","koaza":"","lat":37.869333,"lng":139.120468,"version":"14.0b/19.0a"},{"town":"亀田水道町五丁目","koaza":"","lat":37.867089,"lng":139.119131,"version":"14.0b/19.0a"},{"town":"亀田中島一丁目","koaza":"","lat":37.880888,"lng":139.104856,"version":"14.0b/19.0a"},{"town":"亀田中島二丁目","koaza":"","lat":37.8837,"lng":139.103144,"version":"14.0b/19.0a"},{"town":"亀田中島三丁目","koaza":"","lat":37.886271,"lng":139.101572,"version":"14.0b/19.0a"},{"town":"亀田中島四丁目","koaza":"","lat":37.888781,"lng":139.100446,"version":"14.0b/19.0a"},{"town":"亀田長潟","koaza":"","lat":37.872814,"lng":139.066571,"version":"14.0b/19.0a"},{"town":"亀田ノ内高山","koaza":"","lat":37.879682,"lng":139.100705,"version":"14.0b/19.0a"},{"town":"亀田早通","koaza":"","lat":37.862191,"lng":139.079666,"version":"14.0b/19.0a"},{"town":"亀田本町一丁目","koaza":"","lat":37.872851,"lng":139.107424,"version":"14.0b/19.0a"},{"town":"亀田本町二丁目","koaza":"","lat":37.870745,"lng":139.108376,"version":"14.0b/19.0a"},{"town":"亀田本町三丁目","koaza":"","lat":37.868442,"lng":139.107523,"version":"14.0b/19.0a"},{"town":"亀田本町四丁目","koaza":"","lat":37.867407,"lng":139.108509,"version":"14.0b/19.0a"},{"town":"亀田緑町一丁目","koaza":"","lat":37.87264,"lng":139.10134,"version":"14.0b/19.0a"},{"town":"亀田緑町二丁目","koaza":"","lat":37.870982,"lng":139.102672,"version":"14.0b/19.0a"},{"town":"亀田緑町三丁目","koaza":"","lat":37.872401,"lng":139.100003,"version":"14.0b/19.0a"},{"town":"亀田緑町四丁目","koaza":"","lat":37.869949,"lng":139.101383,"version":"14.0b/19.0a"},{"town":"亀田四ツ興野一丁目","koaza":"","lat":37.87246,"lng":139.09769,"version":"14.0b/19.0a"},{"town":"亀田四ツ興野二丁目","koaza":"","lat":37.870836,"lng":139.096064,"version":"14.0b/19.0a"},{"town":"亀田四ツ興野三丁目","koaza":"","lat":37.870998,"lng":139.098453,"version":"14.0b/19.0a"},{"town":"亀田四ツ興野四丁目","koaza":"","lat":37.869559,"lng":139.099286,"version":"14.0b/19.0a"},{"town":"亀田四ツ興野五丁目","koaza":"","lat":37.868718,"lng":139.096784,"version":"14.0b/19.0a"},{"town":"北山","koaza":"","lat":37.880715,"lng":139.114306,"version":"14.0b/19.0a"},{"town":"木津","koaza":"","lat":37.840163,"lng":139.144519,"version":"14.0b/19.0a"},{"town":"木津一丁目","koaza":"","lat":37.835427,"lng":139.13714,"version":"14.0b/19.0a"},{"town":"木津二丁目","koaza":"","lat":37.836589,"lng":139.133096,"version":"14.0b/19.0a"},{"town":"木津三丁目","koaza":"","lat":37.838078,"lng":139.13061,"version":"14.0b/19.0a"},{"town":"木津四丁目","koaza":"","lat":37.837876,"lng":139.125822,"version":"14.0b/19.0a"},{"town":"木津五丁目","koaza":"","lat":37.837026,"lng":139.122078,"version":"14.0b/19.0a"},{"town":"木津工業団地","koaza":"","lat":37.840303,"lng":139.130754,"version":"14.0b/19.0a"},{"town":"久蔵興野","koaza":"","lat":37.872491,"lng":139.031251,"version":"14.0b/19.0a"},{"town":"蔵岡","koaza":"","lat":37.884944,"lng":139.155249,"version":"14.0b/19.0a"},{"town":"小杉","koaza":"","lat":37.873032,"lng":139.150953,"version":"14.0b/19.0a"},{"town":"小杉一丁目","koaza":"","lat":37.868411,"lng":139.161256,"version":"14.0b/19.0a"},{"town":"小杉二丁目","koaza":"","lat":37.870618,"lng":139.161592,"version":"14.0b/19.0a"},{"town":"小杉三丁目","koaza":"","lat":37.873956,"lng":139.161015,"version":"14.0b/19.0a"},{"town":"小杉四丁目","koaza":"","lat":37.877058,"lng":139.158342,"version":"14.0b/19.0a"},{"town":"小杉五丁目","koaza":"","lat":37.880905,"lng":139.156717,"version":"14.0b/19.0a"},{"town":"駒込","koaza":"","lat":37.869472,"lng":139.135882,"version":"14.0b/19.0a"},{"town":"駒込一丁目","koaza":"","lat":37.873211,"lng":139.132652,"version":"14.0b/19.0a"},{"town":"駒込二丁目","koaza":"","lat":37.873615,"lng":139.13514,"version":"14.0b/19.0a"},{"town":"酒屋町","koaza":"","lat":37.842239,"lng":139.065753,"version":"14.0b/19.0a"},{"town":"笹山","koaza":"","lat":37.880578,"lng":139.150841,"version":"14.0b/19.0a"},{"town":"五月町一丁目","koaza":"","lat":37.875381,"lng":139.099422,"version":"14.0b/19.0a"},{"town":"五月町二丁目","koaza":"","lat":37.87423,"lng":139.097072,"version":"14.0b/19.0a"},{"town":"五月町三丁目","koaza":"","lat":37.873474,"lng":139.095036,"version":"14.0b/19.0a"},{"town":"早苗一丁目","koaza":"","lat":37.870465,"lng":139.094743,"version":"14.0b/19.0a"},{"town":"早苗二丁目","koaza":"","lat":37.870404,"lng":139.092051,"version":"14.0b/19.0a"},{"town":"早苗三丁目","koaza":"","lat":37.868953,"lng":139.09267,"version":"14.0b/19.0a"},{"town":"早苗四丁目","koaza":"","lat":37.868591,"lng":139.08966,"version":"14.0b/19.0a"},{"town":"三條岡一丁目","koaza":"","lat":37.8704,"lng":139.123093,"version":"14.0b/19.0a"},{"town":"三條岡二丁目","koaza":"","lat":37.869132,"lng":139.123696,"version":"14.0b/19.0a"},{"town":"三百地","koaza":"","lat":37.898872,"lng":139.145117,"version":"14.0b/19.0a"},{"town":"下早通一丁目","koaza":"","lat":37.868082,"lng":139.077471,"version":"14.0b/19.0a"},{"town":"下早通二丁目","koaza":"","lat":37.871634,"lng":139.074445,"version":"14.0b/19.0a"},{"town":"下早通柳田一丁目","koaza":"","lat":37.876559,"lng":139.080957,"version":"14.0b/19.0a"},{"town":"下早通柳田二丁目","koaza":"","lat":37.875539,"lng":139.077832,"version":"14.0b/19.0a"},{"town":"鐘木","koaza":"","lat":37.871464,"lng":139.048146,"version":"14.0b/19.0a"},{"town":"城所","koaza":"","lat":37.855143,"lng":139.117513,"version":"14.0b/19.0a"},{"town":"城所一丁目","koaza":"","lat":37.860057,"lng":139.108509,"version":"14.0b/19.0a"},{"town":"城所二丁目","koaza":"","lat":37.862252,"lng":139.105674,"version":"14.0b/19.0a"},{"town":"城山一丁目","koaza":"","lat":37.863435,"lng":139.111055,"version":"14.0b/19.0a"},{"town":"城山二丁目","koaza":"","lat":37.860891,"lng":139.110633,"version":"14.0b/19.0a"},{"town":"城山三丁目","koaza":"","lat":37.85923,"lng":139.11093,"version":"14.0b/19.0a"},{"town":"城山四丁目","koaza":"","lat":37.859911,"lng":139.114497,"version":"14.0b/19.0a"},{"town":"砂岡一丁目","koaza":"","lat":37.866763,"lng":139.121297,"version":"14.0b/19.0a"},{"town":"砂岡二丁目","koaza":"","lat":37.865815,"lng":139.122855,"version":"14.0b/19.0a"},{"town":"砂岡三丁目","koaza":"","lat":37.863158,"lng":139.122602,"version":"14.0b/19.0a"},{"town":"砂岡四丁目","koaza":"","lat":37.864601,"lng":139.124301,"version":"14.0b/19.0a"},{"town":"砂岡五丁目","koaza":"","lat":37.862249,"lng":139.12596,"version":"14.0b/19.0a"},{"town":"砂崩","koaza":"","lat":37.867232,"lng":139.131224,"version":"14.0b/19.0a"},{"town":"砂山一丁目","koaza":"","lat":37.868716,"lng":139.126647,"version":"14.0b/19.0a"},{"town":"砂山二丁目","koaza":"","lat":37.870505,"lng":139.129599,"version":"14.0b/19.0a"},{"town":"諏訪一丁目","koaza":"","lat":37.874186,"lng":139.111623,"version":"14.0b/19.0a"},{"town":"諏訪二丁目","koaza":"","lat":37.872598,"lng":139.112239,"version":"14.0b/19.0a"},{"town":"諏訪三丁目","koaza":"","lat":37.870795,"lng":139.113308,"version":"14.0b/19.0a"},{"town":"清五郎","koaza":"","lat":37.875247,"lng":139.062192,"version":"14.0b/19.0a"},{"town":"沢海","koaza":"","lat":37.829696,"lng":139.160906,"version":"14.0b/19.0a"},{"town":"沢海一丁目","koaza":"","lat":37.835552,"lng":139.149382,"version":"14.0b/19.0a"},{"town":"沢海二丁目","koaza":"","lat":37.831215,"lng":139.152866,"version":"14.0b/19.0a"},{"town":"沢海三丁目","koaza":"","lat":37.826434,"lng":139.153348,"version":"14.0b/19.0a"},{"town":"楚川","koaza":"","lat":37.860938,"lng":139.03321,"version":"14.0b/19.0a"},{"town":"曽川","koaza":"","lat":37.862404,"lng":139.048348,"version":"14.0b/19.0a"},{"town":"曽野木一丁目","koaza":"","lat":37.86567,"lng":139.040962,"version":"14.0b/19.0a"},{"town":"曽野木二丁目","koaza":"","lat":37.862159,"lng":139.038834,"version":"14.0b/19.0a"},{"town":"太右エ門新田","koaza":"","lat":37.875507,"lng":139.030437,"version":"14.0b/19.0a"},{"town":"俵柳","koaza":"","lat":37.862056,"lng":139.026933,"version":"14.0b/19.0a"},{"town":"茅野山","koaza":"","lat":37.854878,"lng":139.106066,"version":"14.0b/19.0a"},{"town":"茅野山一丁目","koaza":"","lat":37.854932,"lng":139.101037,"version":"14.0b/19.0a"},{"town":"茅野山二丁目","koaza":"","lat":37.85364,"lng":139.097207,"version":"14.0b/19.0a"},{"town":"茅野山三丁目","koaza":"","lat":37.856553,"lng":139.098805,"version":"14.0b/19.0a"},{"town":"手代山一丁目","koaza":"","lat":37.861942,"lng":139.101762,"version":"14.0b/19.0a"},{"town":"手代山二丁目","koaza":"","lat":37.862097,"lng":139.10035,"version":"14.0b/19.0a"},{"town":"所島一丁目","koaza":"","lat":37.862117,"lng":139.113959,"version":"14.0b/19.0a"},{"town":"所島二丁目","koaza":"","lat":37.861429,"lng":139.117379,"version":"14.0b/19.0a"},{"town":"泥潟","koaza":"","lat":37.863932,"lng":139.091932,"version":"14.0b/19.0a"},{"town":"直り山","koaza":"","lat":37.889593,"lng":139.138227,"version":"14.0b/19.0a"},{"town":"長潟","koaza":"","lat":37.876881,"lng":139.068328,"version":"14.0b/19.0a"},{"town":"長潟一丁目","koaza":"","lat":37.870534,"lng":139.068795,"version":"14.0b/19.0a"},{"town":"中野山","koaza":"","lat":37.894065,"lng":139.109288,"version":"14.0b/19.0a"},{"town":"鍋潟新田","koaza":"","lat":37.869935,"lng":139.060228,"version":"14.0b/19.0a"},{"town":"西野","koaza":"","lat":37.898053,"lng":139.121441,"version":"14.0b/19.0a"},{"town":"西町一丁目","koaza":"","lat":37.874998,"lng":139.106672,"version":"14.0b/19.0a"},{"town":"西町二丁目","koaza":"","lat":37.874972,"lng":139.105115,"version":"14.0b/19.0a"},{"town":"西町三丁目","koaza":"","lat":37.873871,"lng":139.101743,"version":"14.0b/19.0a"},{"town":"西町四丁目","koaza":"","lat":37.873748,"lng":139.105494,"version":"14.0b/19.0a"},{"town":"西町五丁目","koaza":"","lat":37.872993,"lng":139.103298,"version":"14.0b/19.0a"},{"town":"西町六丁目","koaza":"","lat":37.872174,"lng":139.104982,"version":"14.0b/19.0a"},{"town":"西山","koaza":"","lat":37.885462,"lng":139.13532,"version":"14.0b/19.0a"},{"town":"二本木","koaza":"","lat":37.846102,"lng":139.119838,"version":"14.0b/19.0a"},{"town":"二本木一丁目","koaza":"","lat":37.840426,"lng":139.121284,"version":"14.0b/19.0a"},{"town":"二本木二丁目","koaza":"","lat":37.843392,"lng":139.11315,"version":"14.0b/19.0a"},{"town":"二本木三丁目","koaza":"","lat":37.84557,"lng":139.114856,"version":"14.0b/19.0a"},{"town":"二本木四丁目","koaza":"","lat":37.848243,"lng":139.112615,"version":"14.0b/19.0a"},{"town":"二本木五丁目","koaza":"","lat":37.844591,"lng":139.108649,"version":"14.0b/19.0a"},{"town":"花ノ牧","koaza":"","lat":37.839239,"lng":139.062083,"version":"14.0b/19.0a"},{"town":"早通一丁目","koaza":"","lat":37.862565,"lng":139.089179,"version":"14.0b/19.0a"},{"town":"早通二丁目","koaza":"","lat":37.86423,"lng":139.08797,"version":"14.0b/19.0a"},{"town":"早通三丁目","koaza":"","lat":37.853192,"lng":139.086935,"version":"14.0b/19.0a"},{"town":"早通四丁目","koaza":"","lat":37.858617,"lng":139.086709,"version":"14.0b/19.0a"},{"town":"早通五丁目","koaza":"","lat":37.861919,"lng":139.08541,"version":"14.0b/19.0a"},{"town":"早通六丁目","koaza":"","lat":37.864481,"lng":139.080414,"version":"14.0b/19.0a"},{"town":"東早通一丁目","koaza":"","lat":37.868023,"lng":139.085829,"version":"14.0b/19.0a"},{"town":"東早通二丁目","koaza":"","lat":37.869327,"lng":139.085167,"version":"14.0b/19.0a"},{"town":"東早通三丁目","koaza":"","lat":37.866905,"lng":139.082711,"version":"14.0b/19.0a"},{"town":"東早通四丁目","koaza":"","lat":37.868216,"lng":139.081969,"version":"14.0b/19.0a"},{"town":"東船場一丁目","koaza":"","lat":37.876058,"lng":139.108216,"version":"14.0b/19.0a"},{"town":"東船場二丁目","koaza":"","lat":37.87548,"lng":139.107309,"version":"14.0b/19.0a"},{"town":"東船場三丁目","koaza":"","lat":37.877831,"lng":139.107105,"version":"14.0b/19.0a"},{"town":"東船場四丁目","koaza":"","lat":37.877905,"lng":139.105579,"version":"14.0b/19.0a"},{"town":"東船場五丁目","koaza":"","lat":37.879475,"lng":139.106024,"version":"14.0b/19.0a"},{"town":"東本町一丁目","koaza":"","lat":37.873761,"lng":139.1097,"version":"14.0b/19.0a"},{"town":"東本町二丁目","koaza":"","lat":37.87349,"lng":139.108773,"version":"14.0b/19.0a"},{"town":"東本町三丁目","koaza":"","lat":37.871982,"lng":139.109713,"version":"14.0b/19.0a"},{"town":"東本町四丁目","koaza":"","lat":37.871257,"lng":139.110421,"version":"14.0b/19.0a"},{"town":"東本町五丁目","koaza":"","lat":37.869691,"lng":139.110721,"version":"14.0b/19.0a"},{"town":"日水一丁目","koaza":"","lat":37.858533,"lng":139.10725,"version":"14.0b/19.0a"},{"town":"日水二丁目","koaza":"","lat":37.857573,"lng":139.105178,"version":"14.0b/19.0a"},{"town":"日水三丁目","koaza":"","lat":37.857044,"lng":139.108264,"version":"14.0b/19.0a"},{"town":"平賀","koaza":"","lat":37.845478,"lng":139.042237,"version":"14.0b/19.0a"},{"town":"平山","koaza":"","lat":37.880548,"lng":139.146148,"version":"14.0b/19.0a"},{"town":"袋津","koaza":"","lat":37.863332,"lng":139.129762,"version":"14.0b/19.0a"},{"town":"袋津一丁目","koaza":"","lat":37.865566,"lng":139.114077,"version":"14.0b/19.0a"},{"town":"袋津二丁目","koaza":"","lat":37.866269,"lng":139.116437,"version":"14.0b/19.0a"},{"town":"袋津三丁目","koaza":"","lat":37.865183,"lng":139.117317,"version":"14.0b/19.0a"},{"town":"袋津四丁目","koaza":"","lat":37.864079,"lng":139.11429,"version":"14.0b/19.0a"},{"town":"袋津五丁目","koaza":"","lat":37.86358,"lng":139.117611,"version":"14.0b/19.0a"},{"town":"袋津六丁目","koaza":"","lat":37.863505,"lng":139.1203,"version":"14.0b/19.0a"},{"town":"藤山","koaza":"","lat":37.871406,"lng":139.14065,"version":"14.0b/19.0a"},{"town":"藤山一丁目","koaza":"","lat":37.876366,"lng":139.138836,"version":"14.0b/19.0a"},{"town":"藤山二丁目","koaza":"","lat":37.876893,"lng":139.141005,"version":"14.0b/19.0a"},{"town":"船戸山","koaza":"","lat":37.878581,"lng":139.098412,"version":"14.0b/19.0a"},{"town":"船戸山一丁目","koaza":"","lat":37.870691,"lng":139.105909,"version":"14.0b/19.0a"},{"town":"船戸山二丁目","koaza":"","lat":37.869727,"lng":139.106667,"version":"14.0b/19.0a"},{"town":"船戸山三丁目","koaza":"","lat":37.86934,"lng":139.103482,"version":"14.0b/19.0a"},{"town":"船戸山四丁目","koaza":"","lat":37.867556,"lng":139.105962,"version":"14.0b/19.0a"},{"town":"船戸山五丁目","koaza":"","lat":37.867734,"lng":139.103194,"version":"14.0b/19.0a"},{"town":"細山","koaza":"","lat":37.889515,"lng":139.151516,"version":"14.0b/19.0a"},{"town":"舞潟","koaza":"","lat":37.839803,"lng":139.041623,"version":"14.0b/19.0a"},{"town":"松山","koaza":"","lat":37.884469,"lng":139.14571,"version":"14.0b/19.0a"},{"town":"丸潟","koaza":"","lat":37.860505,"lng":139.075071,"version":"14.0b/19.0a"},{"town":"丸潟一丁目","koaza":"","lat":37.86123,"lng":139.07009,"version":"14.0b/19.0a"},{"town":"丸潟新田","koaza":"","lat":37.859149,"lng":139.058087,"version":"14.0b/19.0a"},{"town":"丸山","koaza":"","lat":37.882188,"lng":139.118102,"version":"14.0b/19.0a"},{"town":"丸山ノ内善之丞組","koaza":"","lat":37.88125,"lng":139.125034,"version":"14.0b/19.0a"},{"town":"茗荷谷","koaza":"","lat":37.88451,"lng":139.128127,"version":"14.0b/19.0a"},{"town":"元町一丁目","koaza":"","lat":37.864471,"lng":139.109545,"version":"14.0b/19.0a"},{"town":"元町二丁目","koaza":"","lat":37.864516,"lng":139.107774,"version":"14.0b/19.0a"},{"town":"元町三丁目","koaza":"","lat":37.865566,"lng":139.105579,"version":"14.0b/19.0a"},{"town":"元町四丁目","koaza":"","lat":37.866073,"lng":139.102907,"version":"14.0b/19.0a"},{"town":"元町五丁目","koaza":"","lat":37.863504,"lng":139.104375,"version":"14.0b/19.0a"},{"town":"山二ツ","koaza":"","lat":37.886514,"lng":139.094352,"version":"14.0b/19.0a"},{"town":"横越","koaza":"","lat":37.86221,"lng":139.146517,"version":"14.0b/19.0a"},{"town":"横越上町一丁目","koaza":"","lat":37.850951,"lng":139.146476,"version":"14.0b/19.0a"},{"town":"横越上町二丁目","koaza":"","lat":37.848919,"lng":139.148604,"version":"14.0b/19.0a"},{"town":"横越上町三丁目","koaza":"","lat":37.844672,"lng":139.14659,"version":"14.0b/19.0a"},{"town":"横越上町四丁目","koaza":"","lat":37.845642,"lng":139.144625,"version":"14.0b/19.0a"},{"town":"横越上町五丁目","koaza":"","lat":37.848597,"lng":139.144893,"version":"14.0b/19.0a"},{"town":"横越川根町一丁目","koaza":"","lat":37.854537,"lng":139.142512,"version":"14.0b/19.0a"},{"town":"横越川根町二丁目","koaza":"","lat":37.854068,"lng":139.13763,"version":"14.0b/19.0a"},{"town":"横越川根町三丁目","koaza":"","lat":37.85711,"lng":139.137184,"version":"14.0b/19.0a"},{"town":"横越川根町四丁目","koaza":"","lat":37.857359,"lng":139.134029,"version":"14.0b/19.0a"},{"town":"横越川根町五丁目","koaza":"","lat":37.860216,"lng":139.134443,"version":"14.0b/19.0a"},{"town":"横越中央一丁目","koaza":"","lat":37.855805,"lng":139.144064,"version":"14.0b/19.0a"},{"town":"横越中央二丁目","koaza":"","lat":37.856081,"lng":139.147874,"version":"14.0b/19.0a"},{"town":"横越中央三丁目","koaza":"","lat":37.85513,"lng":139.150892,"version":"14.0b/19.0a"},{"town":"横越中央四丁目","koaza":"","lat":37.854353,"lng":139.152996,"version":"14.0b/19.0a"},{"town":"横越中央五丁目","koaza":"","lat":37.851457,"lng":139.151188,"version":"14.0b/19.0a"},{"town":"横越中央六丁目","koaza":"","lat":37.852795,"lng":139.148319,"version":"14.0b/19.0a"},{"town":"横越中央七丁目","koaza":"","lat":37.853406,"lng":139.145139,"version":"14.0b/19.0a"},{"town":"横越中央八丁目","koaza":"","lat":37.851292,"lng":139.142705,"version":"14.0b/19.0a"},{"town":"横越東町一丁目","koaza":"","lat":37.855668,"lng":139.156217,"version":"14.0b/19.0a"},{"town":"横越東町二丁目","koaza":"","lat":37.859707,"lng":139.158892,"version":"14.0b/19.0a"},{"town":"両川一丁目","koaza":"","lat":37.845985,"lng":139.084154,"version":"14.0b/19.0a"},{"town":"両川二丁目","koaza":"","lat":37.848473,"lng":139.083615,"version":"14.0b/19.0a"},{"town":"和田","koaza":"","lat":37.845098,"lng":139.053559,"version":"14.0b/19.0a"},{"town":"割野","koaza":"","lat":37.84774,"lng":139.094506,"version":"14.0b/19.0a"}]