[{"town":"赤渋","koaza":"","lat":37.794141,"lng":139.055763,"version":"13.0b/18.0a"},{"town":"朝捲","koaza":"","lat":37.785444,"lng":139.04374,"version":"13.0b/18.0a"},{"town":"味方","koaza":"","lat":37.786665,"lng":138.998625,"version":"13.0b/18.0a"},{"town":"鯵潟","koaza":"","lat":37.776582,"lng":139.02146,"version":"13.0b/18.0a"},{"town":"鯵潟一丁目","koaza":"","lat":37.776821,"lng":139.013161,"version":"13.0b/18.0a"},{"town":"天野","koaza":"","lat":37.839572,"lng":139.03197,"version":"13.0b/18.0a"},{"town":"飯島","koaza":"","lat":37.72357,"lng":139.027769,"version":"13.0b/18.0a"},{"town":"居宿","koaza":"","lat":37.812293,"lng":138.995842,"version":"13.0b/18.0a"},{"town":"和泉","koaza":"","lat":37.760124,"lng":139.032868,"version":"13.0b/18.0a"},{"town":"犬帰新田","koaza":"","lat":37.817238,"lng":139.057243,"version":"13.0b/18.0a"},{"town":"茨曽根","koaza":"","lat":37.71667,"lng":139.00798,"version":"13.0b/18.0a"},{"town":"鋳物師興野","koaza":"","lat":37.731035,"lng":139.056031,"version":"13.0b/18.0a"},{"town":"兎新田","koaza":"","lat":37.697415,"lng":139.029288,"version":"13.0b/18.0a"},{"town":"牛崎","koaza":"","lat":37.729147,"lng":139.039453,"version":"13.0b/18.0a"},{"town":"臼井","koaza":"","lat":37.774121,"lng":139.055004,"version":"13.0b/18.0a"},{"town":"臼井ノ内小平次新田","koaza":"","lat":37.773511,"lng":139.058873,"version":"13.0b/18.0a"},{"town":"獺ケ通","koaza":"","lat":37.832998,"lng":139.05006,"version":"13.0b/18.0a"},{"town":"浦梨","koaza":"","lat":37.753324,"lng":139.025486,"version":"13.0b/18.0a"},{"town":"大倉","koaza":"","lat":37.806187,"lng":139.004044,"version":"13.0b/18.0a"},{"town":"大倉新田","koaza":"","lat":37.806644,"lng":139.002207,"version":"13.0b/18.0a"},{"town":"大通一丁目","koaza":"","lat":37.840356,"lng":139.019297,"version":"13.0b/18.0a"},{"town":"大通二丁目","koaza":"","lat":37.839872,"lng":139.020973,"version":"13.0b/18.0a"},{"town":"大通黄金一丁目","koaza":"","lat":37.826218,"lng":139.021101,"version":"13.0b/18.0a"},{"town":"大通黄金二丁目","koaza":"","lat":37.824669,"lng":139.02273,"version":"13.0b/18.0a"},{"town":"大通黄金三丁目","koaza":"","lat":37.825899,"lng":139.020404,"version":"13.0b/18.0a"},{"town":"大通黄金四丁目","koaza":"","lat":37.824219,"lng":139.0207,"version":"13.0b/18.0a"},{"town":"大通黄金五丁目","koaza":"","lat":37.822711,"lng":139.021196,"version":"13.0b/18.0a"},{"town":"大通黄金六丁目","koaza":"","lat":37.821143,"lng":139.023244,"version":"13.0b/18.0a"},{"town":"大通黄金七丁目","koaza":"","lat":37.820851,"lng":139.020766,"version":"13.0b/18.0a"},{"town":"大通南一丁目","koaza":"","lat":37.828519,"lng":139.020507,"version":"13.0b/18.0a"},{"town":"大通南二丁目","koaza":"","lat":37.82853,"lng":139.023285,"version":"13.0b/18.0a"},{"town":"大通南三丁目","koaza":"","lat":37.831067,"lng":139.02078,"version":"13.0b/18.0a"},{"town":"大通南四丁目","koaza":"","lat":37.83118,"lng":139.023137,"version":"13.0b/18.0a"},{"town":"大別當","koaza":"","lat":37.717764,"lng":138.990537,"version":"13.0b/18.0a"},{"town":"沖新保","koaza":"","lat":37.723975,"lng":139.019604,"version":"13.0b/18.0a"},{"town":"上浦","koaza":"","lat":37.75831,"lng":139.059222,"version":"13.0b/18.0a"},{"town":"上木山","koaza":"","lat":37.745531,"lng":139.030335,"version":"13.0b/18.0a"},{"town":"上塩俵","koaza":"","lat":37.817405,"lng":139.017124,"version":"13.0b/18.0a"},{"town":"上新田","koaza":"","lat":37.68157,"lng":138.988167,"version":"13.0b/18.0a"},{"town":"上道潟","koaza":"","lat":37.729333,"lng":139.01819,"version":"13.0b/18.0a"},{"town":"上八枚","koaza":"","lat":37.747475,"lng":139.061108,"version":"13.0b/18.0a"},{"town":"上曲通","koaza":"","lat":37.744586,"lng":138.998513,"version":"13.0b/18.0a"},{"town":"神屋","koaza":"","lat":37.784312,"lng":139.0239,"version":"13.0b/18.0a"},{"town":"北田中","koaza":"","lat":37.815041,"lng":139.023657,"version":"13.0b/18.0a"},{"town":"木滑","koaza":"","lat":37.748966,"lng":138.987642,"version":"13.0b/18.0a"},{"town":"櫛笥","koaza":"","lat":37.742263,"lng":139.048835,"version":"13.0b/18.0a"},{"town":"蜘手興野","koaza":"","lat":37.735876,"lng":139.051157,"version":"13.0b/18.0a"},{"town":"小坂","koaza":"","lat":37.786045,"lng":139.02361,"version":"13.0b/18.0a"},{"town":"小蔵子","koaza":"","lat":37.778035,"lng":139.044418,"version":"13.0b/18.0a"},{"town":"山王","koaza":"","lat":37.801954,"lng":139.007374,"version":"13.0b/18.0a"},{"town":"山王新田","koaza":"","lat":37.800737,"lng":139.007529,"version":"13.0b/18.0a"},{"town":"七軒","koaza":"","lat":37.77184,"lng":139.022425,"version":"13.0b/18.0a"},{"town":"七軒町","koaza":"","lat":37.771577,"lng":139.012618,"version":"13.0b/18.0a"},{"town":"清水","koaza":"","lat":37.709215,"lng":138.995509,"version":"13.0b/18.0a"},{"town":"下木山","koaza":"","lat":37.751536,"lng":139.032653,"version":"13.0b/18.0a"},{"town":"下道潟","koaza":"","lat":37.733197,"lng":139.021782,"version":"13.0b/18.0a"},{"town":"下八枚","koaza":"","lat":37.763103,"lng":139.059874,"version":"13.0b/18.0a"},{"town":"下八枚ノ内小見新田","koaza":"","lat":37.773156,"lng":139.06176,"version":"13.0b/18.0a"},{"town":"下曲通","koaza":"","lat":37.750298,"lng":139.002737,"version":"13.0b/18.0a"},{"town":"下山崎","koaza":"","lat":37.808015,"lng":139.009941,"version":"13.0b/18.0a"},{"town":"十五間","koaza":"","lat":37.780942,"lng":139.02427,"version":"13.0b/18.0a"},{"town":"十二道島","koaza":"","lat":37.73895,"lng":139.055949,"version":"13.0b/18.0a"},{"town":"上下諏訪木","koaza":"","lat":37.760805,"lng":139.022737,"version":"13.0b/18.0a"},{"town":"庄瀬","koaza":"","lat":37.717723,"lng":139.033969,"version":"13.0b/18.0a"},{"town":"次郎右エ門興野","koaza":"","lat":37.743235,"lng":139.059274,"version":"13.0b/18.0a"},{"town":"白根","koaza":"","lat":37.765284,"lng":139.039993,"version":"13.0b/18.0a"},{"town":"白根東町一丁目","koaza":"","lat":37.768867,"lng":139.023632,"version":"13.0b/18.0a"},{"town":"白根魚町","koaza":"","lat":37.765626,"lng":139.014019,"version":"13.0b/18.0a"},{"town":"白根水道町","koaza":"","lat":37.754343,"lng":139.011904,"version":"13.0b/18.0a"},{"town":"白根ノ内七軒","koaza":"","lat":37.764259,"lng":139.023543,"version":"13.0b/18.0a"},{"town":"白根日の出町","koaza":"","lat":37.755862,"lng":139.015199,"version":"13.0b/18.0a"},{"town":"白根古川","koaza":"","lat":37.773996,"lng":139.034512,"version":"13.0b/18.0a"},{"town":"白根四ツ興野","koaza":"","lat":37.773445,"lng":139.014425,"version":"13.0b/18.0a"},{"town":"新生町一丁目","koaza":"","lat":37.750519,"lng":139.055929,"version":"13.0b/18.0a"},{"town":"新生町二丁目","koaza":"","lat":37.750324,"lng":139.057277,"version":"13.0b/18.0a"},{"town":"新生町三丁目","koaza":"","lat":37.75158,"lng":139.056567,"version":"13.0b/18.0a"},{"town":"新山崎町一丁目","koaza":"","lat":37.808101,"lng":139.005992,"version":"13.0b/18.0a"},{"town":"新山崎町二丁目","koaza":"","lat":37.808163,"lng":139.007436,"version":"13.0b/18.0a"},{"town":"新山崎町三丁目","koaza":"","lat":37.809062,"lng":139.005794,"version":"13.0b/18.0a"},{"town":"親和町","koaza":"","lat":37.766239,"lng":139.021101,"version":"13.0b/18.0a"},{"town":"杉菜","koaza":"","lat":37.766139,"lng":139.022898,"version":"13.0b/18.0a"},{"town":"助次右エ門組","koaza":"","lat":37.748478,"lng":139.02366,"version":"13.0b/18.0a"},{"town":"蔵主","koaza":"","lat":37.741058,"lng":139.032215,"version":"13.0b/18.0a"},{"town":"大郷","koaza":"","lat":37.805921,"lng":139.059321,"version":"13.0b/18.0a"},{"town":"田尾","koaza":"","lat":37.746998,"lng":139.040769,"version":"13.0b/18.0a"},{"town":"高井興野","koaza":"","lat":37.80007,"lng":139.021729,"version":"13.0b/18.0a"},{"town":"高井東一丁目","koaza":"","lat":37.796484,"lng":139.016507,"version":"13.0b/18.0a"},{"town":"高井東二丁目","koaza":"","lat":37.798517,"lng":139.017216,"version":"13.0b/18.0a"},{"town":"高井東三丁目","koaza":"","lat":37.799286,"lng":139.01974,"version":"13.0b/18.0a"},{"town":"田中","koaza":"","lat":37.75413,"lng":139.019448,"version":"13.0b/18.0a"},{"town":"月潟","koaza":"","lat":37.728614,"lng":138.992812,"version":"13.0b/18.0a"},{"town":"釣寄","koaza":"","lat":37.746004,"lng":138.975638,"version":"13.0b/18.0a"},{"town":"釣寄新","koaza":"","lat":37.745512,"lng":138.980254,"version":"13.0b/18.0a"},{"town":"天王新田","koaza":"","lat":37.741429,"lng":139.039147,"version":"13.0b/18.0a"},{"town":"戸石","koaza":"","lat":37.752399,"lng":139.061396,"version":"13.0b/18.0a"},{"town":"戸頭","koaza":"","lat":37.743213,"lng":139.014138,"version":"13.0b/18.0a"},{"town":"中小見","koaza":"","lat":37.773602,"lng":139.06765,"version":"13.0b/18.0a"},{"town":"中塩俵","koaza":"","lat":37.829458,"lng":139.011651,"version":"13.0b/18.0a"},{"town":"中山","koaza":"","lat":37.775111,"lng":139.050874,"version":"13.0b/18.0a"},{"town":"七穂","koaza":"","lat":37.800311,"lng":138.994658,"version":"13.0b/18.0a"},{"town":"鍋潟","koaza":"","lat":37.758035,"lng":139.040837,"version":"13.0b/18.0a"},{"town":"新飯田","koaza":"","lat":37.692959,"lng":138.984673,"version":"13.0b/18.0a"},{"town":"西笠巻","koaza":"","lat":37.797832,"lng":139.044329,"version":"13.0b/18.0a"},{"town":"西笠巻新田","koaza":"","lat":37.805595,"lng":139.044473,"version":"13.0b/18.0a"},{"town":"西萱場","koaza":"","lat":37.735573,"lng":138.997709,"version":"13.0b/18.0a"},{"town":"西酒屋","koaza":"","lat":37.828528,"lng":139.055015,"version":"13.0b/18.0a"},{"town":"西白根","koaza":"","lat":37.763532,"lng":139.00265,"version":"13.0b/18.0a"},{"town":"根岸","koaza":"","lat":37.795671,"lng":139.02518,"version":"13.0b/18.0a"},{"town":"能登","koaza":"","lat":37.768113,"lng":139.029386,"version":"13.0b/18.0a"},{"town":"能登一丁目","koaza":"","lat":37.768679,"lng":139.013224,"version":"13.0b/18.0a"},{"town":"能登二丁目","koaza":"","lat":37.768605,"lng":139.016001,"version":"13.0b/18.0a"},{"town":"東笠巻","koaza":"","lat":37.816702,"lng":139.051176,"version":"13.0b/18.0a"},{"town":"東笠巻新田","koaza":"","lat":37.816302,"lng":139.041525,"version":"13.0b/18.0a"},{"town":"東萱場","koaza":"","lat":37.733625,"lng":139.009078,"version":"13.0b/18.0a"},{"town":"東長嶋","koaza":"","lat":37.735237,"lng":138.984596,"version":"13.0b/18.0a"},{"town":"菱潟","koaza":"","lat":37.725442,"lng":139.052201,"version":"13.0b/18.0a"},{"town":"菱潟新田","koaza":"","lat":37.726132,"lng":139.044189,"version":"13.0b/18.0a"},{"town":"引越","koaza":"","lat":37.78896,"lng":139.0354,"version":"13.0b/18.0a"},{"town":"平潟","koaza":"","lat":37.736699,"lng":139.034682,"version":"13.0b/18.0a"},{"town":"平潟新田","koaza":"","lat":37.736527,"lng":139.024555,"version":"13.0b/18.0a"},{"town":"福島","koaza":"","lat":37.74299,"lng":138.973884,"version":"13.0b/18.0a"},{"town":"古川新田","koaza":"","lat":37.702902,"lng":139.029161,"version":"13.0b/18.0a"},{"town":"平成町","koaza":"","lat":37.753061,"lng":139.014461,"version":"13.0b/18.0a"},{"town":"保坂","koaza":"","lat":37.788739,"lng":139.023189,"version":"13.0b/18.0a"},{"town":"堀掛","koaza":"","lat":37.779727,"lng":139.059725,"version":"13.0b/18.0a"},{"town":"真木","koaza":"","lat":37.709022,"lng":139.024449,"version":"13.0b/18.0a"},{"town":"松橋","koaza":"","lat":37.822871,"lng":139.006605,"version":"13.0b/18.0a"},{"town":"万年","koaza":"","lat":37.736952,"lng":139.044618,"version":"13.0b/18.0a"},{"town":"山崎興野","koaza":"","lat":37.809602,"lng":139.020672,"version":"13.0b/18.0a"},{"town":"吉江","koaza":"","lat":37.794696,"lng":139.008814,"version":"13.0b/18.0a"},{"town":"吉田新田","koaza":"","lat":37.798072,"lng":139.008273,"version":"13.0b/18.0a"},{"town":"大通西","koaza":"","lat":37.835543,"lng":139.017606,"version":"13.0b/18.0a"},{"town":"大通南五丁目","koaza":"","lat":37.831771,"lng":139.019296,"version":"13.0b/18.0a"},{"town":"鷲ノ木新田","koaza":"","lat":37.834293,"lng":139.029255,"version":"13.0b/18.0a"},{"town":"下塩俵","koaza":"","lat":37.834803,"lng":139.014643,"version":"13.0b/18.0a"},{"town":"大通南六丁目","koaza":"","lat":37.834892,"lng":139.019748,"version":"13.0b/18.0a"},{"town":"十五間","koaza":"堀東","lat":37.779321,"lng":139.018568,"version":"13.0b/18.0a"},{"town":"保坂","koaza":"岡下","lat":37.788887,"lng":139.019351,"version":"13.0b/18.0a"},{"town":"鷲ノ木新田","koaza":"諏訪木島","lat":37.836732,"lng":139.019967,"version":"13.0b/18.0a"},{"town":"上下諏訪木","koaza":"論地","lat":37.759809,"lng":139.022615,"version":"13.0b/18.0a"},{"town":"北田中","koaza":"堀留","lat":37.817461,"lng":139.025212,"version":"13.0b/18.0a"},{"town":"赤渋","koaza":"","lat":37.794141,"lng":139.055763,"version":"14.0b/19.0a"},{"town":"朝捲","koaza":"","lat":37.785444,"lng":139.04374,"version":"14.0b/19.0a"},{"town":"味方","koaza":"","lat":37.786665,"lng":138.998625,"version":"14.0b/19.0a"},{"town":"鯵潟","koaza":"","lat":37.776582,"lng":139.02146,"version":"14.0b/19.0a"},{"town":"鯵潟一丁目","koaza":"","lat":37.776821,"lng":139.013161,"version":"14.0b/19.0a"},{"town":"天野","koaza":"","lat":37.839572,"lng":139.03197,"version":"14.0b/19.0a"},{"town":"飯島","koaza":"","lat":37.72357,"lng":139.027769,"version":"14.0b/19.0a"},{"town":"居宿","koaza":"","lat":37.812293,"lng":138.995842,"version":"14.0b/19.0a"},{"town":"和泉","koaza":"","lat":37.760124,"lng":139.032868,"version":"14.0b/19.0a"},{"town":"犬帰新田","koaza":"","lat":37.817238,"lng":139.057243,"version":"14.0b/19.0a"},{"town":"茨曽根","koaza":"","lat":37.71667,"lng":139.00798,"version":"14.0b/19.0a"},{"town":"鋳物師興野","koaza":"","lat":37.731035,"lng":139.056031,"version":"14.0b/19.0a"},{"town":"兎新田","koaza":"","lat":37.697415,"lng":139.029288,"version":"14.0b/19.0a"},{"town":"牛崎","koaza":"","lat":37.729147,"lng":139.039453,"version":"14.0b/19.0a"},{"town":"臼井","koaza":"","lat":37.774121,"lng":139.055004,"version":"14.0b/19.0a"},{"town":"臼井ノ内小平次新田","koaza":"","lat":37.773511,"lng":139.058873,"version":"14.0b/19.0a"},{"town":"獺ケ通","koaza":"","lat":37.832998,"lng":139.05006,"version":"14.0b/19.0a"},{"town":"浦梨","koaza":"","lat":37.753324,"lng":139.025486,"version":"14.0b/19.0a"},{"town":"大倉","koaza":"","lat":37.806187,"lng":139.004044,"version":"14.0b/19.0a"},{"town":"大倉新田","koaza":"","lat":37.806644,"lng":139.002207,"version":"14.0b/19.0a"},{"town":"大通一丁目","koaza":"","lat":37.840356,"lng":139.019297,"version":"14.0b/19.0a"},{"town":"大通二丁目","koaza":"","lat":37.839872,"lng":139.020973,"version":"14.0b/19.0a"},{"town":"大通黄金一丁目","koaza":"","lat":37.826218,"lng":139.021101,"version":"14.0b/19.0a"},{"town":"大通黄金二丁目","koaza":"","lat":37.824669,"lng":139.02273,"version":"14.0b/19.0a"},{"town":"大通黄金三丁目","koaza":"","lat":37.825899,"lng":139.020404,"version":"14.0b/19.0a"},{"town":"大通黄金四丁目","koaza":"","lat":37.824219,"lng":139.0207,"version":"14.0b/19.0a"},{"town":"大通黄金五丁目","koaza":"","lat":37.822711,"lng":139.021196,"version":"14.0b/19.0a"},{"town":"大通黄金六丁目","koaza":"","lat":37.821143,"lng":139.023244,"version":"14.0b/19.0a"},{"town":"大通黄金七丁目","koaza":"","lat":37.820851,"lng":139.020766,"version":"14.0b/19.0a"},{"town":"大通南一丁目","koaza":"","lat":37.828519,"lng":139.020507,"version":"14.0b/19.0a"},{"town":"大通南二丁目","koaza":"","lat":37.82853,"lng":139.023285,"version":"14.0b/19.0a"},{"town":"大通南三丁目","koaza":"","lat":37.831067,"lng":139.02078,"version":"14.0b/19.0a"},{"town":"大通南四丁目","koaza":"","lat":37.83118,"lng":139.023137,"version":"14.0b/19.0a"},{"town":"大別當","koaza":"","lat":37.717764,"lng":138.990537,"version":"14.0b/19.0a"},{"town":"沖新保","koaza":"","lat":37.723975,"lng":139.019604,"version":"14.0b/19.0a"},{"town":"上浦","koaza":"","lat":37.75831,"lng":139.059222,"version":"14.0b/19.0a"},{"town":"上木山","koaza":"","lat":37.745531,"lng":139.030335,"version":"14.0b/19.0a"},{"town":"上塩俵","koaza":"","lat":37.817405,"lng":139.017124,"version":"14.0b/19.0a"},{"town":"上新田","koaza":"","lat":37.68157,"lng":138.988167,"version":"14.0b/19.0a"},{"town":"上道潟","koaza":"","lat":37.729333,"lng":139.01819,"version":"14.0b/19.0a"},{"town":"上八枚","koaza":"","lat":37.747475,"lng":139.061108,"version":"14.0b/19.0a"},{"town":"上曲通","koaza":"","lat":37.744586,"lng":138.998513,"version":"14.0b/19.0a"},{"town":"神屋","koaza":"","lat":37.784312,"lng":139.0239,"version":"14.0b/19.0a"},{"town":"北田中","koaza":"","lat":37.815041,"lng":139.023657,"version":"14.0b/19.0a"},{"town":"木滑","koaza":"","lat":37.748966,"lng":138.987642,"version":"14.0b/19.0a"},{"town":"櫛笥","koaza":"","lat":37.742263,"lng":139.048835,"version":"14.0b/19.0a"},{"town":"蜘手興野","koaza":"","lat":37.735876,"lng":139.051157,"version":"14.0b/19.0a"},{"town":"小坂","koaza":"","lat":37.786045,"lng":139.02361,"version":"14.0b/19.0a"},{"town":"小蔵子","koaza":"","lat":37.778035,"lng":139.044418,"version":"14.0b/19.0a"},{"town":"山王","koaza":"","lat":37.801954,"lng":139.007374,"version":"14.0b/19.0a"},{"town":"山王新田","koaza":"","lat":37.800737,"lng":139.007529,"version":"14.0b/19.0a"},{"town":"七軒","koaza":"","lat":37.77184,"lng":139.022425,"version":"14.0b/19.0a"},{"town":"七軒町","koaza":"","lat":37.771577,"lng":139.012618,"version":"14.0b/19.0a"},{"town":"清水","koaza":"","lat":37.709215,"lng":138.995509,"version":"14.0b/19.0a"},{"town":"下木山","koaza":"","lat":37.751536,"lng":139.032653,"version":"14.0b/19.0a"},{"town":"下道潟","koaza":"","lat":37.733197,"lng":139.021782,"version":"14.0b/19.0a"},{"town":"下八枚","koaza":"","lat":37.763103,"lng":139.059874,"version":"14.0b/19.0a"},{"town":"下八枚ノ内小見新田","koaza":"","lat":37.773156,"lng":139.06176,"version":"14.0b/19.0a"},{"town":"下曲通","koaza":"","lat":37.750298,"lng":139.002737,"version":"14.0b/19.0a"},{"town":"下山崎","koaza":"","lat":37.808015,"lng":139.009941,"version":"14.0b/19.0a"},{"town":"十五間","koaza":"","lat":37.780942,"lng":139.02427,"version":"14.0b/19.0a"},{"town":"十二道島","koaza":"","lat":37.73895,"lng":139.055949,"version":"14.0b/19.0a"},{"town":"上下諏訪木","koaza":"","lat":37.760805,"lng":139.022737,"version":"14.0b/19.0a"},{"town":"庄瀬","koaza":"","lat":37.717723,"lng":139.033969,"version":"14.0b/19.0a"},{"town":"次郎右エ門興野","koaza":"","lat":37.743235,"lng":139.059274,"version":"14.0b/19.0a"},{"town":"白根","koaza":"","lat":37.765284,"lng":139.039993,"version":"14.0b/19.0a"},{"town":"白根東町一丁目","koaza":"","lat":37.768867,"lng":139.023632,"version":"14.0b/19.0a"},{"town":"白根魚町","koaza":"","lat":37.765626,"lng":139.014019,"version":"14.0b/19.0a"},{"town":"白根水道町","koaza":"","lat":37.754343,"lng":139.011904,"version":"14.0b/19.0a"},{"town":"白根ノ内七軒","koaza":"","lat":37.764259,"lng":139.023543,"version":"14.0b/19.0a"},{"town":"白根日の出町","koaza":"","lat":37.755862,"lng":139.015199,"version":"14.0b/19.0a"},{"town":"白根古川","koaza":"","lat":37.773996,"lng":139.034512,"version":"14.0b/19.0a"},{"town":"白根四ツ興野","koaza":"","lat":37.773445,"lng":139.014425,"version":"14.0b/19.0a"},{"town":"新生町一丁目","koaza":"","lat":37.750519,"lng":139.055929,"version":"14.0b/19.0a"},{"town":"新生町二丁目","koaza":"","lat":37.750324,"lng":139.057277,"version":"14.0b/19.0a"},{"town":"新生町三丁目","koaza":"","lat":37.75158,"lng":139.056567,"version":"14.0b/19.0a"},{"town":"新山崎町一丁目","koaza":"","lat":37.808101,"lng":139.005992,"version":"14.0b/19.0a"},{"town":"新山崎町二丁目","koaza":"","lat":37.808163,"lng":139.007436,"version":"14.0b/19.0a"},{"town":"新山崎町三丁目","koaza":"","lat":37.809062,"lng":139.005794,"version":"14.0b/19.0a"},{"town":"親和町","koaza":"","lat":37.766239,"lng":139.021101,"version":"14.0b/19.0a"},{"town":"杉菜","koaza":"","lat":37.766139,"lng":139.022898,"version":"14.0b/19.0a"},{"town":"助次右エ門組","koaza":"","lat":37.748478,"lng":139.02366,"version":"14.0b/19.0a"},{"town":"蔵主","koaza":"","lat":37.741058,"lng":139.032215,"version":"14.0b/19.0a"},{"town":"大郷","koaza":"","lat":37.805921,"lng":139.059321,"version":"14.0b/19.0a"},{"town":"田尾","koaza":"","lat":37.746998,"lng":139.040769,"version":"14.0b/19.0a"},{"town":"高井興野","koaza":"","lat":37.80007,"lng":139.021729,"version":"14.0b/19.0a"},{"town":"高井東一丁目","koaza":"","lat":37.796484,"lng":139.016507,"version":"14.0b/19.0a"},{"town":"高井東二丁目","koaza":"","lat":37.798517,"lng":139.017216,"version":"14.0b/19.0a"},{"town":"高井東三丁目","koaza":"","lat":37.799286,"lng":139.01974,"version":"14.0b/19.0a"},{"town":"田中","koaza":"","lat":37.75413,"lng":139.019448,"version":"14.0b/19.0a"},{"town":"月潟","koaza":"","lat":37.728614,"lng":138.992812,"version":"14.0b/19.0a"},{"town":"釣寄","koaza":"","lat":37.746004,"lng":138.975638,"version":"14.0b/19.0a"},{"town":"釣寄新","koaza":"","lat":37.745512,"lng":138.980254,"version":"14.0b/19.0a"},{"town":"天王新田","koaza":"","lat":37.741429,"lng":139.039147,"version":"14.0b/19.0a"},{"town":"戸石","koaza":"","lat":37.752399,"lng":139.061396,"version":"14.0b/19.0a"},{"town":"戸頭","koaza":"","lat":37.743213,"lng":139.014138,"version":"14.0b/19.0a"},{"town":"中小見","koaza":"","lat":37.773602,"lng":139.06765,"version":"14.0b/19.0a"},{"town":"中塩俵","koaza":"","lat":37.829458,"lng":139.011651,"version":"14.0b/19.0a"},{"town":"中山","koaza":"","lat":37.775111,"lng":139.050874,"version":"14.0b/19.0a"},{"town":"七穂","koaza":"","lat":37.800311,"lng":138.994658,"version":"14.0b/19.0a"},{"town":"鍋潟","koaza":"","lat":37.758035,"lng":139.040837,"version":"14.0b/19.0a"},{"town":"新飯田","koaza":"","lat":37.692959,"lng":138.984673,"version":"14.0b/19.0a"},{"town":"西笠巻","koaza":"","lat":37.797832,"lng":139.044329,"version":"14.0b/19.0a"},{"town":"西笠巻新田","koaza":"","lat":37.805595,"lng":139.044473,"version":"14.0b/19.0a"},{"town":"西萱場","koaza":"","lat":37.735573,"lng":138.997709,"version":"14.0b/19.0a"},{"town":"西酒屋","koaza":"","lat":37.828528,"lng":139.055015,"version":"14.0b/19.0a"},{"town":"西白根","koaza":"","lat":37.763532,"lng":139.00265,"version":"14.0b/19.0a"},{"town":"根岸","koaza":"","lat":37.795671,"lng":139.02518,"version":"14.0b/19.0a"},{"town":"能登","koaza":"","lat":37.768113,"lng":139.029386,"version":"14.0b/19.0a"},{"town":"能登一丁目","koaza":"","lat":37.768679,"lng":139.013224,"version":"14.0b/19.0a"},{"town":"能登二丁目","koaza":"","lat":37.768605,"lng":139.016001,"version":"14.0b/19.0a"},{"town":"東笠巻","koaza":"","lat":37.816702,"lng":139.051176,"version":"14.0b/19.0a"},{"town":"東笠巻新田","koaza":"","lat":37.816302,"lng":139.041525,"version":"14.0b/19.0a"},{"town":"東萱場","koaza":"","lat":37.733625,"lng":139.009078,"version":"14.0b/19.0a"},{"town":"東長嶋","koaza":"","lat":37.735237,"lng":138.984596,"version":"14.0b/19.0a"},{"town":"菱潟","koaza":"","lat":37.725442,"lng":139.052201,"version":"14.0b/19.0a"},{"town":"菱潟新田","koaza":"","lat":37.726132,"lng":139.044189,"version":"14.0b/19.0a"},{"town":"引越","koaza":"","lat":37.78896,"lng":139.0354,"version":"14.0b/19.0a"},{"town":"平潟","koaza":"","lat":37.736699,"lng":139.034682,"version":"14.0b/19.0a"},{"town":"平潟新田","koaza":"","lat":37.736527,"lng":139.024555,"version":"14.0b/19.0a"},{"town":"福島","koaza":"","lat":37.74299,"lng":138.973884,"version":"14.0b/19.0a"},{"town":"古川新田","koaza":"","lat":37.702902,"lng":139.029161,"version":"14.0b/19.0a"},{"town":"平成町","koaza":"","lat":37.753061,"lng":139.014461,"version":"14.0b/19.0a"},{"town":"保坂","koaza":"","lat":37.788739,"lng":139.023189,"version":"14.0b/19.0a"},{"town":"堀掛","koaza":"","lat":37.779727,"lng":139.059725,"version":"14.0b/19.0a"},{"town":"真木","koaza":"","lat":37.709022,"lng":139.024449,"version":"14.0b/19.0a"},{"town":"松橋","koaza":"","lat":37.822871,"lng":139.006605,"version":"14.0b/19.0a"},{"town":"万年","koaza":"","lat":37.736952,"lng":139.044618,"version":"14.0b/19.0a"},{"town":"山崎興野","koaza":"","lat":37.809602,"lng":139.020672,"version":"14.0b/19.0a"},{"town":"吉江","koaza":"","lat":37.794696,"lng":139.008814,"version":"14.0b/19.0a"},{"town":"吉田新田","koaza":"","lat":37.798072,"lng":139.008273,"version":"14.0b/19.0a"},{"town":"大通西","koaza":"","lat":37.835543,"lng":139.017606,"version":"14.0b/19.0a"},{"town":"大通南五丁目","koaza":"","lat":37.831771,"lng":139.019296,"version":"14.0b/19.0a"},{"town":"鷲ノ木新田","koaza":"","lat":37.834293,"lng":139.029255,"version":"14.0b/19.0a"},{"town":"下塩俵","koaza":"","lat":37.834803,"lng":139.014643,"version":"14.0b/19.0a"},{"town":"大通南六丁目","koaza":"","lat":37.834892,"lng":139.019748,"version":"14.0b/19.0a"},{"town":"十五間","koaza":"堀東","lat":37.779321,"lng":139.018568,"version":"14.0b/19.0a"},{"town":"保坂","koaza":"岡下","lat":37.788887,"lng":139.019351,"version":"14.0b/19.0a"},{"town":"鷲ノ木新田","koaza":"諏訪木島","lat":37.836732,"lng":139.019967,"version":"14.0b/19.0a"},{"town":"上下諏訪木","koaza":"論地","lat":37.759809,"lng":139.022615,"version":"14.0b/19.0a"},{"town":"北田中","koaza":"堀留","lat":37.817461,"lng":139.025212,"version":"14.0b/19.0a"}]