[{"town":"通","koaza":"","lat":34.427687,"lng":131.244094,"version":"13.0b/18.0a"},{"town":"渋木","koaza":"","lat":34.311072,"lng":131.199632,"version":"13.0b/18.0a"},{"town":"仙崎","koaza":"","lat":34.390048,"lng":131.198838,"version":"13.0b/18.0a"},{"town":"俵山","koaza":"","lat":34.290348,"lng":131.099869,"version":"13.0b/18.0a"},{"town":"西深川","koaza":"","lat":34.366937,"lng":131.169424,"version":"13.0b/18.0a"},{"town":"東深川","koaza":"","lat":34.37117,"lng":131.186832,"version":"13.0b/18.0a"},{"town":"深川湯本","koaza":"","lat":34.332187,"lng":131.172768,"version":"13.0b/18.0a"},{"town":"日置上","koaza":"","lat":34.391991,"lng":131.133799,"version":"13.0b/18.0a"},{"town":"日置蔵小田","koaza":"","lat":34.397802,"lng":131.059694,"version":"13.0b/18.0a"},{"town":"日置下","koaza":"","lat":34.390125,"lng":131.073793,"version":"13.0b/18.0a"},{"town":"日置中","koaza":"","lat":34.374348,"lng":131.098843,"version":"13.0b/18.0a"},{"town":"日置野田","koaza":"","lat":34.405008,"lng":131.073429,"version":"13.0b/18.0a"},{"town":"真木","koaza":"","lat":34.316413,"lng":131.226357,"version":"13.0b/18.0a"},{"town":"三隅上","koaza":"","lat":34.349614,"lng":131.303628,"version":"13.0b/18.0a"},{"town":"三隅下","koaza":"","lat":34.363853,"lng":131.223502,"version":"13.0b/18.0a"},{"town":"三隅中","koaza":"","lat":34.358667,"lng":131.253766,"version":"13.0b/18.0a"},{"town":"油谷伊上","koaza":"","lat":34.37057,"lng":131.019656,"version":"13.0b/18.0a"},{"town":"油谷後畑","koaza":"","lat":34.407895,"lng":131.039938,"version":"13.0b/18.0a"},{"town":"油谷角山","koaza":"","lat":34.390825,"lng":131.034695,"version":"13.0b/18.0a"},{"town":"油谷川尻","koaza":"","lat":34.422503,"lng":131.000638,"version":"13.0b/18.0a"},{"town":"油谷河原","koaza":"","lat":34.367596,"lng":131.047333,"version":"13.0b/18.0a"},{"town":"油谷蔵小田","koaza":"","lat":34.387373,"lng":131.057399,"version":"13.0b/18.0a"},{"town":"油谷新別名","koaza":"","lat":34.373348,"lng":131.060361,"version":"13.0b/18.0a"},{"town":"油谷津黄","koaza":"","lat":34.417769,"lng":131.078168,"version":"13.0b/18.0a"},{"town":"油谷久富","koaza":"","lat":34.377362,"lng":131.078941,"version":"13.0b/18.0a"},{"town":"油谷向津具上","koaza":"","lat":34.416716,"lng":130.993232,"version":"13.0b/18.0a"},{"town":"油谷向津具下","koaza":"","lat":34.414086,"lng":130.97156,"version":"13.0b/18.0a"},{"town":"俵山","koaza":"桂川","lat":34.279265,"lng":131.092639,"version":"13.0b/18.0a"},{"town":"西深川","koaza":"下斎藤","lat":34.362481,"lng":131.176069,"version":"13.0b/18.0a"},{"town":"東深川","koaza":"土の内","lat":34.365429,"lng":131.182257,"version":"13.0b/18.0a"},{"town":"東深川","koaza":"真名ケ崎","lat":34.375493,"lng":131.191303,"version":"13.0b/18.0a"},{"town":"仙崎","koaza":"堤尻","lat":34.378165,"lng":131.200518,"version":"13.0b/18.0a"},{"town":"仙崎","koaza":"網田","lat":34.376885,"lng":131.193905,"version":"13.0b/18.0a"},{"town":"仙崎","koaza":"新屋敷","lat":34.389361,"lng":131.196339,"version":"13.0b/18.0a"},{"town":"東深川","koaza":"西新開","lat":34.388309,"lng":131.196498,"version":"13.0b/18.0a"},{"town":"仙崎","koaza":"中ノ蔵","lat":34.381483,"lng":131.196703,"version":"13.0b/18.0a"},{"town":"仙崎","koaza":"漁港南","lat":34.38397,"lng":131.205621,"version":"13.0b/18.0a"},{"town":"通","koaza":"","lat":34.427687,"lng":131.244094,"version":"14.0b/19.0a"},{"town":"渋木","koaza":"","lat":34.311072,"lng":131.199632,"version":"14.0b/19.0a"},{"town":"仙崎","koaza":"","lat":34.390048,"lng":131.198838,"version":"14.0b/19.0a"},{"town":"俵山","koaza":"","lat":34.290348,"lng":131.099869,"version":"14.0b/19.0a"},{"town":"西深川","koaza":"","lat":34.366937,"lng":131.169424,"version":"14.0b/19.0a"},{"town":"東深川","koaza":"","lat":34.37117,"lng":131.186832,"version":"14.0b/19.0a"},{"town":"深川湯本","koaza":"","lat":34.332187,"lng":131.172768,"version":"14.0b/19.0a"},{"town":"日置上","koaza":"","lat":34.391991,"lng":131.133799,"version":"14.0b/19.0a"},{"town":"日置蔵小田","koaza":"","lat":34.397802,"lng":131.059694,"version":"14.0b/19.0a"},{"town":"日置下","koaza":"","lat":34.390125,"lng":131.073793,"version":"14.0b/19.0a"},{"town":"日置中","koaza":"","lat":34.374348,"lng":131.098843,"version":"14.0b/19.0a"},{"town":"日置野田","koaza":"","lat":34.405008,"lng":131.073429,"version":"14.0b/19.0a"},{"town":"真木","koaza":"","lat":34.316413,"lng":131.226357,"version":"14.0b/19.0a"},{"town":"三隅上","koaza":"","lat":34.349614,"lng":131.303628,"version":"14.0b/19.0a"},{"town":"三隅下","koaza":"","lat":34.363853,"lng":131.223502,"version":"14.0b/19.0a"},{"town":"三隅中","koaza":"","lat":34.358667,"lng":131.253766,"version":"14.0b/19.0a"},{"town":"油谷伊上","koaza":"","lat":34.37057,"lng":131.019656,"version":"14.0b/19.0a"},{"town":"油谷後畑","koaza":"","lat":34.407895,"lng":131.039938,"version":"14.0b/19.0a"},{"town":"油谷角山","koaza":"","lat":34.390825,"lng":131.034695,"version":"14.0b/19.0a"},{"town":"油谷川尻","koaza":"","lat":34.422503,"lng":131.000638,"version":"14.0b/19.0a"},{"town":"油谷河原","koaza":"","lat":34.367596,"lng":131.047333,"version":"14.0b/19.0a"},{"town":"油谷蔵小田","koaza":"","lat":34.387373,"lng":131.057399,"version":"14.0b/19.0a"},{"town":"油谷新別名","koaza":"","lat":34.373348,"lng":131.060361,"version":"14.0b/19.0a"},{"town":"油谷津黄","koaza":"","lat":34.417769,"lng":131.078168,"version":"14.0b/19.0a"},{"town":"油谷久富","koaza":"","lat":34.377362,"lng":131.078941,"version":"14.0b/19.0a"},{"town":"油谷向津具上","koaza":"","lat":34.416716,"lng":130.993232,"version":"14.0b/19.0a"},{"town":"油谷向津具下","koaza":"","lat":34.414086,"lng":130.97156,"version":"14.0b/19.0a"},{"town":"俵山","koaza":"桂川","lat":34.279265,"lng":131.092639,"version":"14.0b/19.0a"},{"town":"西深川","koaza":"下斎藤","lat":34.362481,"lng":131.176069,"version":"14.0b/19.0a"},{"town":"東深川","koaza":"土の内","lat":34.365429,"lng":131.182257,"version":"14.0b/19.0a"},{"town":"東深川","koaza":"真名ケ崎","lat":34.375493,"lng":131.191303,"version":"14.0b/19.0a"},{"town":"仙崎","koaza":"堤尻","lat":34.378165,"lng":131.200518,"version":"14.0b/19.0a"},{"town":"仙崎","koaza":"網田","lat":34.376885,"lng":131.193905,"version":"14.0b/19.0a"},{"town":"仙崎","koaza":"新屋敷","lat":34.389361,"lng":131.196339,"version":"14.0b/19.0a"},{"town":"東深川","koaza":"西新開","lat":34.388309,"lng":131.196498,"version":"14.0b/19.0a"},{"town":"仙崎","koaza":"中ノ蔵","lat":34.381483,"lng":131.196703,"version":"14.0b/19.0a"},{"town":"仙崎","koaza":"漁港南","lat":34.38397,"lng":131.205621,"version":"14.0b/19.0a"}]