[{"town":"字奥間","koaza":"","lat":26.256153,"lng":127.784369,"version":"13.0b/18.0a"},{"town":"字南浜","koaza":"","lat":26.234686,"lng":127.785788,"version":"13.0b/18.0a"},{"town":"字北浜","koaza":"","lat":26.2408,"lng":127.785717,"version":"13.0b/18.0a"},{"town":"字和宇慶","koaza":"","lat":26.240118,"lng":127.779172,"version":"13.0b/18.0a"},{"town":"字津覇","koaza":"","lat":26.247623,"lng":127.782223,"version":"13.0b/18.0a"},{"town":"字伊舎堂","koaza":"","lat":26.277135,"lng":127.800801,"version":"13.0b/18.0a"},{"town":"字添石","koaza":"","lat":26.273873,"lng":127.798325,"version":"13.0b/18.0a"},{"town":"字屋宜","koaza":"","lat":26.270263,"lng":127.793155,"version":"13.0b/18.0a"},{"town":"字当間","koaza":"","lat":26.264056,"lng":127.790222,"version":"13.0b/18.0a"},{"town":"字新垣","koaza":"","lat":26.274151,"lng":127.784245,"version":"13.0b/18.0a"},{"town":"字安里","koaza":"","lat":26.259955,"lng":127.787322,"version":"13.0b/18.0a"},{"town":"字久場","koaza":"","lat":26.283273,"lng":127.812565,"version":"13.0b/18.0a"},{"town":"字泊","koaza":"","lat":26.275334,"lng":127.809305,"version":"13.0b/18.0a"},{"town":"字登又","koaza":"","lat":26.282209,"lng":127.79011,"version":"13.0b/18.0a"},{"town":"字北上原","koaza":"","lat":26.267206,"lng":127.779384,"version":"13.0b/18.0a"},{"town":"字南上原","koaza":"","lat":26.250996,"lng":127.771295,"version":"13.0b/18.0a"},{"town":"字伊集","koaza":"","lat":26.240675,"lng":127.772555,"version":"13.0b/18.0a"},{"town":"字奥間","koaza":"","lat":26.256153,"lng":127.784369,"version":"14.0b/19.0a"},{"town":"字南浜","koaza":"","lat":26.234686,"lng":127.785788,"version":"14.0b/19.0a"},{"town":"字北浜","koaza":"","lat":26.2408,"lng":127.785717,"version":"14.0b/19.0a"},{"town":"字和宇慶","koaza":"","lat":26.240118,"lng":127.779172,"version":"14.0b/19.0a"},{"town":"字津覇","koaza":"","lat":26.247623,"lng":127.782223,"version":"14.0b/19.0a"},{"town":"字伊舎堂","koaza":"","lat":26.277135,"lng":127.800801,"version":"14.0b/19.0a"},{"town":"字添石","koaza":"","lat":26.273873,"lng":127.798325,"version":"14.0b/19.0a"},{"town":"字屋宜","koaza":"","lat":26.270263,"lng":127.793155,"version":"14.0b/19.0a"},{"town":"字当間","koaza":"","lat":26.264056,"lng":127.790222,"version":"14.0b/19.0a"},{"town":"字新垣","koaza":"","lat":26.274151,"lng":127.784245,"version":"14.0b/19.0a"},{"town":"字安里","koaza":"","lat":26.259955,"lng":127.787322,"version":"14.0b/19.0a"},{"town":"字久場","koaza":"","lat":26.283273,"lng":127.812565,"version":"14.0b/19.0a"},{"town":"字泊","koaza":"","lat":26.275334,"lng":127.809305,"version":"14.0b/19.0a"},{"town":"字登又","koaza":"","lat":26.282209,"lng":127.79011,"version":"14.0b/19.0a"},{"town":"字北上原","koaza":"","lat":26.267206,"lng":127.779384,"version":"14.0b/19.0a"},{"town":"字南上原","koaza":"","lat":26.250996,"lng":127.771295,"version":"14.0b/19.0a"},{"town":"字伊集","koaza":"","lat":26.240675,"lng":127.772555,"version":"14.0b/19.0a"}]