[{"town":"字屋宜原","koaza":"","lat":26.31292,"lng":127.789516,"version":"13.0b/18.0a"},{"town":"字比嘉","koaza":"","lat":26.314296,"lng":127.7971,"version":"13.0b/18.0a"},{"town":"字美崎","koaza":"","lat":26.30471,"lng":127.821937,"version":"13.0b/18.0a"},{"town":"字渡口","koaza":"","lat":26.307454,"lng":127.805036,"version":"13.0b/18.0a"},{"town":"字和仁屋","koaza":"","lat":26.299593,"lng":127.806309,"version":"13.0b/18.0a"},{"town":"字仲順","koaza":"","lat":26.304351,"lng":127.799565,"version":"13.0b/18.0a"},{"town":"字喜舎場","koaza":"","lat":26.303253,"lng":127.792088,"version":"13.0b/18.0a"},{"town":"字島袋","koaza":"","lat":26.319991,"lng":127.801114,"version":"13.0b/18.0a"},{"town":"字熱田","koaza":"","lat":26.292314,"lng":127.807247,"version":"13.0b/18.0a"},{"town":"字大城","koaza":"","lat":26.290114,"lng":127.800121,"version":"13.0b/18.0a"},{"town":"字荻道","koaza":"","lat":26.292846,"lng":127.79694,"version":"13.0b/18.0a"},{"town":"字瑞慶覧","koaza":"","lat":26.306015,"lng":127.781073,"version":"13.0b/18.0a"},{"town":"字安谷屋","koaza":"","lat":26.296118,"lng":127.787601,"version":"13.0b/18.0a"},{"town":"字屋宜原","koaza":"","lat":26.31292,"lng":127.789516,"version":"14.0b/19.0a"},{"town":"字比嘉","koaza":"","lat":26.316742,"lng":127.797894,"version":"14.0b/19.0a"},{"town":"字美崎","koaza":"","lat":26.30471,"lng":127.821937,"version":"14.0b/19.0a"},{"town":"字渡口","koaza":"","lat":26.307454,"lng":127.805036,"version":"14.0b/19.0a"},{"town":"字和仁屋","koaza":"","lat":26.299593,"lng":127.806309,"version":"14.0b/19.0a"},{"town":"字仲順","koaza":"","lat":26.304351,"lng":127.799565,"version":"14.0b/19.0a"},{"town":"字喜舎場","koaza":"","lat":26.303253,"lng":127.792088,"version":"14.0b/19.0a"},{"town":"字島袋","koaza":"","lat":26.319991,"lng":127.801114,"version":"14.0b/19.0a"},{"town":"字熱田","koaza":"","lat":26.292314,"lng":127.807247,"version":"14.0b/19.0a"},{"town":"字大城","koaza":"","lat":26.290114,"lng":127.800121,"version":"14.0b/19.0a"},{"town":"字荻道","koaza":"","lat":26.292846,"lng":127.79694,"version":"14.0b/19.0a"},{"town":"字瑞慶覧","koaza":"","lat":26.306015,"lng":127.781073,"version":"14.0b/19.0a"},{"town":"字安谷屋","koaza":"","lat":26.296118,"lng":127.787601,"version":"14.0b/19.0a"},{"town":"字ライカム","koaza":"","lat":26.312994,"lng":127.796248,"version":"14.0b/19.0a"}]