[{"town":"字運天","koaza":"","lat":26.687458,"lng":127.999249,"version":"13.0b/18.0a"},{"town":"字天底","koaza":"","lat":26.670799,"lng":127.982006,"version":"13.0b/18.0a"},{"town":"字上運天","koaza":"","lat":26.679944,"lng":127.994791,"version":"13.0b/18.0a"},{"town":"字玉城","koaza":"","lat":26.671032,"lng":127.970248,"version":"13.0b/18.0a"},{"town":"字謝名","koaza":"","lat":26.677117,"lng":127.962658,"version":"13.0b/18.0a"},{"town":"字仲尾次","koaza":"","lat":26.687214,"lng":127.950743,"version":"13.0b/18.0a"},{"town":"字今泊","koaza":"","lat":26.688035,"lng":127.927078,"version":"13.0b/18.0a"},{"town":"字兼次","koaza":"","lat":26.68386,"lng":127.938551,"version":"13.0b/18.0a"},{"town":"字湧川","koaza":"","lat":26.653025,"lng":127.981431,"version":"13.0b/18.0a"},{"town":"字呉我山","koaza":"","lat":26.652139,"lng":127.966167,"version":"13.0b/18.0a"},{"town":"字古宇利","koaza":"","lat":26.704348,"lng":128.018102,"version":"13.0b/18.0a"},{"town":"字勢理客","koaza":"","lat":26.678553,"lng":127.985227,"version":"13.0b/18.0a"},{"town":"字渡喜仁","koaza":"","lat":26.688807,"lng":127.984378,"version":"13.0b/18.0a"},{"town":"字崎山","koaza":"","lat":26.697634,"lng":127.960631,"version":"13.0b/18.0a"},{"town":"字平敷","koaza":"","lat":26.689848,"lng":127.96058,"version":"13.0b/18.0a"},{"town":"字仲宗根","koaza":"","lat":26.688716,"lng":127.975541,"version":"13.0b/18.0a"},{"town":"字越地","koaza":"","lat":26.691006,"lng":127.969611,"version":"13.0b/18.0a"},{"town":"字与那嶺","koaza":"","lat":26.689765,"lng":127.947015,"version":"13.0b/18.0a"},{"town":"字諸志","koaza":"","lat":26.688952,"lng":127.942081,"version":"13.0b/18.0a"},{"town":"字運天","koaza":"","lat":26.687458,"lng":127.999249,"version":"14.0b/19.0a"},{"town":"字天底","koaza":"","lat":26.670799,"lng":127.982006,"version":"14.0b/19.0a"},{"town":"字上運天","koaza":"","lat":26.679944,"lng":127.994791,"version":"14.0b/19.0a"},{"town":"字玉城","koaza":"","lat":26.671032,"lng":127.970248,"version":"14.0b/19.0a"},{"town":"字謝名","koaza":"","lat":26.677117,"lng":127.962658,"version":"14.0b/19.0a"},{"town":"字仲尾次","koaza":"","lat":26.687214,"lng":127.950743,"version":"14.0b/19.0a"},{"town":"字今泊","koaza":"","lat":26.688035,"lng":127.927078,"version":"14.0b/19.0a"},{"town":"字兼次","koaza":"","lat":26.68386,"lng":127.938551,"version":"14.0b/19.0a"},{"town":"字湧川","koaza":"","lat":26.653025,"lng":127.981431,"version":"14.0b/19.0a"},{"town":"字呉我山","koaza":"","lat":26.652139,"lng":127.966167,"version":"14.0b/19.0a"},{"town":"字古宇利","koaza":"","lat":26.704348,"lng":128.018102,"version":"14.0b/19.0a"},{"town":"字勢理客","koaza":"","lat":26.678553,"lng":127.985227,"version":"14.0b/19.0a"},{"town":"字渡喜仁","koaza":"","lat":26.688807,"lng":127.984378,"version":"14.0b/19.0a"},{"town":"字崎山","koaza":"","lat":26.697634,"lng":127.960631,"version":"14.0b/19.0a"},{"town":"字平敷","koaza":"","lat":26.689848,"lng":127.96058,"version":"14.0b/19.0a"},{"town":"字仲宗根","koaza":"","lat":26.688716,"lng":127.975541,"version":"14.0b/19.0a"},{"town":"字越地","koaza":"","lat":26.691006,"lng":127.969611,"version":"14.0b/19.0a"},{"town":"字与那嶺","koaza":"","lat":26.689765,"lng":127.947015,"version":"14.0b/19.0a"},{"town":"字諸志","koaza":"","lat":26.688952,"lng":127.942081,"version":"14.0b/19.0a"}]