[{"town":"字安波","koaza":"","lat":26.709047,"lng":128.264275,"version":"13.0b/18.0a"},{"town":"字与那","koaza":"","lat":26.755557,"lng":128.225375,"version":"13.0b/18.0a"},{"town":"字謝敷","koaza":"","lat":26.765771,"lng":128.235085,"version":"13.0b/18.0a"},{"town":"字安田","koaza":"","lat":26.756896,"lng":128.289824,"version":"13.0b/18.0a"},{"town":"字宇嘉","koaza":"","lat":26.820393,"lng":128.249388,"version":"13.0b/18.0a"},{"town":"字宇良","koaza":"","lat":26.743974,"lng":128.2036,"version":"13.0b/18.0a"},{"town":"字辺野喜","koaza":"","lat":26.788582,"lng":128.264731,"version":"13.0b/18.0a"},{"town":"字佐手","koaza":"","lat":26.778749,"lng":128.237541,"version":"13.0b/18.0a"},{"town":"字伊地","koaza":"","lat":26.748384,"lng":128.217328,"version":"13.0b/18.0a"},{"town":"字奥","koaza":"","lat":26.827621,"lng":128.28024,"version":"13.0b/18.0a"},{"town":"字楚洲","koaza":"","lat":26.803847,"lng":128.305314,"version":"13.0b/18.0a"},{"town":"字宜名真","koaza":"","lat":26.845449,"lng":128.259023,"version":"13.0b/18.0a"},{"town":"字桃原","koaza":"","lat":26.741505,"lng":128.159779,"version":"13.0b/18.0a"},{"town":"字半地","koaza":"","lat":26.724361,"lng":128.167413,"version":"13.0b/18.0a"},{"town":"字鏡地","koaza":"","lat":26.732249,"lng":128.16314,"version":"13.0b/18.0a"},{"town":"字辺土名","koaza":"","lat":26.732582,"lng":128.200744,"version":"13.0b/18.0a"},{"town":"字比地","koaza":"","lat":26.713569,"lng":128.197451,"version":"13.0b/18.0a"},{"town":"字奥間","koaza":"","lat":26.72219,"lng":128.206095,"version":"13.0b/18.0a"},{"town":"字浜","koaza":"","lat":26.707712,"lng":128.185479,"version":"13.0b/18.0a"},{"town":"字辺戸","koaza":"","lat":26.858017,"lng":128.265028,"version":"13.0b/18.0a"},{"town":"字安波","koaza":"","lat":26.709047,"lng":128.264275,"version":"14.0b/19.0a"},{"town":"字与那","koaza":"","lat":26.755557,"lng":128.225375,"version":"14.0b/19.0a"},{"town":"字謝敷","koaza":"","lat":26.765771,"lng":128.235085,"version":"14.0b/19.0a"},{"town":"字安田","koaza":"","lat":26.756896,"lng":128.289824,"version":"14.0b/19.0a"},{"town":"字宇嘉","koaza":"","lat":26.820393,"lng":128.249388,"version":"14.0b/19.0a"},{"town":"字宇良","koaza":"","lat":26.743974,"lng":128.2036,"version":"14.0b/19.0a"},{"town":"字辺野喜","koaza":"","lat":26.788582,"lng":128.264731,"version":"14.0b/19.0a"},{"town":"字佐手","koaza":"","lat":26.778749,"lng":128.237541,"version":"14.0b/19.0a"},{"town":"字伊地","koaza":"","lat":26.748384,"lng":128.217328,"version":"14.0b/19.0a"},{"town":"字奥","koaza":"","lat":26.827621,"lng":128.28024,"version":"14.0b/19.0a"},{"town":"字楚洲","koaza":"","lat":26.803847,"lng":128.305314,"version":"14.0b/19.0a"},{"town":"字宜名真","koaza":"","lat":26.845449,"lng":128.259023,"version":"14.0b/19.0a"},{"town":"字桃原","koaza":"","lat":26.741505,"lng":128.159779,"version":"14.0b/19.0a"},{"town":"字半地","koaza":"","lat":26.724361,"lng":128.167413,"version":"14.0b/19.0a"},{"town":"字鏡地","koaza":"","lat":26.732249,"lng":128.16314,"version":"14.0b/19.0a"},{"town":"字辺土名","koaza":"","lat":26.732582,"lng":128.200744,"version":"14.0b/19.0a"},{"town":"字比地","koaza":"","lat":26.713569,"lng":128.197451,"version":"14.0b/19.0a"},{"town":"字奥間","koaza":"","lat":26.72219,"lng":128.206095,"version":"14.0b/19.0a"},{"town":"字浜","koaza":"","lat":26.707712,"lng":128.185479,"version":"14.0b/19.0a"},{"town":"字辺戸","koaza":"","lat":26.858017,"lng":128.265028,"version":"14.0b/19.0a"}]