[{"town":"字真栄田","koaza":"","lat":26.430632,"lng":127.762751,"version":"13.0b/18.0a"},{"town":"字瀬良垣","koaza":"","lat":26.494988,"lng":127.873102,"version":"13.0b/18.0a"},{"town":"字恩納","koaza":"","lat":26.485385,"lng":127.858389,"version":"13.0b/18.0a"},{"town":"字山田","koaza":"","lat":26.428754,"lng":127.781438,"version":"13.0b/18.0a"},{"town":"字安富祖","koaza":"","lat":26.497743,"lng":127.890744,"version":"13.0b/18.0a"},{"town":"字名嘉真","koaza":"","lat":26.515275,"lng":127.924507,"version":"13.0b/18.0a"},{"town":"字喜瀬武原","koaza":"","lat":26.491938,"lng":127.90959,"version":"13.0b/18.0a"},{"town":"字谷茶","koaza":"","lat":26.464243,"lng":127.830718,"version":"13.0b/18.0a"},{"town":"字冨着","koaza":"","lat":26.454068,"lng":127.819568,"version":"13.0b/18.0a"},{"town":"字前兼久","koaza":"","lat":26.447528,"lng":127.807698,"version":"13.0b/18.0a"},{"town":"字仲泊","koaza":"","lat":26.434395,"lng":127.798825,"version":"13.0b/18.0a"},{"town":"字真栄田","koaza":"","lat":26.430632,"lng":127.762751,"version":"14.0b/19.0a"},{"town":"字瀬良垣","koaza":"","lat":26.494988,"lng":127.873102,"version":"14.0b/19.0a"},{"town":"字恩納","koaza":"","lat":26.485385,"lng":127.858389,"version":"14.0b/19.0a"},{"town":"字山田","koaza":"","lat":26.428754,"lng":127.781438,"version":"14.0b/19.0a"},{"town":"字安富祖","koaza":"","lat":26.497743,"lng":127.890744,"version":"14.0b/19.0a"},{"town":"字名嘉真","koaza":"","lat":26.515275,"lng":127.924507,"version":"14.0b/19.0a"},{"town":"字喜瀬武原","koaza":"","lat":26.491938,"lng":127.90959,"version":"14.0b/19.0a"},{"town":"字谷茶","koaza":"","lat":26.464243,"lng":127.830718,"version":"14.0b/19.0a"},{"town":"字冨着","koaza":"","lat":26.454068,"lng":127.819568,"version":"14.0b/19.0a"},{"town":"字前兼久","koaza":"","lat":26.447528,"lng":127.807698,"version":"14.0b/19.0a"},{"town":"字仲泊","koaza":"","lat":26.434395,"lng":127.798825,"version":"14.0b/19.0a"}]