[{"town":"藍場町一丁目","koaza":"","lat":34.073407,"lng":134.548083,"version":"13.0b/18.0a"},{"town":"藍場町二丁目","koaza":"","lat":34.074604,"lng":134.546918,"version":"13.0b/18.0a"},{"town":"秋田町一丁目","koaza":"","lat":34.06588,"lng":134.549536,"version":"13.0b/18.0a"},{"town":"秋田町二丁目","koaza":"","lat":34.064247,"lng":134.549739,"version":"13.0b/18.0a"},{"town":"秋田町三丁目","koaza":"","lat":34.062963,"lng":134.549342,"version":"13.0b/18.0a"},{"town":"秋田町四丁目","koaza":"","lat":34.061556,"lng":134.549272,"version":"13.0b/18.0a"},{"town":"秋田町五丁目","koaza":"","lat":34.059945,"lng":134.549161,"version":"13.0b/18.0a"},{"town":"秋田町六丁目","koaza":"","lat":34.058606,"lng":134.549099,"version":"13.0b/18.0a"},{"town":"鮎喰町一丁目","koaza":"","lat":34.072534,"lng":134.503629,"version":"13.0b/18.0a"},{"town":"鮎喰町二丁目","koaza":"","lat":34.072533,"lng":134.500579,"version":"13.0b/18.0a"},{"town":"安宅一丁目","koaza":"","lat":34.070565,"lng":134.571522,"version":"13.0b/18.0a"},{"town":"安宅二丁目","koaza":"","lat":34.070649,"lng":134.57533,"version":"13.0b/18.0a"},{"town":"安宅三丁目","koaza":"","lat":34.069668,"lng":134.578881,"version":"13.0b/18.0a"},{"town":"飯谷町","koaza":"","lat":33.973595,"lng":134.551232,"version":"13.0b/18.0a"},{"town":"伊賀町一丁目","koaza":"","lat":34.06649,"lng":134.544631,"version":"13.0b/18.0a"},{"town":"伊賀町二丁目","koaza":"","lat":34.064678,"lng":134.544501,"version":"13.0b/18.0a"},{"town":"伊賀町三丁目","koaza":"","lat":34.063149,"lng":134.544225,"version":"13.0b/18.0a"},{"town":"伊賀町四丁目","koaza":"","lat":34.06202,"lng":134.544435,"version":"13.0b/18.0a"},{"town":"一宮町","koaza":"","lat":34.029041,"lng":134.470661,"version":"13.0b/18.0a"},{"town":"一番町一丁目","koaza":"","lat":34.072065,"lng":134.55333,"version":"13.0b/18.0a"},{"town":"一番町二丁目","koaza":"","lat":34.072452,"lng":134.552237,"version":"13.0b/18.0a"},{"town":"一番町三丁目","koaza":"","lat":34.072937,"lng":134.551306,"version":"13.0b/18.0a"},{"town":"伊月町一丁目","koaza":"","lat":34.065464,"lng":134.551552,"version":"13.0b/18.0a"},{"town":"伊月町二丁目","koaza":"","lat":34.064245,"lng":134.551071,"version":"13.0b/18.0a"},{"town":"伊月町三丁目","koaza":"","lat":34.062682,"lng":134.550088,"version":"13.0b/18.0a"},{"town":"伊月町四丁目","koaza":"","lat":34.06132,"lng":134.550014,"version":"13.0b/18.0a"},{"town":"伊月町五丁目","koaza":"","lat":34.059829,"lng":134.549786,"version":"13.0b/18.0a"},{"town":"伊月町六丁目","koaza":"","lat":34.05872,"lng":134.549781,"version":"13.0b/18.0a"},{"town":"応神町応神産業団地","koaza":"","lat":34.122362,"lng":134.523069,"version":"13.0b/18.0a"},{"town":"応神町中原","koaza":"","lat":34.108295,"lng":134.535315,"version":"13.0b/18.0a"},{"town":"応神町西貞方","koaza":"","lat":34.115518,"lng":134.509651,"version":"13.0b/18.0a"},{"town":"応神町東貞方","koaza":"","lat":34.113959,"lng":134.518757,"version":"13.0b/18.0a"},{"town":"応神町古川","koaza":"","lat":34.103249,"lng":134.549209,"version":"13.0b/18.0a"},{"town":"応神町吉成","koaza":"","lat":34.114119,"lng":134.530526,"version":"13.0b/18.0a"},{"town":"大谷町","koaza":"","lat":34.032825,"lng":134.533428,"version":"13.0b/18.0a"},{"town":"大原町","koaza":"","lat":34.027678,"lng":134.576657,"version":"13.0b/18.0a"},{"town":"大松町","koaza":"","lat":34.026142,"lng":134.555503,"version":"13.0b/18.0a"},{"town":"大道一丁目","koaza":"","lat":34.066157,"lng":134.547374,"version":"13.0b/18.0a"},{"town":"大道二丁目","koaza":"","lat":34.064642,"lng":134.547248,"version":"13.0b/18.0a"},{"town":"大道三丁目","koaza":"","lat":34.063023,"lng":134.547249,"version":"13.0b/18.0a"},{"town":"大道四丁目","koaza":"","lat":34.06168,"lng":134.547218,"version":"13.0b/18.0a"},{"town":"沖浜一丁目","koaza":"","lat":34.054986,"lng":134.553132,"version":"13.0b/18.0a"},{"town":"沖浜二丁目","koaza":"","lat":34.053034,"lng":134.552153,"version":"13.0b/18.0a"},{"town":"沖浜三丁目","koaza":"","lat":34.050414,"lng":134.551156,"version":"13.0b/18.0a"},{"town":"沖浜町","koaza":"","lat":34.053244,"lng":134.549406,"version":"13.0b/18.0a"},{"town":"沖浜東一丁目","koaza":"","lat":34.054473,"lng":134.554984,"version":"13.0b/18.0a"},{"town":"沖浜東二丁目","koaza":"","lat":34.052382,"lng":134.554529,"version":"13.0b/18.0a"},{"town":"沖浜東三丁目","koaza":"","lat":34.050379,"lng":134.553806,"version":"13.0b/18.0a"},{"town":"籠屋町一丁目","koaza":"","lat":34.068791,"lng":134.548157,"version":"13.0b/18.0a"},{"town":"籠屋町二丁目","koaza":"","lat":34.067835,"lng":134.547987,"version":"13.0b/18.0a"},{"town":"春日一丁目","koaza":"","lat":34.093815,"lng":134.535301,"version":"13.0b/18.0a"},{"town":"春日二丁目","koaza":"","lat":34.092941,"lng":134.528822,"version":"13.0b/18.0a"},{"town":"春日三丁目","koaza":"","lat":34.09185,"lng":134.525445,"version":"13.0b/18.0a"},{"town":"春日町","koaza":"","lat":34.099467,"lng":134.535684,"version":"13.0b/18.0a"},{"town":"方上町","koaza":"","lat":34.018722,"lng":134.530676,"version":"13.0b/18.0a"},{"town":"かちどき橋一丁目","koaza":"","lat":34.06535,"lng":134.556761,"version":"13.0b/18.0a"},{"town":"かちどき橋二丁目","koaza":"","lat":34.062808,"lng":134.55574,"version":"13.0b/18.0a"},{"town":"かちどき橋三丁目","koaza":"","lat":34.060984,"lng":134.554746,"version":"13.0b/18.0a"},{"town":"かちどき橋四丁目","koaza":"","lat":34.059722,"lng":134.554215,"version":"13.0b/18.0a"},{"town":"かちどき橋五丁目","koaza":"","lat":34.058741,"lng":134.553908,"version":"13.0b/18.0a"},{"town":"かちどき橋六丁目","koaza":"","lat":34.057462,"lng":134.553612,"version":"13.0b/18.0a"},{"town":"勝占町","koaza":"","lat":34.018971,"lng":134.549956,"version":"13.0b/18.0a"},{"town":"金沢一丁目","koaza":"","lat":34.078461,"lng":134.583015,"version":"13.0b/18.0a"},{"town":"金沢二丁目","koaza":"","lat":34.077046,"lng":134.587536,"version":"13.0b/18.0a"},{"town":"上八万町","koaza":"","lat":34.033361,"lng":134.506754,"version":"13.0b/18.0a"},{"town":"上吉野町一丁目","koaza":"","lat":34.088734,"lng":134.5617,"version":"13.0b/18.0a"},{"town":"上吉野町二丁目","koaza":"","lat":34.089723,"lng":134.559829,"version":"13.0b/18.0a"},{"town":"上吉野町三丁目","koaza":"","lat":34.090744,"lng":134.556474,"version":"13.0b/18.0a"},{"town":"加茂名町","koaza":"","lat":34.058538,"lng":134.507412,"version":"13.0b/18.0a"},{"town":"川内町","koaza":"","lat":34.106079,"lng":134.57436,"version":"13.0b/18.0a"},{"town":"北沖洲一丁目","koaza":"","lat":34.070624,"lng":134.583076,"version":"13.0b/18.0a"},{"town":"北沖洲二丁目","koaza":"","lat":34.073826,"lng":134.591007,"version":"13.0b/18.0a"},{"town":"北沖洲三丁目","koaza":"","lat":34.068389,"lng":134.589798,"version":"13.0b/18.0a"},{"town":"北佐古一番町","koaza":"","lat":34.081792,"lng":134.539392,"version":"13.0b/18.0a"},{"town":"北佐古二番町","koaza":"","lat":34.082845,"lng":134.535894,"version":"13.0b/18.0a"},{"town":"北島田町一丁目","koaza":"","lat":34.087473,"lng":134.515713,"version":"13.0b/18.0a"},{"town":"北島田町二丁目","koaza":"","lat":34.085757,"lng":134.513046,"version":"13.0b/18.0a"},{"town":"北島田町三丁目","koaza":"","lat":34.089053,"lng":134.511653,"version":"13.0b/18.0a"},{"town":"北常三島町一丁目","koaza":"","lat":34.081152,"lng":134.561069,"version":"13.0b/18.0a"},{"town":"北常三島町二丁目","koaza":"","lat":34.081562,"lng":134.562719,"version":"13.0b/18.0a"},{"town":"北常三島町三丁目","koaza":"","lat":34.08138,"lng":134.565825,"version":"13.0b/18.0a"},{"town":"北田宮二丁目","koaza":"","lat":34.091273,"lng":134.54188,"version":"13.0b/18.0a"},{"town":"北田宮三丁目","koaza":"","lat":34.089315,"lng":134.536918,"version":"13.0b/18.0a"},{"town":"北田宮四丁目","koaza":"","lat":34.088826,"lng":134.531675,"version":"13.0b/18.0a"},{"town":"北出来島町一丁目","koaza":"","lat":34.078575,"lng":134.547647,"version":"13.0b/18.0a"},{"town":"北出来島町二丁目","koaza":"","lat":34.079506,"lng":134.546021,"version":"13.0b/18.0a"},{"town":"北前川町一丁目","koaza":"","lat":34.080426,"lng":134.555766,"version":"13.0b/18.0a"},{"town":"北前川町二丁目","koaza":"","lat":34.080517,"lng":134.554853,"version":"13.0b/18.0a"},{"town":"北前川町三丁目","koaza":"","lat":34.081067,"lng":134.552903,"version":"13.0b/18.0a"},{"town":"北前川町四丁目","koaza":"","lat":34.081455,"lng":134.550082,"version":"13.0b/18.0a"},{"town":"北前川町五丁目","koaza":"","lat":34.081891,"lng":134.548762,"version":"13.0b/18.0a"},{"town":"北矢三町一丁目","koaza":"","lat":34.087612,"lng":134.527534,"version":"13.0b/18.0a"},{"town":"北矢三町二丁目","koaza":"","lat":34.089093,"lng":134.523714,"version":"13.0b/18.0a"},{"town":"北矢三町三丁目","koaza":"","lat":34.088492,"lng":134.520906,"version":"13.0b/18.0a"},{"town":"北矢三町四丁目","koaza":"","lat":34.087214,"lng":134.518233,"version":"13.0b/18.0a"},{"town":"北山町","koaza":"","lat":34.026984,"lng":134.533686,"version":"13.0b/18.0a"},{"town":"銀座","koaza":"","lat":34.068476,"lng":134.549255,"version":"13.0b/18.0a"},{"town":"蔵本町一丁目","koaza":"","lat":34.077262,"lng":134.519947,"version":"13.0b/18.0a"},{"town":"蔵本町二丁目","koaza":"","lat":34.076377,"lng":134.517683,"version":"13.0b/18.0a"},{"town":"蔵本町三丁目","koaza":"","lat":34.078066,"lng":134.516565,"version":"13.0b/18.0a"},{"town":"蔵本元町一丁目","koaza":"","lat":34.078747,"lng":134.519835,"version":"13.0b/18.0a"},{"town":"蔵本元町二丁目","koaza":"","lat":34.08009,"lng":134.518462,"version":"13.0b/18.0a"},{"town":"蔵本元町三丁目","koaza":"","lat":34.081813,"lng":134.518761,"version":"13.0b/18.0a"},{"town":"国府町池尻","koaza":"","lat":34.078615,"lng":134.470808,"version":"13.0b/18.0a"},{"town":"国府町井戸","koaza":"","lat":34.083273,"lng":134.484761,"version":"13.0b/18.0a"},{"town":"国府町延命","koaza":"","lat":34.049181,"lng":134.481075,"version":"13.0b/18.0a"},{"town":"国府町川原田","koaza":"","lat":34.090992,"lng":134.472214,"version":"13.0b/18.0a"},{"town":"国府町観音寺","koaza":"","lat":34.069936,"lng":134.472055,"version":"13.0b/18.0a"},{"town":"国府町北岩延","koaza":"","lat":34.084461,"lng":134.492529,"version":"13.0b/18.0a"},{"town":"国府町府中","koaza":"","lat":34.073489,"lng":134.480068,"version":"13.0b/18.0a"},{"town":"国府町桜間","koaza":"","lat":34.083199,"lng":134.465958,"version":"13.0b/18.0a"},{"town":"国府町佐野塚","koaza":"","lat":34.106666,"lng":134.463405,"version":"13.0b/18.0a"},{"town":"国府町敷地","koaza":"","lat":34.075793,"lng":134.466976,"version":"13.0b/18.0a"},{"town":"国府町芝原","koaza":"","lat":34.093154,"lng":134.46304,"version":"13.0b/18.0a"},{"town":"国府町中","koaza":"","lat":34.061892,"lng":134.479174,"version":"13.0b/18.0a"},{"town":"国府町西黒田","koaza":"","lat":34.104038,"lng":134.468679,"version":"13.0b/18.0a"},{"town":"国府町西高輪","koaza":"","lat":34.090434,"lng":134.478169,"version":"13.0b/18.0a"},{"town":"国府町西矢野","koaza":"","lat":34.053284,"lng":134.46982,"version":"13.0b/18.0a"},{"town":"国府町花園","koaza":"","lat":34.092693,"lng":134.486348,"version":"13.0b/18.0a"},{"town":"国府町早淵","koaza":"","lat":34.062182,"lng":134.485669,"version":"13.0b/18.0a"},{"town":"国府町日開","koaza":"","lat":34.082153,"lng":134.476552,"version":"13.0b/18.0a"},{"town":"国府町東黒田","koaza":"","lat":34.103923,"lng":134.480223,"version":"13.0b/18.0a"},{"town":"国府町東高輪","koaza":"","lat":34.092864,"lng":134.48091,"version":"13.0b/18.0a"},{"town":"国府町南岩延","koaza":"","lat":34.079205,"lng":134.497096,"version":"13.0b/18.0a"},{"town":"国府町矢野","koaza":"","lat":34.060551,"lng":134.473426,"version":"13.0b/18.0a"},{"town":"国府町竜王","koaza":"","lat":34.093164,"lng":134.454437,"version":"13.0b/18.0a"},{"town":"国府町和田","koaza":"","lat":34.073631,"lng":134.490211,"version":"13.0b/18.0a"},{"town":"紺屋町","koaza":"","lat":34.067119,"lng":134.548716,"version":"13.0b/18.0a"},{"town":"雑賀町","koaza":"","lat":34.036384,"lng":134.557319,"version":"13.0b/18.0a"},{"town":"幸町一丁目","koaza":"","lat":34.071485,"lng":134.554704,"version":"13.0b/18.0a"},{"town":"幸町二丁目","koaza":"","lat":34.070168,"lng":134.554799,"version":"13.0b/18.0a"},{"town":"幸町三丁目","koaza":"","lat":34.068384,"lng":134.554865,"version":"13.0b/18.0a"},{"town":"栄町一丁目","koaza":"","lat":34.065868,"lng":134.548774,"version":"13.0b/18.0a"},{"town":"栄町二丁目","koaza":"","lat":34.064303,"lng":134.548724,"version":"13.0b/18.0a"},{"town":"栄町三丁目","koaza":"","lat":34.063056,"lng":134.548657,"version":"13.0b/18.0a"},{"town":"栄町四丁目","koaza":"","lat":34.061611,"lng":134.548566,"version":"13.0b/18.0a"},{"town":"栄町五丁目","koaza":"","lat":34.060232,"lng":134.548516,"version":"13.0b/18.0a"},{"town":"栄町六丁目","koaza":"","lat":34.058774,"lng":134.54843,"version":"13.0b/18.0a"},{"town":"佐古一番町","koaza":"","lat":34.07789,"lng":134.541324,"version":"13.0b/18.0a"},{"town":"佐古二番町","koaza":"","lat":34.078435,"lng":134.538503,"version":"13.0b/18.0a"},{"town":"佐古三番町","koaza":"","lat":34.078658,"lng":134.535981,"version":"13.0b/18.0a"},{"town":"佐古四番町","koaza":"","lat":34.078794,"lng":134.53344,"version":"13.0b/18.0a"},{"town":"佐古五番町","koaza":"","lat":34.078881,"lng":134.530965,"version":"13.0b/18.0a"},{"town":"佐古六番町","koaza":"","lat":34.078277,"lng":134.527334,"version":"13.0b/18.0a"},{"town":"佐古七番町","koaza":"","lat":34.078066,"lng":134.524224,"version":"13.0b/18.0a"},{"town":"佐古八番町","koaza":"","lat":34.077777,"lng":134.521891,"version":"13.0b/18.0a"},{"town":"佐古山町","koaza":"","lat":34.070256,"lng":134.523048,"version":"13.0b/18.0a"},{"town":"三軒屋町","koaza":"","lat":34.034571,"lng":134.548027,"version":"13.0b/18.0a"},{"town":"渋野町","koaza":"","lat":34.007617,"lng":134.52501,"version":"13.0b/18.0a"},{"town":"下助任町一丁目","koaza":"","lat":34.081371,"lng":134.557339,"version":"13.0b/18.0a"},{"town":"下助任町二丁目","koaza":"","lat":34.082206,"lng":134.555723,"version":"13.0b/18.0a"},{"town":"下助任町三丁目","koaza":"","lat":34.082212,"lng":134.55344,"version":"13.0b/18.0a"},{"town":"下助任町四丁目","koaza":"","lat":34.083209,"lng":134.550482,"version":"13.0b/18.0a"},{"town":"下助任町五丁目","koaza":"","lat":34.08287,"lng":134.54903,"version":"13.0b/18.0a"},{"town":"下町","koaza":"","lat":34.031425,"lng":134.48427,"version":"13.0b/18.0a"},{"town":"城東町一丁目","koaza":"","lat":34.074611,"lng":134.573574,"version":"13.0b/18.0a"},{"town":"城東町二丁目","koaza":"","lat":34.073713,"lng":134.57662,"version":"13.0b/18.0a"},{"town":"城南町一丁目","koaza":"","lat":34.056591,"lng":134.539827,"version":"13.0b/18.0a"},{"town":"城南町二丁目","koaza":"","lat":34.054987,"lng":134.541308,"version":"13.0b/18.0a"},{"town":"城南町三丁目","koaza":"","lat":34.053798,"lng":134.539101,"version":"13.0b/18.0a"},{"town":"城南町四丁目","koaza":"","lat":34.052378,"lng":134.540864,"version":"13.0b/18.0a"},{"town":"庄町一丁目","koaza":"","lat":34.075593,"lng":134.514487,"version":"13.0b/18.0a"},{"town":"庄町二丁目","koaza":"","lat":34.076427,"lng":134.511819,"version":"13.0b/18.0a"},{"town":"庄町三丁目","koaza":"","lat":34.075486,"lng":134.510408,"version":"13.0b/18.0a"},{"town":"庄町四丁目","koaza":"","lat":34.075149,"lng":134.508302,"version":"13.0b/18.0a"},{"town":"庄町五丁目","koaza":"","lat":34.074546,"lng":134.505725,"version":"13.0b/18.0a"},{"town":"丈六町","koaza":"","lat":34.008359,"lng":134.5494,"version":"13.0b/18.0a"},{"town":"昭和町一丁目","koaza":"","lat":34.064492,"lng":134.557767,"version":"13.0b/18.0a"},{"town":"昭和町二丁目","koaza":"","lat":34.064223,"lng":134.559152,"version":"13.0b/18.0a"},{"town":"昭和町三丁目","koaza":"","lat":34.063503,"lng":134.560566,"version":"13.0b/18.0a"},{"town":"昭和町四丁目","koaza":"","lat":34.062744,"lng":134.56203,"version":"13.0b/18.0a"},{"town":"昭和町五丁目","koaza":"","lat":34.061319,"lng":134.56343,"version":"13.0b/18.0a"},{"town":"昭和町六丁目","koaza":"","lat":34.059357,"lng":134.565383,"version":"13.0b/18.0a"},{"town":"昭和町七丁目","koaza":"","lat":34.058683,"lng":134.567631,"version":"13.0b/18.0a"},{"town":"昭和町八丁目","koaza":"","lat":34.057123,"lng":134.572554,"version":"13.0b/18.0a"},{"town":"新内町一丁目","koaza":"","lat":34.069755,"lng":134.552791,"version":"13.0b/18.0a"},{"town":"新内町二丁目","koaza":"","lat":34.070367,"lng":134.55092,"version":"13.0b/18.0a"},{"town":"新蔵町一丁目","koaza":"","lat":34.070208,"lng":134.55795,"version":"13.0b/18.0a"},{"town":"新蔵町二丁目","koaza":"","lat":34.070088,"lng":134.559834,"version":"13.0b/18.0a"},{"town":"新蔵町三丁目","koaza":"","lat":34.069866,"lng":134.561506,"version":"13.0b/18.0a"},{"town":"新浜町一丁目","koaza":"","lat":34.051736,"lng":134.570302,"version":"13.0b/18.0a"},{"town":"新浜町二丁目","koaza":"","lat":34.049875,"lng":134.568398,"version":"13.0b/18.0a"},{"town":"新浜町三丁目","koaza":"","lat":34.048028,"lng":134.56723,"version":"13.0b/18.0a"},{"town":"新浜町四丁目","koaza":"","lat":34.051047,"lng":134.565834,"version":"13.0b/18.0a"},{"town":"新浜本町一丁目","koaza":"","lat":34.043999,"lng":134.572639,"version":"13.0b/18.0a"},{"town":"新浜本町二丁目","koaza":"","lat":34.04347,"lng":134.568054,"version":"13.0b/18.0a"},{"town":"新浜本町三丁目","koaza":"","lat":34.046519,"lng":134.566181,"version":"13.0b/18.0a"},{"town":"新浜本町四丁目","koaza":"","lat":34.047324,"lng":134.570722,"version":"13.0b/18.0a"},{"town":"新町橋一丁目","koaza":"","lat":34.071047,"lng":134.547433,"version":"13.0b/18.0a"},{"town":"新町橋二丁目","koaza":"","lat":34.070233,"lng":134.545677,"version":"13.0b/18.0a"},{"town":"新南福島一丁目","koaza":"","lat":34.067043,"lng":134.565161,"version":"13.0b/18.0a"},{"town":"新南福島二丁目","koaza":"","lat":34.067203,"lng":134.567822,"version":"13.0b/18.0a"},{"town":"末広一丁目","koaza":"","lat":34.064176,"lng":134.569115,"version":"13.0b/18.0a"},{"town":"末広二丁目","koaza":"","lat":34.06499,"lng":134.573685,"version":"13.0b/18.0a"},{"town":"末広三丁目","koaza":"","lat":34.067141,"lng":134.575932,"version":"13.0b/18.0a"},{"town":"末広四丁目","koaza":"","lat":34.065849,"lng":134.579558,"version":"13.0b/18.0a"},{"town":"末広五丁目","koaza":"","lat":34.063677,"lng":134.577647,"version":"13.0b/18.0a"},{"town":"助任橋一丁目","koaza":"","lat":34.077164,"lng":134.558121,"version":"13.0b/18.0a"},{"town":"助任橋二丁目","koaza":"","lat":34.07865,"lng":134.55788,"version":"13.0b/18.0a"},{"town":"助任橋三丁目","koaza":"","lat":34.080289,"lng":134.559269,"version":"13.0b/18.0a"},{"town":"助任橋四丁目","koaza":"","lat":34.081513,"lng":134.560116,"version":"13.0b/18.0a"},{"town":"助任本町一丁目","koaza":"","lat":34.07751,"lng":134.556552,"version":"13.0b/18.0a"},{"town":"助任本町二丁目","koaza":"","lat":34.079056,"lng":134.557467,"version":"13.0b/18.0a"},{"town":"助任本町三丁目","koaza":"","lat":34.080289,"lng":134.558127,"version":"13.0b/18.0a"},{"town":"助任本町四丁目","koaza":"","lat":34.081697,"lng":134.558969,"version":"13.0b/18.0a"},{"town":"助任本町五丁目","koaza":"","lat":34.082929,"lng":134.559808,"version":"13.0b/18.0a"},{"town":"助任本町六丁目","koaza":"","lat":34.084588,"lng":134.559829,"version":"13.0b/18.0a"},{"town":"助任本町七丁目","koaza":"","lat":34.08827,"lng":134.563048,"version":"13.0b/18.0a"},{"town":"住吉一丁目","koaza":"","lat":34.074291,"lng":134.564826,"version":"13.0b/18.0a"},{"town":"住吉二丁目","koaza":"","lat":34.076729,"lng":134.56733,"version":"13.0b/18.0a"},{"town":"住吉三丁目","koaza":"","lat":34.075204,"lng":134.570352,"version":"13.0b/18.0a"},{"town":"住吉四丁目","koaza":"","lat":34.083379,"lng":134.571983,"version":"13.0b/18.0a"},{"town":"住吉五丁目","koaza":"","lat":34.081624,"lng":134.575612,"version":"13.0b/18.0a"},{"town":"住吉六丁目","koaza":"","lat":34.080534,"lng":134.579077,"version":"13.0b/18.0a"},{"town":"勢見町一丁目","koaza":"","lat":34.060628,"lng":134.546502,"version":"13.0b/18.0a"},{"town":"勢見町二丁目","koaza":"","lat":34.060422,"lng":134.544419,"version":"13.0b/18.0a"},{"town":"鷹匠町一丁目","koaza":"","lat":34.065921,"lng":134.548067,"version":"13.0b/18.0a"},{"town":"鷹匠町二丁目","koaza":"","lat":34.064325,"lng":134.548037,"version":"13.0b/18.0a"},{"town":"鷹匠町三丁目","koaza":"","lat":34.063025,"lng":134.548043,"version":"13.0b/18.0a"},{"town":"鷹匠町四丁目","koaza":"","lat":34.061692,"lng":134.547967,"version":"13.0b/18.0a"},{"town":"鷹匠町五丁目","koaza":"","lat":34.060083,"lng":134.54791,"version":"13.0b/18.0a"},{"town":"鷹匠町六丁目","koaza":"","lat":34.05891,"lng":134.547912,"version":"13.0b/18.0a"},{"town":"多家良町","koaza":"","lat":33.982638,"lng":134.532583,"version":"13.0b/18.0a"},{"town":"中央通一丁目","koaza":"","lat":34.063529,"lng":134.550228,"version":"13.0b/18.0a"},{"town":"中央通二丁目","koaza":"","lat":34.06315,"lng":134.551512,"version":"13.0b/18.0a"},{"town":"中央通三丁目","koaza":"","lat":34.062258,"lng":134.553475,"version":"13.0b/18.0a"},{"town":"中央通四丁目","koaza":"","lat":34.061924,"lng":134.555115,"version":"13.0b/18.0a"},{"town":"津田海岸町","koaza":"","lat":34.046618,"lng":134.58684,"version":"13.0b/18.0a"},{"town":"津田町一丁目","koaza":"","lat":34.052197,"lng":134.582274,"version":"13.0b/18.0a"},{"town":"津田町二丁目","koaza":"","lat":34.048861,"lng":134.581849,"version":"13.0b/18.0a"},{"town":"津田町三丁目","koaza":"","lat":34.046984,"lng":134.581091,"version":"13.0b/18.0a"},{"town":"津田町四丁目","koaza":"","lat":34.043621,"lng":134.580089,"version":"13.0b/18.0a"},{"town":"津田西町一丁目","koaza":"","lat":34.051368,"lng":134.575755,"version":"13.0b/18.0a"},{"town":"津田西町二丁目","koaza":"","lat":34.048255,"lng":134.574695,"version":"13.0b/18.0a"},{"town":"津田浜之町","koaza":"","lat":34.051246,"lng":134.573095,"version":"13.0b/18.0a"},{"town":"津田本町一丁目","koaza":"","lat":34.052462,"lng":134.578818,"version":"13.0b/18.0a"},{"town":"津田本町二丁目","koaza":"","lat":34.049806,"lng":134.578384,"version":"13.0b/18.0a"},{"town":"津田本町三丁目","koaza":"","lat":34.047961,"lng":134.577625,"version":"13.0b/18.0a"},{"town":"津田本町四丁目","koaza":"","lat":34.04607,"lng":134.576212,"version":"13.0b/18.0a"},{"town":"津田本町五丁目","koaza":"","lat":34.043487,"lng":134.576849,"version":"13.0b/18.0a"},{"town":"出来島本町一丁目","koaza":"","lat":34.077556,"lng":134.54658,"version":"13.0b/18.0a"},{"town":"出来島本町二丁目","koaza":"","lat":34.078345,"lng":134.545199,"version":"13.0b/18.0a"},{"town":"出来島本町三丁目","koaza":"","lat":34.079511,"lng":134.544423,"version":"13.0b/18.0a"},{"town":"出来島本町四丁目","koaza":"","lat":34.079112,"lng":134.543336,"version":"13.0b/18.0a"},{"town":"寺島本町西一丁目","koaza":"","lat":34.07431,"lng":134.549645,"version":"13.0b/18.0a"},{"town":"寺島本町西二丁目","koaza":"","lat":34.075534,"lng":134.54748,"version":"13.0b/18.0a"},{"town":"寺島本町東一丁目","koaza":"","lat":34.072726,"lng":134.554008,"version":"13.0b/18.0a"},{"town":"寺島本町東二丁目","koaza":"","lat":34.073164,"lng":134.552869,"version":"13.0b/18.0a"},{"town":"寺島本町東三丁目","koaza":"","lat":34.07382,"lng":134.551706,"version":"13.0b/18.0a"},{"town":"寺町","koaza":"","lat":34.071766,"lng":134.544472,"version":"13.0b/18.0a"},{"town":"問屋町","koaza":"","lat":34.048634,"lng":134.548274,"version":"13.0b/18.0a"},{"town":"通町一丁目","koaza":"","lat":34.070931,"lng":134.553238,"version":"13.0b/18.0a"},{"town":"通町二丁目","koaza":"","lat":34.071381,"lng":134.551422,"version":"13.0b/18.0a"},{"town":"通町三丁目","koaza":"","lat":34.071834,"lng":134.550275,"version":"13.0b/18.0a"},{"town":"徳島町一丁目","koaza":"","lat":34.071059,"lng":134.557341,"version":"13.0b/18.0a"},{"town":"徳島町二丁目","koaza":"","lat":34.073167,"lng":134.557671,"version":"13.0b/18.0a"},{"town":"徳島町三丁目","koaza":"","lat":34.075868,"lng":134.557798,"version":"13.0b/18.0a"},{"town":"徳島町城内","koaza":"","lat":34.073662,"lng":134.555244,"version":"13.0b/18.0a"},{"town":"徳島本町一丁目","koaza":"","lat":34.071781,"lng":134.557456,"version":"13.0b/18.0a"},{"town":"徳島本町二丁目","koaza":"","lat":34.071675,"lng":134.559235,"version":"13.0b/18.0a"},{"town":"徳島本町三丁目","koaza":"","lat":34.071502,"lng":134.561404,"version":"13.0b/18.0a"},{"town":"富田橋一丁目","koaza":"","lat":34.065705,"lng":134.553433,"version":"13.0b/18.0a"},{"town":"富田橋二丁目","koaza":"","lat":34.063712,"lng":134.552693,"version":"13.0b/18.0a"},{"town":"富田橋三丁目","koaza":"","lat":34.061923,"lng":134.55141,"version":"13.0b/18.0a"},{"town":"富田橋四丁目","koaza":"","lat":34.060718,"lng":134.55138,"version":"13.0b/18.0a"},{"town":"富田橋五丁目","koaza":"","lat":34.059796,"lng":134.550979,"version":"13.0b/18.0a"},{"town":"富田橋六丁目","koaza":"","lat":34.058822,"lng":134.550643,"version":"13.0b/18.0a"},{"town":"富田橋七丁目","koaza":"","lat":34.05796,"lng":134.548929,"version":"13.0b/18.0a"},{"town":"富田橋八丁目","koaza":"","lat":34.056446,"lng":134.548136,"version":"13.0b/18.0a"},{"town":"富田浜一丁目","koaza":"","lat":34.067873,"lng":134.551327,"version":"13.0b/18.0a"},{"town":"富田浜二丁目","koaza":"","lat":34.067231,"lng":134.552937,"version":"13.0b/18.0a"},{"town":"富田浜三丁目","koaza":"","lat":34.066889,"lng":134.554815,"version":"13.0b/18.0a"},{"town":"富田浜四丁目","koaza":"","lat":34.066662,"lng":134.555876,"version":"13.0b/18.0a"},{"town":"富田町一丁目","koaza":"","lat":34.068144,"lng":134.549219,"version":"13.0b/18.0a"},{"town":"富田町二丁目","koaza":"","lat":34.067727,"lng":134.5489,"version":"13.0b/18.0a"},{"town":"中島田町一丁目","koaza":"","lat":34.081871,"lng":134.515964,"version":"13.0b/18.0a"},{"town":"中島田町二丁目","koaza":"","lat":34.083281,"lng":134.513835,"version":"13.0b/18.0a"},{"town":"中島田町三丁目","koaza":"","lat":34.083701,"lng":134.510692,"version":"13.0b/18.0a"},{"town":"中島田町四丁目","koaza":"","lat":34.085121,"lng":134.506568,"version":"13.0b/18.0a"},{"town":"中常三島町一丁目","koaza":"","lat":34.079597,"lng":134.560223,"version":"13.0b/18.0a"},{"town":"中常三島町二丁目","koaza":"","lat":34.079673,"lng":134.56261,"version":"13.0b/18.0a"},{"town":"中常三島町三丁目","koaza":"","lat":34.079103,"lng":134.565208,"version":"13.0b/18.0a"},{"town":"中昭和町一丁目","koaza":"","lat":34.06211,"lng":134.557017,"version":"13.0b/18.0a"},{"town":"中昭和町二丁目","koaza":"","lat":34.061551,"lng":134.558031,"version":"13.0b/18.0a"},{"town":"中昭和町三丁目","koaza":"","lat":34.060647,"lng":134.559071,"version":"13.0b/18.0a"},{"town":"中昭和町四丁目","koaza":"","lat":34.06092,"lng":134.561142,"version":"13.0b/18.0a"},{"town":"中昭和町五丁目","koaza":"","lat":34.059967,"lng":134.563322,"version":"13.0b/18.0a"},{"town":"中洲町一丁目","koaza":"","lat":34.068114,"lng":134.55761,"version":"13.0b/18.0a"},{"town":"中洲町二丁目","koaza":"","lat":34.067857,"lng":134.559525,"version":"13.0b/18.0a"},{"town":"中洲町三丁目","koaza":"","lat":34.067648,"lng":134.561771,"version":"13.0b/18.0a"},{"town":"中通町一丁目","koaza":"","lat":34.07031,"lng":134.55297,"version":"13.0b/18.0a"},{"town":"中通町二丁目","koaza":"","lat":34.070839,"lng":134.551147,"version":"13.0b/18.0a"},{"town":"中通町三丁目","koaza":"","lat":34.071337,"lng":134.550179,"version":"13.0b/18.0a"},{"town":"中徳島町一丁目","koaza":"","lat":34.072466,"lng":134.560307,"version":"13.0b/18.0a"},{"town":"中徳島町二丁目","koaza":"","lat":34.07466,"lng":134.559874,"version":"13.0b/18.0a"},{"town":"仲之町一丁目","koaza":"","lat":34.066731,"lng":134.550898,"version":"13.0b/18.0a"},{"town":"仲之町二丁目","koaza":"","lat":34.066414,"lng":134.552644,"version":"13.0b/18.0a"},{"town":"仲之町三丁目","koaza":"","lat":34.066019,"lng":134.55441,"version":"13.0b/18.0a"},{"town":"仲之町四丁目","koaza":"","lat":34.065733,"lng":134.555981,"version":"13.0b/18.0a"},{"town":"中前川町一丁目","koaza":"","lat":34.079299,"lng":134.555805,"version":"13.0b/18.0a"},{"town":"中前川町二丁目","koaza":"","lat":34.079714,"lng":134.554252,"version":"13.0b/18.0a"},{"town":"中前川町三丁目","koaza":"","lat":34.079851,"lng":134.552623,"version":"13.0b/18.0a"},{"town":"中前川町四丁目","koaza":"","lat":34.080125,"lng":134.549587,"version":"13.0b/18.0a"},{"town":"中前川町五丁目","koaza":"","lat":34.081553,"lng":134.546594,"version":"13.0b/18.0a"},{"town":"中吉野町一丁目","koaza":"","lat":34.084402,"lng":134.558253,"version":"13.0b/18.0a"},{"town":"中吉野町二丁目","koaza":"","lat":34.085215,"lng":134.556668,"version":"13.0b/18.0a"},{"town":"中吉野町三丁目","koaza":"","lat":34.085804,"lng":134.554201,"version":"13.0b/18.0a"},{"town":"中吉野町四丁目","koaza":"","lat":34.085668,"lng":134.550051,"version":"13.0b/18.0a"},{"town":"二軒屋町一丁目","koaza":"","lat":34.060064,"lng":134.54663,"version":"13.0b/18.0a"},{"town":"二軒屋町二丁目","koaza":"","lat":34.058528,"lng":134.546451,"version":"13.0b/18.0a"},{"town":"二軒屋町三丁目","koaza":"","lat":34.057075,"lng":134.546693,"version":"13.0b/18.0a"},{"town":"西新浜町一丁目","koaza":"","lat":34.045993,"lng":134.561899,"version":"13.0b/18.0a"},{"town":"西新浜町二丁目","koaza":"","lat":34.041874,"lng":134.559833,"version":"13.0b/18.0a"},{"town":"西新町一丁目","koaza":"","lat":34.071464,"lng":134.546785,"version":"13.0b/18.0a"},{"town":"西新町二丁目","koaza":"","lat":34.072381,"lng":134.546219,"version":"13.0b/18.0a"},{"town":"西新町三丁目","koaza":"","lat":34.073404,"lng":134.545367,"version":"13.0b/18.0a"},{"town":"西新町四丁目","koaza":"","lat":34.074328,"lng":134.54445,"version":"13.0b/18.0a"},{"town":"西新町五丁目","koaza":"","lat":34.075318,"lng":134.543038,"version":"13.0b/18.0a"},{"town":"西須賀町","koaza":"","lat":34.02957,"lng":134.547162,"version":"13.0b/18.0a"},{"town":"西船場町一丁目","koaza":"","lat":34.071896,"lng":134.547543,"version":"13.0b/18.0a"},{"town":"西船場町二丁目","koaza":"","lat":34.072768,"lng":134.546968,"version":"13.0b/18.0a"},{"town":"西船場町三丁目","koaza":"","lat":34.073845,"lng":134.546,"version":"13.0b/18.0a"},{"town":"西船場町四丁目","koaza":"","lat":34.07474,"lng":134.54513,"version":"13.0b/18.0a"},{"town":"西船場町五丁目","koaza":"","lat":34.075504,"lng":134.544124,"version":"13.0b/18.0a"},{"town":"西大工町一丁目","koaza":"","lat":34.071142,"lng":134.545895,"version":"13.0b/18.0a"},{"town":"西大工町二丁目","koaza":"","lat":34.072135,"lng":134.545643,"version":"13.0b/18.0a"},{"town":"西大工町三丁目","koaza":"","lat":34.073128,"lng":134.544863,"version":"13.0b/18.0a"},{"town":"西大工町四丁目","koaza":"","lat":34.073931,"lng":134.543802,"version":"13.0b/18.0a"},{"town":"西大工町五丁目","koaza":"","lat":34.074732,"lng":134.542761,"version":"13.0b/18.0a"},{"town":"西富田町","koaza":"","lat":34.062611,"lng":134.541597,"version":"13.0b/18.0a"},{"town":"西二軒屋町一丁目","koaza":"","lat":34.057528,"lng":134.545498,"version":"13.0b/18.0a"},{"town":"西二軒屋町二丁目","koaza":"","lat":34.058054,"lng":134.54389,"version":"13.0b/18.0a"},{"town":"西山手町","koaza":"","lat":34.070817,"lng":134.545227,"version":"13.0b/18.0a"},{"town":"入田町","koaza":"","lat":34.03894,"lng":134.445609,"version":"13.0b/18.0a"},{"town":"幟町一丁目","koaza":"","lat":34.066436,"lng":134.546554,"version":"13.0b/18.0a"},{"town":"幟町二丁目","koaza":"","lat":34.064611,"lng":134.546445,"version":"13.0b/18.0a"},{"town":"幟町三丁目","koaza":"","lat":34.063068,"lng":134.54641,"version":"13.0b/18.0a"},{"town":"幟町四丁目","koaza":"","lat":34.061678,"lng":134.546244,"version":"13.0b/18.0a"},{"town":"八多町","koaza":"","lat":33.988499,"lng":134.507867,"version":"13.0b/18.0a"},{"town":"八万町","koaza":"","lat":34.051273,"lng":134.52537,"version":"13.0b/18.0a"},{"town":"万代町一丁目","koaza":"","lat":34.0661,"lng":134.557923,"version":"13.0b/18.0a"},{"town":"万代町二丁目","koaza":"","lat":34.065599,"lng":134.559755,"version":"13.0b/18.0a"},{"town":"万代町三丁目","koaza":"","lat":34.065429,"lng":134.561491,"version":"13.0b/18.0a"},{"town":"万代町四丁目","koaza":"","lat":34.064996,"lng":134.563535,"version":"13.0b/18.0a"},{"town":"万代町五丁目","koaza":"","lat":34.063566,"lng":134.565872,"version":"13.0b/18.0a"},{"town":"万代町六丁目","koaza":"","lat":34.061616,"lng":134.566948,"version":"13.0b/18.0a"},{"town":"万代町七丁目","koaza":"","lat":34.060036,"lng":134.568856,"version":"13.0b/18.0a"},{"town":"東新町一丁目","koaza":"","lat":34.0702,"lng":134.547808,"version":"13.0b/18.0a"},{"town":"東新町二丁目","koaza":"","lat":34.069237,"lng":134.548736,"version":"13.0b/18.0a"},{"town":"東船場町一丁目","koaza":"","lat":34.070649,"lng":134.548655,"version":"13.0b/18.0a"},{"town":"東船場町二丁目","koaza":"","lat":34.069313,"lng":134.549683,"version":"13.0b/18.0a"},{"town":"東大工町一丁目","koaza":"","lat":34.069638,"lng":134.546511,"version":"13.0b/18.0a"},{"town":"東大工町二丁目","koaza":"","lat":34.068698,"lng":134.546874,"version":"13.0b/18.0a"},{"town":"東大工町三丁目","koaza":"","lat":34.067803,"lng":134.547246,"version":"13.0b/18.0a"},{"town":"東出来島町","koaza":"","lat":34.077554,"lng":134.548068,"version":"13.0b/18.0a"},{"town":"東山手町一丁目","koaza":"","lat":34.069299,"lng":134.545574,"version":"13.0b/18.0a"},{"town":"東山手町二丁目","koaza":"","lat":34.068403,"lng":134.54562,"version":"13.0b/18.0a"},{"town":"東山手町三丁目","koaza":"","lat":34.067926,"lng":134.544187,"version":"13.0b/18.0a"},{"town":"東吉野町一丁目","koaza":"","lat":34.087119,"lng":134.56418,"version":"13.0b/18.0a"},{"town":"東吉野町二丁目","koaza":"","lat":34.08643,"lng":134.566221,"version":"13.0b/18.0a"},{"town":"東吉野町三丁目","koaza":"","lat":34.085575,"lng":134.568372,"version":"13.0b/18.0a"},{"town":"眉山町","koaza":"","lat":34.069364,"lng":134.54044,"version":"13.0b/18.0a"},{"town":"福島一丁目","koaza":"","lat":34.0707,"lng":134.565124,"version":"13.0b/18.0a"},{"town":"福島二丁目","koaza":"","lat":34.070298,"lng":134.568677,"version":"13.0b/18.0a"},{"town":"不動北町一丁目","koaza":"","lat":34.104216,"lng":134.501972,"version":"13.0b/18.0a"},{"town":"不動北町二丁目","koaza":"","lat":34.102883,"lng":134.492826,"version":"13.0b/18.0a"},{"town":"不動西町一丁目","koaza":"","lat":34.093542,"lng":134.502011,"version":"13.0b/18.0a"},{"town":"不動西町二丁目","koaza":"","lat":34.088168,"lng":134.502396,"version":"13.0b/18.0a"},{"town":"不動西町三丁目","koaza":"","lat":34.090832,"lng":134.495647,"version":"13.0b/18.0a"},{"town":"不動西町四丁目","koaza":"","lat":34.094628,"lng":134.492732,"version":"13.0b/18.0a"},{"town":"不動東町一丁目","koaza":"","lat":34.092372,"lng":134.509986,"version":"13.0b/18.0a"},{"town":"不動東町二丁目","koaza":"","lat":34.09319,"lng":134.511533,"version":"13.0b/18.0a"},{"town":"不動東町三丁目","koaza":"","lat":34.094007,"lng":134.515677,"version":"13.0b/18.0a"},{"town":"不動東町四丁目","koaza":"","lat":34.101039,"lng":134.511979,"version":"13.0b/18.0a"},{"town":"不動東町五丁目","koaza":"","lat":34.098402,"lng":134.523311,"version":"13.0b/18.0a"},{"town":"不動本町一丁目","koaza":"","lat":34.092256,"lng":134.507479,"version":"13.0b/18.0a"},{"town":"不動本町二丁目","koaza":"","lat":34.095492,"lng":134.507025,"version":"13.0b/18.0a"},{"town":"不動本町三丁目","koaza":"","lat":34.098669,"lng":134.50473,"version":"13.0b/18.0a"},{"town":"南内町一丁目","koaza":"","lat":34.068479,"lng":134.552379,"version":"13.0b/18.0a"},{"town":"南内町二丁目","koaza":"","lat":34.069786,"lng":134.55056,"version":"13.0b/18.0a"},{"town":"南内町三丁目","koaza":"","lat":34.070811,"lng":134.549693,"version":"13.0b/18.0a"},{"town":"南沖洲一丁目","koaza":"","lat":34.064529,"lng":134.583234,"version":"13.0b/18.0a"},{"town":"南沖洲二丁目","koaza":"","lat":34.063746,"lng":134.586123,"version":"13.0b/18.0a"},{"town":"南沖洲三丁目","koaza":"","lat":34.062258,"lng":134.588643,"version":"13.0b/18.0a"},{"town":"南沖洲五丁目","koaza":"","lat":34.058577,"lng":134.582512,"version":"13.0b/18.0a"},{"town":"南蔵本町一丁目","koaza":"","lat":34.074911,"lng":134.520378,"version":"13.0b/18.0a"},{"town":"南蔵本町二丁目","koaza":"","lat":34.072796,"lng":134.520233,"version":"13.0b/18.0a"},{"town":"南蔵本町三丁目","koaza":"","lat":34.072274,"lng":134.518378,"version":"13.0b/18.0a"},{"town":"南佐古一番町","koaza":"","lat":34.07531,"lng":134.540617,"version":"13.0b/18.0a"},{"town":"南佐古二番町","koaza":"","lat":34.074959,"lng":134.537644,"version":"13.0b/18.0a"},{"town":"南佐古三番町","koaza":"","lat":34.075209,"lng":134.53375,"version":"13.0b/18.0a"},{"town":"南佐古四番町","koaza":"","lat":34.074572,"lng":134.531289,"version":"13.0b/18.0a"},{"town":"南佐古五番町","koaza":"","lat":34.074573,"lng":134.529355,"version":"13.0b/18.0a"},{"town":"南佐古六番町","koaza":"","lat":34.073675,"lng":134.527721,"version":"13.0b/18.0a"},{"town":"南佐古七番町","koaza":"","lat":34.073114,"lng":134.525121,"version":"13.0b/18.0a"},{"town":"南佐古八番町","koaza":"","lat":34.073759,"lng":134.522354,"version":"13.0b/18.0a"},{"town":"南島田町一丁目","koaza":"","lat":34.079966,"lng":134.51499,"version":"13.0b/18.0a"},{"town":"南島田町二丁目","koaza":"","lat":34.079959,"lng":134.512035,"version":"13.0b/18.0a"},{"town":"南島田町三丁目","koaza":"","lat":34.079489,"lng":134.508083,"version":"13.0b/18.0a"},{"town":"南島田町四丁目","koaza":"","lat":34.079495,"lng":134.503792,"version":"13.0b/18.0a"},{"town":"南常三島町一丁目","koaza":"","lat":34.077358,"lng":134.559927,"version":"13.0b/18.0a"},{"town":"南常三島町二丁目","koaza":"","lat":34.07745,"lng":134.562356,"version":"13.0b/18.0a"},{"town":"南常三島町三丁目","koaza":"","lat":34.07724,"lng":134.564725,"version":"13.0b/18.0a"},{"town":"南庄町一丁目","koaza":"","lat":34.071611,"lng":134.515351,"version":"13.0b/18.0a"},{"town":"南庄町二丁目","koaza":"","lat":34.071428,"lng":134.51354,"version":"13.0b/18.0a"},{"town":"南庄町三丁目","koaza":"","lat":34.071198,"lng":134.510991,"version":"13.0b/18.0a"},{"town":"南庄町四丁目","koaza":"","lat":34.070063,"lng":134.509022,"version":"13.0b/18.0a"},{"town":"南庄町五丁目","koaza":"","lat":34.069111,"lng":134.506609,"version":"13.0b/18.0a"},{"town":"南昭和町一丁目","koaza":"","lat":34.058436,"lng":134.554982,"version":"13.0b/18.0a"},{"town":"南昭和町二丁目","koaza":"","lat":34.05781,"lng":134.55598,"version":"13.0b/18.0a"},{"town":"南昭和町三丁目","koaza":"","lat":34.056927,"lng":134.557503,"version":"13.0b/18.0a"},{"town":"南昭和町四丁目","koaza":"","lat":34.056848,"lng":134.56013,"version":"13.0b/18.0a"},{"town":"南昭和町五丁目","koaza":"","lat":34.056574,"lng":134.562195,"version":"13.0b/18.0a"},{"town":"南昭和町六丁目","koaza":"","lat":34.056089,"lng":134.564312,"version":"13.0b/18.0a"},{"town":"南昭和町七丁目","koaza":"","lat":34.05593,"lng":134.566015,"version":"13.0b/18.0a"},{"town":"南新町一丁目","koaza":"","lat":34.069822,"lng":134.547165,"version":"13.0b/18.0a"},{"town":"南新町二丁目","koaza":"","lat":34.068895,"lng":134.547487,"version":"13.0b/18.0a"},{"town":"南末広町","koaza":"","lat":34.060616,"lng":134.575296,"version":"13.0b/18.0a"},{"town":"南田宮一丁目","koaza":"","lat":34.084381,"lng":134.545951,"version":"13.0b/18.0a"},{"town":"南田宮二丁目","koaza":"","lat":34.082695,"lng":134.542586,"version":"13.0b/18.0a"},{"town":"南田宮三丁目","koaza":"","lat":34.085348,"lng":134.537648,"version":"13.0b/18.0a"},{"town":"南田宮四丁目","koaza":"","lat":34.08423,"lng":134.533508,"version":"13.0b/18.0a"},{"town":"南出来島町一丁目","koaza":"","lat":34.076302,"lng":134.546149,"version":"13.0b/18.0a"},{"town":"南出来島町二丁目","koaza":"","lat":34.077193,"lng":134.5443,"version":"13.0b/18.0a"},{"town":"南仲之町一丁目","koaza":"","lat":34.065954,"lng":134.550666,"version":"13.0b/18.0a"},{"town":"南仲之町二丁目","koaza":"","lat":34.065685,"lng":134.552509,"version":"13.0b/18.0a"},{"town":"南仲之町三丁目","koaza":"","lat":34.065395,"lng":134.554417,"version":"13.0b/18.0a"},{"town":"南仲之町四丁目","koaza":"","lat":34.065052,"lng":134.555707,"version":"13.0b/18.0a"},{"town":"南二軒屋町","koaza":"","lat":34.058121,"lng":134.540914,"version":"13.0b/18.0a"},{"town":"南二軒屋町一丁目","koaza":"","lat":34.055275,"lng":134.545819,"version":"13.0b/18.0a"},{"town":"南二軒屋町二丁目","koaza":"","lat":34.053211,"lng":134.544845,"version":"13.0b/18.0a"},{"town":"南二軒屋町三丁目","koaza":"","lat":34.051546,"lng":134.543758,"version":"13.0b/18.0a"},{"town":"南前川町一丁目","koaza":"","lat":34.077786,"lng":134.555371,"version":"13.0b/18.0a"},{"town":"南前川町二丁目","koaza":"","lat":34.077929,"lng":134.55356,"version":"13.0b/18.0a"},{"town":"南前川町三丁目","koaza":"","lat":34.078245,"lng":134.551552,"version":"13.0b/18.0a"},{"town":"南前川町四丁目","koaza":"","lat":34.079043,"lng":134.549207,"version":"13.0b/18.0a"},{"town":"南前川町五丁目","koaza":"","lat":34.079885,"lng":134.546838,"version":"13.0b/18.0a"},{"town":"南矢三町一丁目","koaza":"","lat":34.083147,"lng":134.52996,"version":"13.0b/18.0a"},{"town":"南矢三町二丁目","koaza":"","lat":34.082748,"lng":134.525734,"version":"13.0b/18.0a"},{"town":"南矢三町三丁目","koaza":"","lat":34.082326,"lng":134.52147,"version":"13.0b/18.0a"},{"town":"明神町一丁目","koaza":"","lat":34.064323,"lng":134.555286,"version":"13.0b/18.0a"},{"town":"明神町二丁目","koaza":"","lat":34.063104,"lng":134.554504,"version":"13.0b/18.0a"},{"town":"明神町三丁目","koaza":"","lat":34.061096,"lng":134.553239,"version":"13.0b/18.0a"},{"town":"明神町四丁目","koaza":"","lat":34.06021,"lng":134.552795,"version":"13.0b/18.0a"},{"town":"明神町五丁目","koaza":"","lat":34.059071,"lng":134.552447,"version":"13.0b/18.0a"},{"town":"明神町六丁目","koaza":"","lat":34.057963,"lng":134.551599,"version":"13.0b/18.0a"},{"town":"名東町一丁目","koaza":"","lat":34.063329,"lng":134.503899,"version":"13.0b/18.0a"},{"town":"名東町二丁目","koaza":"","lat":34.063731,"lng":134.495115,"version":"13.0b/18.0a"},{"town":"名東町三丁目","koaza":"","lat":34.054484,"lng":134.491648,"version":"13.0b/18.0a"},{"town":"元町一丁目","koaza":"","lat":34.073116,"lng":134.550238,"version":"13.0b/18.0a"},{"town":"元町二丁目","koaza":"","lat":34.072173,"lng":134.549095,"version":"13.0b/18.0a"},{"town":"八百屋町一丁目","koaza":"","lat":34.071562,"lng":134.553212,"version":"13.0b/18.0a"},{"town":"八百屋町二丁目","koaza":"","lat":34.071959,"lng":134.551987,"version":"13.0b/18.0a"},{"town":"八百屋町三丁目","koaza":"","lat":34.072287,"lng":134.550758,"version":"13.0b/18.0a"},{"town":"山城町","koaza":"","lat":34.050222,"lng":134.561117,"version":"13.0b/18.0a"},{"town":"山城西一丁目","koaza":"","lat":34.053573,"lng":134.558099,"version":"13.0b/18.0a"},{"town":"山城西二丁目","koaza":"","lat":34.051611,"lng":134.557308,"version":"13.0b/18.0a"},{"town":"山城西三丁目","koaza":"","lat":34.049585,"lng":134.556579,"version":"13.0b/18.0a"},{"town":"山城西四丁目","koaza":"","lat":34.047939,"lng":134.55472,"version":"13.0b/18.0a"},{"town":"大和町一丁目","koaza":"","lat":34.068078,"lng":134.570326,"version":"13.0b/18.0a"},{"town":"大和町二丁目","koaza":"","lat":34.067476,"lng":134.573012,"version":"13.0b/18.0a"},{"town":"弓町一丁目","koaza":"","lat":34.066452,"lng":134.545765,"version":"13.0b/18.0a"},{"town":"弓町二丁目","koaza":"","lat":34.064663,"lng":134.545724,"version":"13.0b/18.0a"},{"town":"弓町三丁目","koaza":"","lat":34.06315,"lng":134.545648,"version":"13.0b/18.0a"},{"town":"弓町四丁目","koaza":"","lat":34.061783,"lng":134.545423,"version":"13.0b/18.0a"},{"town":"吉野本町一丁目","koaza":"","lat":34.078876,"lng":134.550598,"version":"13.0b/18.0a"},{"town":"吉野本町二丁目","koaza":"","lat":34.080423,"lng":134.55104,"version":"13.0b/18.0a"},{"town":"吉野本町三丁目","koaza":"","lat":34.081576,"lng":134.551685,"version":"13.0b/18.0a"},{"town":"吉野本町四丁目","koaza":"","lat":34.082917,"lng":134.552367,"version":"13.0b/18.0a"},{"town":"吉野本町五丁目","koaza":"","lat":34.084906,"lng":134.551931,"version":"13.0b/18.0a"},{"town":"吉野本町六丁目","koaza":"","lat":34.087829,"lng":134.552771,"version":"13.0b/18.0a"},{"town":"両国橋","koaza":"","lat":34.067947,"lng":134.550106,"version":"13.0b/18.0a"},{"town":"両国本町一丁目","koaza":"","lat":34.070818,"lng":134.552215,"version":"13.0b/18.0a"},{"town":"両国本町二丁目","koaza":"","lat":34.069388,"lng":134.551283,"version":"13.0b/18.0a"},{"town":"論田町","koaza":"","lat":34.038352,"lng":134.569821,"version":"13.0b/18.0a"},{"town":"北沖洲四丁目","koaza":"","lat":34.071653,"lng":134.595098,"version":"13.0b/18.0a"},{"town":"南沖洲四丁目","koaza":"","lat":34.058724,"lng":134.587693,"version":"13.0b/18.0a"},{"town":"東沖洲二丁目","koaza":"","lat":34.058296,"lng":134.597245,"version":"13.0b/18.0a"},{"town":"東沖洲一丁目","koaza":"","lat":34.063411,"lng":134.599179,"version":"13.0b/18.0a"},{"town":"上助任町","koaza":"","lat":34.092275,"lng":134.551922,"version":"13.0b/18.0a"},{"town":"北田宮一丁目","koaza":"","lat":34.091693,"lng":134.546924,"version":"13.0b/18.0a"},{"town":"田宮町灘","koaza":"","lat":34.088467,"lng":134.548401,"version":"13.0b/18.0a"},{"town":"入田町","koaza":"月ノ宮","lat":34.047444,"lng":134.432808,"version":"13.0b/18.0a"},{"town":"入田町","koaza":"金治","lat":34.036352,"lng":134.438732,"version":"13.0b/18.0a"},{"town":"入田町","koaza":"大久","lat":34.044082,"lng":134.4319,"version":"13.0b/18.0a"},{"town":"入田町","koaza":"天ノ原","lat":34.040364,"lng":134.435709,"version":"13.0b/18.0a"},{"town":"入田町","koaza":"西月ノ宮","lat":34.048378,"lng":134.435423,"version":"13.0b/18.0a"},{"town":"入田町","koaza":"東月ノ宮","lat":34.046211,"lng":134.443368,"version":"13.0b/18.0a"},{"town":"入田町","koaza":"春日","lat":34.04086,"lng":134.440819,"version":"13.0b/18.0a"},{"town":"入田町","koaza":"笠木","lat":34.038311,"lng":134.442815,"version":"13.0b/18.0a"},{"town":"入田町","koaza":"安都真","lat":34.033983,"lng":134.448463,"version":"13.0b/18.0a"},{"town":"入田町","koaza":"神ノ池","lat":34.038816,"lng":134.448199,"version":"13.0b/18.0a"},{"town":"入田町","koaza":"海先","lat":34.044721,"lng":134.457525,"version":"13.0b/18.0a"},{"town":"一宮町","koaza":"南丁","lat":34.02425,"lng":134.465625,"version":"13.0b/18.0a"},{"town":"入田町","koaza":"内ノ御田","lat":34.050886,"lng":134.455552,"version":"13.0b/18.0a"},{"town":"国府町芝原","koaza":"観音堂","lat":34.090264,"lng":134.455763,"version":"13.0b/18.0a"},{"town":"国府町芝原","koaza":"ウノ木","lat":34.088206,"lng":134.453543,"version":"13.0b/18.0a"},{"town":"国府町芝原","koaza":"橋本","lat":34.090087,"lng":134.458591,"version":"13.0b/18.0a"},{"town":"国府町芝原","koaza":"天神屋敷","lat":34.092865,"lng":134.459346,"version":"13.0b/18.0a"},{"town":"国府町芝原","koaza":"西沢","lat":34.097607,"lng":134.459523,"version":"13.0b/18.0a"},{"town":"国府町芝原","koaza":"南芝原","lat":34.090617,"lng":134.461738,"version":"13.0b/18.0a"},{"town":"国府町佐野塚","koaza":"天満","lat":34.102505,"lng":134.460796,"version":"13.0b/18.0a"},{"town":"国府町佐野塚","koaza":"阿わじ方","lat":34.104692,"lng":134.459337,"version":"13.0b/18.0a"},{"town":"国府町佐野塚","koaza":"中道","lat":34.108174,"lng":134.461976,"version":"13.0b/18.0a"},{"town":"一宮町","koaza":"西丁","lat":34.040809,"lng":134.468798,"version":"13.0b/18.0a"},{"town":"国府町芝原","koaza":"寺地","lat":34.094046,"lng":134.460898,"version":"13.0b/18.0a"},{"town":"国府町西黒田","koaza":"西傍示","lat":34.102054,"lng":134.463872,"version":"13.0b/18.0a"},{"town":"国府町芝原","koaza":"天満","lat":34.098615,"lng":134.463076,"version":"13.0b/18.0a"},{"town":"国府町佐野塚","koaza":"野神元","lat":34.105943,"lng":134.462626,"version":"13.0b/18.0a"},{"town":"国府町佐野塚","koaza":"出口","lat":34.107437,"lng":134.463171,"version":"13.0b/18.0a"},{"town":"国府町芝原","koaza":"宮ノ本","lat":34.093638,"lng":134.464295,"version":"13.0b/18.0a"},{"town":"国府町桜間","koaza":"銭亀","lat":34.085521,"lng":134.463306,"version":"13.0b/18.0a"},{"town":"国府町佐野塚","koaza":"新田","lat":34.108851,"lng":134.465783,"version":"13.0b/18.0a"},{"town":"一宮町","koaza":"赤坂東山","lat":34.028071,"lng":134.465896,"version":"13.0b/18.0a"},{"town":"国府町桜間","koaza":"万ノ内","lat":34.081928,"lng":134.464413,"version":"13.0b/18.0a"},{"town":"国府町桜間","koaza":"宮ノ本","lat":34.080223,"lng":134.464717,"version":"13.0b/18.0a"},{"town":"国府町桜間","koaza":"登々路","lat":34.084955,"lng":134.465846,"version":"13.0b/18.0a"},{"town":"国府町佐野塚","koaza":"小塚原","lat":34.106312,"lng":134.465959,"version":"13.0b/18.0a"},{"town":"国府町芝原","koaza":"東分","lat":34.094496,"lng":134.466639,"version":"13.0b/18.0a"},{"town":"国府町芝原","koaza":"神楽免","lat":34.090947,"lng":134.467169,"version":"13.0b/18.0a"},{"town":"国府町芝原","koaza":"野神","lat":34.086996,"lng":134.46752,"version":"13.0b/18.0a"},{"town":"国府町西黒田","koaza":"南傍示","lat":34.098357,"lng":134.469564,"version":"13.0b/18.0a"},{"town":"一宮町","koaza":"紅葉山","lat":34.044306,"lng":134.46933,"version":"13.0b/18.0a"},{"town":"国府町桜間","koaza":"家内田","lat":34.0846,"lng":134.467156,"version":"13.0b/18.0a"},{"town":"国府町西黒田","koaza":"東傍示","lat":34.10282,"lng":134.469446,"version":"13.0b/18.0a"},{"town":"国府町芝原","koaza":"中庄","lat":34.095331,"lng":134.469702,"version":"13.0b/18.0a"},{"town":"国府町西黒田","koaza":"北傍示","lat":34.107279,"lng":134.467995,"version":"13.0b/18.0a"},{"town":"一宮町","koaza":"赤坂西山","lat":34.033244,"lng":134.468756,"version":"13.0b/18.0a"},{"town":"一宮町","koaza":"畑山","lat":34.035219,"lng":134.469841,"version":"13.0b/18.0a"},{"town":"一宮町","koaza":"東丁","lat":34.03568,"lng":134.480771,"version":"13.0b/18.0a"},{"town":"一宮町","koaza":"福正東山","lat":34.028019,"lng":134.473734,"version":"13.0b/18.0a"},{"town":"国府町東黒田","koaza":"高岸","lat":34.099124,"lng":134.477171,"version":"13.0b/18.0a"},{"town":"国府町東黒田","koaza":"桜ノ本","lat":34.103299,"lng":134.474914,"version":"13.0b/18.0a"},{"town":"国府町東黒田","koaza":"古川","lat":34.096932,"lng":134.475302,"version":"13.0b/18.0a"},{"town":"一宮町","koaza":"宇和山西山","lat":34.033563,"lng":134.476024,"version":"13.0b/18.0a"},{"town":"国府町東黒田","koaza":"鑓場","lat":34.101977,"lng":134.480607,"version":"13.0b/18.0a"},{"town":"国府町東黒田","koaza":"朝日","lat":34.102369,"lng":134.4779,"version":"13.0b/18.0a"},{"town":"一宮町","koaza":"片山","lat":34.036169,"lng":134.480724,"version":"13.0b/18.0a"},{"town":"国府町東黒田","koaza":"榎島","lat":34.09688,"lng":134.481415,"version":"13.0b/18.0a"},{"town":"国府町東黒田","koaza":"宮ノ北","lat":34.100428,"lng":134.48203,"version":"13.0b/18.0a"},{"town":"下町","koaza":"西山","lat":34.035092,"lng":134.481889,"version":"13.0b/18.0a"},{"town":"国府町井戸","koaza":"高輪地","lat":34.085763,"lng":134.481918,"version":"13.0b/18.0a"},{"town":"国府町井戸","koaza":"天満","lat":34.088119,"lng":134.482664,"version":"13.0b/18.0a"},{"town":"国府町井戸","koaza":"城の内","lat":34.081351,"lng":134.483912,"version":"13.0b/18.0a"},{"town":"下町","koaza":"本丁","lat":34.037572,"lng":134.487055,"version":"13.0b/18.0a"},{"town":"国府町井戸","koaza":"門道地","lat":34.082906,"lng":134.483698,"version":"13.0b/18.0a"},{"town":"上八万町","koaza":"西地","lat":34.025567,"lng":134.487549,"version":"13.0b/18.0a"},{"town":"国府町井戸","koaza":"前野","lat":34.079327,"lng":134.486436,"version":"13.0b/18.0a"},{"town":"国府町井戸","koaza":"左ケ池","lat":34.087409,"lng":134.484883,"version":"13.0b/18.0a"},{"town":"上八万町","koaza":"西山","lat":34.031875,"lng":134.4905,"version":"13.0b/18.0a"},{"town":"国府町井戸","koaza":"堂ノ裏","lat":34.085988,"lng":134.485621,"version":"13.0b/18.0a"},{"town":"国府町井戸","koaza":"北屋敷","lat":34.083629,"lng":134.486236,"version":"13.0b/18.0a"},{"town":"国府町井戸","koaza":"南屋敷","lat":34.082129,"lng":134.485336,"version":"13.0b/18.0a"},{"town":"八多町","koaza":"中ノ丸","lat":33.983233,"lng":134.492588,"version":"13.0b/18.0a"},{"town":"国府町東黒田","koaza":"角ノ瀬","lat":34.100068,"lng":134.487943,"version":"13.0b/18.0a"},{"town":"国府町和田","koaza":"七反田","lat":34.075817,"lng":134.486552,"version":"13.0b/18.0a"},{"town":"国府町井戸","koaza":"八斗地","lat":34.081331,"lng":134.487597,"version":"13.0b/18.0a"},{"town":"一宮町","koaza":"僧津山","lat":34.046684,"lng":134.486633,"version":"13.0b/18.0a"},{"town":"国府町和田","koaza":"竹添","lat":34.076877,"lng":134.488356,"version":"13.0b/18.0a"},{"town":"国府町井戸","koaza":"高池窪","lat":34.086533,"lng":134.486926,"version":"13.0b/18.0a"},{"town":"国府町和田","koaza":"五反田","lat":34.076334,"lng":134.487294,"version":"13.0b/18.0a"},{"town":"八多町","koaza":"夏焼","lat":33.988542,"lng":134.489638,"version":"13.0b/18.0a"},{"town":"国府町井戸","koaza":"高池","lat":34.084692,"lng":134.489068,"version":"13.0b/18.0a"},{"town":"国府町和田","koaza":"表","lat":34.073066,"lng":134.488955,"version":"13.0b/18.0a"},{"town":"国府町北岩延","koaza":"稲ノ川","lat":34.083303,"lng":134.489089,"version":"13.0b/18.0a"},{"town":"国府町北岩延","koaza":"西屋敷","lat":34.081905,"lng":134.490521,"version":"13.0b/18.0a"},{"town":"国府町和田","koaza":"居内","lat":34.072703,"lng":134.491946,"version":"13.0b/18.0a"},{"town":"八多町","koaza":"野田坪","lat":33.995842,"lng":134.504885,"version":"13.0b/18.0a"},{"town":"上八万町","koaza":"川西","lat":34.043374,"lng":134.497108,"version":"13.0b/18.0a"},{"town":"国府町北岩延","koaza":"池尻","lat":34.086723,"lng":134.491405,"version":"13.0b/18.0a"},{"town":"国府町和田","koaza":"宮ノ元","lat":34.076694,"lng":134.490792,"version":"13.0b/18.0a"},{"town":"国府町北岩延","koaza":"五反地","lat":34.084921,"lng":134.492111,"version":"13.0b/18.0a"},{"town":"国府町和田","koaza":"西の宮","lat":34.074577,"lng":134.490566,"version":"13.0b/18.0a"},{"town":"八多町","koaza":"中山","lat":33.991816,"lng":134.505913,"version":"13.0b/18.0a"},{"town":"国府町北岩延","koaza":"中屋敷","lat":34.083302,"lng":134.491386,"version":"13.0b/18.0a"},{"town":"国府町北岩延","koaza":"南屋敷","lat":34.082101,"lng":134.49274,"version":"13.0b/18.0a"},{"town":"上八万町","koaza":"田中","lat":34.025283,"lng":134.493644,"version":"13.0b/18.0a"},{"town":"国府町和田","koaza":"原淵","lat":34.072028,"lng":134.494955,"version":"13.0b/18.0a"},{"town":"国府町北岩延","koaza":"石畑","lat":34.083959,"lng":134.492335,"version":"13.0b/18.0a"},{"town":"国府町北岩延","koaza":"桑添","lat":34.087214,"lng":134.493452,"version":"13.0b/18.0a"},{"town":"上八万町","koaza":"南山","lat":34.024124,"lng":134.492643,"version":"13.0b/18.0a"},{"town":"国府町北岩延","koaza":"三反地","lat":34.085656,"lng":134.494291,"version":"13.0b/18.0a"},{"town":"国府町北岩延","koaza":"北門","lat":34.084427,"lng":134.493897,"version":"13.0b/18.0a"},{"town":"八多町","koaza":"鹿ノ首","lat":33.974991,"lng":134.498867,"version":"13.0b/18.0a"},{"town":"国府町北岩延","koaza":"東屋敷","lat":34.083094,"lng":134.493789,"version":"13.0b/18.0a"},{"town":"八多町","koaza":"大久保","lat":34.00619,"lng":134.499642,"version":"13.0b/18.0a"},{"town":"国府町北岩延","koaza":"立石","lat":34.085331,"lng":134.495878,"version":"13.0b/18.0a"},{"town":"国府町北岩延","koaza":"下川田","lat":34.085626,"lng":134.495557,"version":"13.0b/18.0a"},{"town":"国府町北岩延","koaza":"壱里塚","lat":34.086421,"lng":134.498494,"version":"13.0b/18.0a"},{"town":"上八万町","koaza":"花房","lat":34.028306,"lng":134.503273,"version":"13.0b/18.0a"},{"town":"上八万町","koaza":"上中筋","lat":34.037275,"lng":134.502375,"version":"13.0b/18.0a"},{"town":"上八万町","koaza":"星河内","lat":34.026665,"lng":134.509241,"version":"13.0b/18.0a"},{"town":"八多町","koaza":"夫婦石","lat":33.990416,"lng":134.499327,"version":"13.0b/18.0a"},{"town":"八多町","koaza":"風早","lat":34.005083,"lng":134.502555,"version":"13.0b/18.0a"},{"town":"八多町","koaza":"田中","lat":33.98408,"lng":134.499856,"version":"13.0b/18.0a"},{"town":"八多町","koaza":"八屋","lat":33.987101,"lng":134.500395,"version":"13.0b/18.0a"},{"town":"八多町","koaza":"北内","lat":33.989509,"lng":134.504998,"version":"13.0b/18.0a"},{"town":"八多町","koaza":"友広","lat":33.990613,"lng":134.504064,"version":"13.0b/18.0a"},{"town":"上八万町","koaza":"川北","lat":34.043299,"lng":134.510323,"version":"13.0b/18.0a"},{"town":"八多町","koaza":"賀重","lat":33.982888,"lng":134.500991,"version":"13.0b/18.0a"},{"town":"八多町","koaza":"風早北","lat":34.006112,"lng":134.506592,"version":"13.0b/18.0a"},{"town":"上八万町","koaza":"中山","lat":34.031574,"lng":134.507011,"version":"13.0b/18.0a"},{"town":"上八万町","koaza":"樋口","lat":34.035414,"lng":134.508904,"version":"13.0b/18.0a"},{"town":"渋野町","koaza":"入野","lat":34.010291,"lng":134.511473,"version":"13.0b/18.0a"},{"town":"加茂名町","koaza":"東名東山","lat":34.054773,"lng":134.504654,"version":"13.0b/18.0a"},{"town":"八多町","koaza":"仕出","lat":34.000372,"lng":134.513707,"version":"13.0b/18.0a"},{"town":"応神町西貞方","koaza":"中園","lat":34.114943,"lng":134.50798,"version":"13.0b/18.0a"},{"town":"応神町西貞方","koaza":"上奥","lat":34.112376,"lng":134.50641,"version":"13.0b/18.0a"},{"town":"八多町","koaza":"八多山","lat":33.985805,"lng":134.508646,"version":"13.0b/18.0a"},{"town":"八多町","koaza":"水口","lat":33.997305,"lng":134.512412,"version":"13.0b/18.0a"},{"town":"応神町西貞方","koaza":"仁徳","lat":34.11654,"lng":134.508505,"version":"13.0b/18.0a"},{"town":"上八万町","koaza":"下中筋","lat":34.038426,"lng":134.514427,"version":"13.0b/18.0a"},{"town":"八多町","koaza":"坂東","lat":33.991441,"lng":134.512333,"version":"13.0b/18.0a"},{"town":"多家良町","koaza":"中津","lat":33.973227,"lng":134.522945,"version":"13.0b/18.0a"},{"town":"八多町","koaza":"中内","lat":33.991246,"lng":134.509043,"version":"13.0b/18.0a"},{"town":"八万町","koaza":"上長谷","lat":34.050483,"lng":134.513814,"version":"13.0b/18.0a"},{"town":"渋野町","koaza":"高曽根","lat":34.014224,"lng":134.514135,"version":"13.0b/18.0a"},{"town":"八多町","koaza":"岡","lat":33.987814,"lng":134.520475,"version":"13.0b/18.0a"},{"town":"八多町","koaza":"森時","lat":33.989427,"lng":134.515205,"version":"13.0b/18.0a"},{"town":"応神町西貞方","koaza":"小島","lat":34.120036,"lng":134.514043,"version":"13.0b/18.0a"},{"town":"応神町西貞方","koaza":"前須","lat":34.110852,"lng":134.51129,"version":"13.0b/18.0a"},{"town":"応神町西貞方","koaza":"鷹の橋","lat":34.114596,"lng":134.513001,"version":"13.0b/18.0a"},{"town":"八万町","koaza":"下長谷","lat":34.046212,"lng":134.515776,"version":"13.0b/18.0a"},{"town":"応神町東貞方","koaza":"諏訪の市","lat":34.115023,"lng":134.516923,"version":"13.0b/18.0a"},{"town":"上八万町","koaza":"東山","lat":34.034723,"lng":134.51357,"version":"13.0b/18.0a"},{"town":"渋野町","koaza":"正泉","lat":34.006727,"lng":134.518786,"version":"13.0b/18.0a"},{"town":"八多町","koaza":"三反地","lat":33.995084,"lng":134.514659,"version":"13.0b/18.0a"},{"town":"八万町","koaza":"寺山","lat":34.041332,"lng":134.520378,"version":"13.0b/18.0a"},{"town":"上八万町","koaza":"広田","lat":34.034486,"lng":134.517221,"version":"13.0b/18.0a"},{"town":"多家良町","koaza":"中津峰","lat":33.972825,"lng":134.520534,"version":"13.0b/18.0a"},{"town":"八多町","koaza":"町田","lat":33.99368,"lng":134.51717,"version":"13.0b/18.0a"},{"town":"渋野町","koaza":"辻西","lat":34.010477,"lng":134.517578,"version":"13.0b/18.0a"},{"town":"八多町","koaza":"三ツ石","lat":33.992243,"lng":134.51803,"version":"13.0b/18.0a"},{"town":"応神町東貞方","koaza":"西川渕","lat":34.120786,"lng":134.519177,"version":"13.0b/18.0a"},{"town":"応神町東貞方","koaza":"西中須","lat":34.109644,"lng":134.516878,"version":"13.0b/18.0a"},{"town":"八多町","koaza":"小倉","lat":33.993662,"lng":134.523788,"version":"13.0b/18.0a"},{"town":"応神町東貞方","koaza":"中筋","lat":34.10982,"lng":134.518505,"version":"13.0b/18.0a"},{"town":"八万町","koaza":"東山","lat":34.045947,"lng":134.518539,"version":"13.0b/18.0a"},{"town":"応神町東貞方","koaza":"貞光","lat":34.114012,"lng":134.522286,"version":"13.0b/18.0a"},{"town":"方上町","koaza":"原田","lat":34.017731,"lng":134.521746,"version":"13.0b/18.0a"},{"town":"八多町","koaza":"蔵ノ内","lat":33.993579,"lng":134.519457,"version":"13.0b/18.0a"},{"town":"渋野町","koaza":"入道","lat":34.015957,"lng":134.519403,"version":"13.0b/18.0a"},{"town":"八万町","koaza":"柿谷","lat":34.051827,"lng":134.524466,"version":"13.0b/18.0a"},{"town":"八万町","koaza":"新貝","lat":34.045696,"lng":134.521597,"version":"13.0b/18.0a"},{"town":"八万町","koaza":"馬場山","lat":34.046817,"lng":134.519591,"version":"13.0b/18.0a"},{"town":"応神町東貞方","koaza":"八幡前","lat":34.110855,"lng":134.522826,"version":"13.0b/18.0a"},{"town":"応神町東貞方","koaza":"北野","lat":34.120155,"lng":134.520558,"version":"13.0b/18.0a"},{"town":"応神町吉成","koaza":"七丁原","lat":34.119541,"lng":134.523349,"version":"13.0b/18.0a"},{"town":"渋野町","koaza":"楠木野旗","lat":34.007079,"lng":134.523107,"version":"13.0b/18.0a"},{"town":"八万町","koaza":"中津浦","lat":34.057048,"lng":134.533968,"version":"13.0b/18.0a"},{"town":"八多町","koaza":"南曽根","lat":33.99183,"lng":134.522307,"version":"13.0b/18.0a"},{"town":"応神町東貞方","koaza":"南川渕","lat":34.109293,"lng":134.524026,"version":"13.0b/18.0a"},{"town":"八万町","koaza":"向寺山","lat":34.040087,"lng":134.522204,"version":"13.0b/18.0a"},{"town":"多家良町","koaza":"池谷","lat":33.986253,"lng":134.537371,"version":"13.0b/18.0a"},{"town":"応神町吉成","koaza":"西吉成","lat":34.115285,"lng":134.525061,"version":"13.0b/18.0a"},{"town":"渋野町","koaza":"舟越","lat":34.013672,"lng":134.522913,"version":"13.0b/18.0a"},{"town":"渋野町","koaza":"門関","lat":34.009025,"lng":134.523346,"version":"13.0b/18.0a"},{"town":"方上町","koaza":"北谷","lat":34.020311,"lng":134.524513,"version":"13.0b/18.0a"},{"town":"八万町","koaza":"法花谷","lat":34.040225,"lng":134.533529,"version":"13.0b/18.0a"},{"town":"八万町","koaza":"宮ノ谷","lat":34.048475,"lng":134.524713,"version":"13.0b/18.0a"},{"town":"八多町","koaza":"居内","lat":33.989001,"lng":134.525086,"version":"13.0b/18.0a"},{"town":"八多町","koaza":"金堂","lat":33.991733,"lng":134.525986,"version":"13.0b/18.0a"},{"town":"渋野町","koaza":"宮前","lat":34.007666,"lng":134.52804,"version":"13.0b/18.0a"},{"town":"渋野町","koaza":"学頭","lat":34.01121,"lng":134.525892,"version":"13.0b/18.0a"},{"town":"方上町","koaza":"壱町地","lat":34.014485,"lng":134.523607,"version":"13.0b/18.0a"},{"town":"方上町","koaza":"森谷","lat":34.018597,"lng":134.525042,"version":"13.0b/18.0a"},{"town":"北山町","koaza":"上田","lat":34.028191,"lng":134.527415,"version":"13.0b/18.0a"},{"town":"八万町","koaza":"大坪","lat":34.045116,"lng":134.527837,"version":"13.0b/18.0a"},{"town":"渋野町","koaza":"杉ノ露","lat":34.008178,"lng":134.524956,"version":"13.0b/18.0a"},{"town":"八万町","koaza":"上福万","lat":34.05216,"lng":134.528721,"version":"13.0b/18.0a"},{"town":"方上町","koaza":"溜尻","lat":34.016737,"lng":134.526058,"version":"13.0b/18.0a"},{"town":"北山町","koaza":"大杉","lat":34.028385,"lng":134.525931,"version":"13.0b/18.0a"},{"town":"渋野町","koaza":"佐野","lat":34.003843,"lng":134.529166,"version":"13.0b/18.0a"},{"town":"応神町中原","koaza":"七軒原","lat":34.109344,"lng":134.526179,"version":"13.0b/18.0a"},{"town":"方上町","koaza":"宮谷","lat":34.020899,"lng":134.527908,"version":"13.0b/18.0a"},{"town":"応神町吉成","koaza":"中ノ瀬","lat":34.123337,"lng":134.52641,"version":"13.0b/18.0a"},{"town":"応神町吉成","koaza":"只津","lat":34.122407,"lng":134.529472,"version":"13.0b/18.0a"},{"town":"方上町","koaza":"馬越","lat":34.020789,"lng":134.530214,"version":"13.0b/18.0a"},{"town":"応神町吉成","koaza":"前須","lat":34.110335,"lng":134.53077,"version":"13.0b/18.0a"},{"town":"応神町吉成","koaza":"轟","lat":34.119564,"lng":134.530032,"version":"13.0b/18.0a"},{"town":"応神町吉成","koaza":"長田","lat":34.115216,"lng":134.530279,"version":"13.0b/18.0a"},{"town":"多家良町","koaza":"神南","lat":33.993338,"lng":134.529879,"version":"13.0b/18.0a"},{"town":"方上町","koaza":"大食","lat":34.017959,"lng":134.531486,"version":"13.0b/18.0a"},{"town":"北山町","koaza":"合仁木","lat":34.026368,"lng":134.529482,"version":"13.0b/18.0a"},{"town":"渋野町","koaza":"三ツ岩","lat":34.010472,"lng":134.531698,"version":"13.0b/18.0a"},{"town":"大谷町","koaza":"上地","lat":34.031198,"lng":134.529513,"version":"13.0b/18.0a"},{"town":"多家良町","koaza":"北地","lat":33.994584,"lng":134.533713,"version":"13.0b/18.0a"},{"town":"北山町","koaza":"上屋敷","lat":34.028304,"lng":134.528974,"version":"13.0b/18.0a"},{"town":"多家良町","koaza":"立岩","lat":33.98542,"lng":134.529406,"version":"13.0b/18.0a"},{"town":"多家良町","koaza":"金谷","lat":33.986883,"lng":134.530328,"version":"13.0b/18.0a"},{"town":"方上町","koaza":"馬場ノ上","lat":34.017545,"lng":134.528759,"version":"13.0b/18.0a"},{"town":"大谷町","koaza":"大縄手","lat":34.032348,"lng":134.535336,"version":"13.0b/18.0a"},{"town":"八万町","koaza":"福万山","lat":34.056213,"lng":134.529785,"version":"13.0b/18.0a"},{"town":"八万町","koaza":"下福万","lat":34.051613,"lng":134.53182,"version":"13.0b/18.0a"},{"town":"北山町","koaza":"羽渕","lat":34.028337,"lng":134.531585,"version":"13.0b/18.0a"},{"town":"八万町","koaza":"中津山","lat":34.061479,"lng":134.536027,"version":"13.0b/18.0a"},{"town":"方上町","koaza":"寺内","lat":34.019153,"lng":134.530684,"version":"13.0b/18.0a"},{"town":"飯谷町","koaza":"小竹","lat":33.959832,"lng":134.541737,"version":"13.0b/18.0a"},{"town":"応神町吉成","koaza":"有天","lat":34.113219,"lng":134.533226,"version":"13.0b/18.0a"},{"town":"八万町","koaza":"橋本","lat":34.045084,"lng":134.532965,"version":"13.0b/18.0a"},{"town":"北山町","koaza":"縄手","lat":34.027424,"lng":134.532407,"version":"13.0b/18.0a"},{"town":"渋野町","koaza":"樫田","lat":34.004905,"lng":134.531705,"version":"13.0b/18.0a"},{"town":"多家良町","koaza":"小路地","lat":33.991515,"lng":134.533539,"version":"13.0b/18.0a"},{"town":"大谷町","koaza":"琵琶首","lat":34.032261,"lng":134.53295,"version":"13.0b/18.0a"},{"town":"方上町","koaza":"合ノ町","lat":34.021591,"lng":134.533447,"version":"13.0b/18.0a"},{"town":"渋野町","koaza":"伊予王子","lat":34.008069,"lng":134.534936,"version":"13.0b/18.0a"},{"town":"大谷町","koaza":"九日田","lat":34.031105,"lng":134.533364,"version":"13.0b/18.0a"},{"town":"大谷町","koaza":"紅葉山","lat":34.03505,"lng":134.53492,"version":"13.0b/18.0a"},{"town":"渋野町","koaza":"岩鼻","lat":34.003293,"lng":134.534702,"version":"13.0b/18.0a"},{"town":"方上町","koaza":"ハリウ","lat":34.020901,"lng":134.534049,"version":"13.0b/18.0a"},{"town":"飯谷町","koaza":"枇杷ノ久保","lat":33.983752,"lng":134.542613,"version":"13.0b/18.0a"},{"town":"渋野町","koaza":"日開谷","lat":34.012767,"lng":134.538291,"version":"13.0b/18.0a"},{"town":"方上町","koaza":"中内","lat":34.01635,"lng":134.534454,"version":"13.0b/18.0a"},{"town":"大谷町","koaza":"梅ノ井","lat":34.034772,"lng":134.533094,"version":"13.0b/18.0a"},{"town":"大谷町","koaza":"柳ノ窪","lat":34.031571,"lng":134.532992,"version":"13.0b/18.0a"},{"town":"八万町","koaza":"夷山","lat":34.046819,"lng":134.536176,"version":"13.0b/18.0a"},{"town":"北山町","koaza":"松ノ木","lat":34.029535,"lng":134.534175,"version":"13.0b/18.0a"},{"town":"応神町中原","koaza":"宮ノ前","lat":34.10866,"lng":134.534594,"version":"13.0b/18.0a"},{"town":"北山町","koaza":"神ノ前","lat":34.026905,"lng":134.533634,"version":"13.0b/18.0a"},{"town":"応神町中原","koaza":"宮ノ東","lat":34.111361,"lng":134.534716,"version":"13.0b/18.0a"},{"town":"八万町","koaza":"千鳥","lat":34.05096,"lng":134.535305,"version":"13.0b/18.0a"},{"town":"渋野町","koaza":"町田","lat":34.006925,"lng":134.534666,"version":"13.0b/18.0a"},{"town":"北山町","koaza":"神脇","lat":34.027336,"lng":134.534943,"version":"13.0b/18.0a"},{"town":"多家良町","koaza":"中筋","lat":33.993626,"lng":134.536861,"version":"13.0b/18.0a"},{"town":"大谷町","koaza":"谷端","lat":34.032134,"lng":134.536324,"version":"13.0b/18.0a"},{"town":"北山町","koaza":"下地","lat":34.025392,"lng":134.534527,"version":"13.0b/18.0a"},{"town":"大谷町","koaza":"南谷","lat":34.030458,"lng":134.535754,"version":"13.0b/18.0a"},{"town":"北山町","koaza":"蓑越","lat":34.02794,"lng":134.535348,"version":"13.0b/18.0a"},{"town":"方上町","koaza":"舟戸川","lat":34.02268,"lng":134.534986,"version":"13.0b/18.0a"},{"town":"飯谷町","koaza":"山神","lat":33.971835,"lng":134.535611,"version":"13.0b/18.0a"},{"town":"方上町","koaza":"所谷","lat":34.017251,"lng":134.537112,"version":"13.0b/18.0a"},{"town":"渋野町","koaza":"西池","lat":34.004594,"lng":134.535955,"version":"13.0b/18.0a"},{"town":"北山町","koaza":"池ノ内","lat":34.025178,"lng":134.53502,"version":"13.0b/18.0a"},{"town":"八万町","koaza":"下千鳥","lat":34.052746,"lng":134.535462,"version":"13.0b/18.0a"},{"town":"北山町","koaza":"銭亀坂","lat":34.028107,"lng":134.53609,"version":"13.0b/18.0a"},{"town":"八万町","koaza":"川南","lat":34.045306,"lng":134.539846,"version":"13.0b/18.0a"},{"town":"応神町中原","koaza":"中原","lat":34.1089,"lng":134.537431,"version":"13.0b/18.0a"},{"town":"北山町","koaza":"岩崎","lat":34.024314,"lng":134.536349,"version":"13.0b/18.0a"},{"town":"八万町","koaza":"橋北","lat":34.041926,"lng":134.537844,"version":"13.0b/18.0a"},{"town":"南二軒屋町","koaza":"石井利","lat":34.053035,"lng":134.537397,"version":"13.0b/18.0a"},{"town":"大谷町","koaza":"野見松","lat":34.032843,"lng":134.536041,"version":"13.0b/18.0a"},{"town":"飯谷町","koaza":"道ノ下","lat":33.970861,"lng":134.537102,"version":"13.0b/18.0a"},{"town":"渋野町","koaza":"片山","lat":34.009027,"lng":134.537093,"version":"13.0b/18.0a"},{"town":"応神町中原","koaza":"サナギ","lat":34.110474,"lng":134.538484,"version":"13.0b/18.0a"},{"town":"大谷町","koaza":"大開","lat":34.035188,"lng":134.538195,"version":"13.0b/18.0a"},{"town":"方上町","koaza":"東浦","lat":34.02031,"lng":134.537214,"version":"13.0b/18.0a"},{"town":"飯谷町","koaza":"居内","lat":33.971391,"lng":134.538944,"version":"13.0b/18.0a"},{"town":"八万町","koaza":"内浜","lat":34.050146,"lng":134.540118,"version":"13.0b/18.0a"},{"town":"北山町","koaza":"下田尻","lat":34.025406,"lng":134.538326,"version":"13.0b/18.0a"},{"town":"飯谷町","koaza":"棟","lat":33.96252,"lng":134.539492,"version":"13.0b/18.0a"},{"town":"大谷町","koaza":"南ノ前","lat":34.031924,"lng":134.537242,"version":"13.0b/18.0a"},{"town":"多家良町","koaza":"北内","lat":33.999476,"lng":134.541786,"version":"13.0b/18.0a"},{"town":"北山町","koaza":"船附","lat":34.02742,"lng":134.538714,"version":"13.0b/18.0a"},{"town":"多家良町","koaza":"上宝","lat":33.990309,"lng":134.537934,"version":"13.0b/18.0a"},{"town":"渋野町","koaza":"俵生","lat":34.008556,"lng":134.537432,"version":"13.0b/18.0a"},{"town":"大谷町","koaza":"壱里松","lat":34.032599,"lng":134.538801,"version":"13.0b/18.0a"},{"town":"丈六町","koaza":"山根","lat":34.010042,"lng":134.543912,"version":"13.0b/18.0a"},{"town":"大谷町","koaza":"猿楽","lat":34.030774,"lng":134.538253,"version":"13.0b/18.0a"},{"town":"大谷町","koaza":"長開","lat":34.034058,"lng":134.5392,"version":"13.0b/18.0a"},{"town":"八万町","koaza":"法花","lat":34.039544,"lng":134.540788,"version":"13.0b/18.0a"},{"town":"飯谷町","koaza":"日ノ浦","lat":33.96767,"lng":134.543706,"version":"13.0b/18.0a"},{"town":"多家良町","koaza":"臼谷","lat":33.996094,"lng":134.540058,"version":"13.0b/18.0a"},{"town":"応神町古川","koaza":"高良","lat":34.108251,"lng":134.542225,"version":"13.0b/18.0a"},{"town":"方上町","koaza":"尾羽丁","lat":34.020754,"lng":134.542203,"version":"13.0b/18.0a"},{"town":"方上町","koaza":"桜谷","lat":34.020348,"lng":134.539372,"version":"13.0b/18.0a"},{"town":"方上町","koaza":"中須賀","lat":34.027529,"lng":134.540671,"version":"13.0b/18.0a"},{"town":"大谷町","koaza":"新堤","lat":34.035675,"lng":134.541059,"version":"13.0b/18.0a"},{"town":"北山町","koaza":"中須賀","lat":34.030738,"lng":134.540192,"version":"13.0b/18.0a"},{"town":"西須賀町","koaza":"囲入","lat":34.033341,"lng":134.54076,"version":"13.0b/18.0a"},{"town":"方上町","koaza":"上六拾間","lat":34.021064,"lng":134.540941,"version":"13.0b/18.0a"},{"town":"応神町古川","koaza":"宮ノ前","lat":34.106866,"lng":134.541236,"version":"13.0b/18.0a"},{"town":"渋野町","koaza":"浅田","lat":34.011834,"lng":134.541038,"version":"13.0b/18.0a"},{"town":"方上町","koaza":"中開","lat":34.022724,"lng":134.541291,"version":"13.0b/18.0a"},{"town":"八万町","koaza":"犬山","lat":34.040233,"lng":134.544518,"version":"13.0b/18.0a"},{"town":"飯谷町","koaza":"地田","lat":33.963894,"lng":134.541653,"version":"13.0b/18.0a"},{"town":"丈六町","koaza":"休場","lat":34.004515,"lng":134.543868,"version":"13.0b/18.0a"},{"town":"飯谷町","koaza":"奥ノ谷","lat":33.978047,"lng":134.547346,"version":"13.0b/18.0a"},{"town":"多家良町","koaza":"宮ノ下","lat":33.995154,"lng":134.54163,"version":"13.0b/18.0a"},{"town":"丈六町","koaza":"栗田","lat":34.012134,"lng":134.544584,"version":"13.0b/18.0a"},{"town":"丈六町","koaza":"長尾","lat":34.005336,"lng":134.543851,"version":"13.0b/18.0a"},{"town":"八万町","koaza":"弐丈","lat":34.045153,"lng":134.543353,"version":"13.0b/18.0a"},{"town":"西須賀町","koaza":"又新堤","lat":34.034973,"lng":134.542721,"version":"13.0b/18.0a"},{"town":"西須賀町","koaza":"葛島","lat":34.030915,"lng":134.545144,"version":"13.0b/18.0a"},{"town":"多家良町","koaza":"名護","lat":33.988299,"lng":134.542739,"version":"13.0b/18.0a"},{"town":"多家良町","koaza":"占台","lat":33.990225,"lng":134.544683,"version":"13.0b/18.0a"},{"town":"西須賀町","koaza":"喜右衛門開","lat":34.032616,"lng":134.543377,"version":"13.0b/18.0a"},{"town":"丈六町","koaza":"丈領","lat":34.004573,"lng":134.547599,"version":"13.0b/18.0a"},{"town":"眉山町","koaza":"大滝山","lat":34.072451,"lng":134.542916,"version":"13.0b/18.0a"},{"town":"方上町","koaza":"六拾間","lat":34.021726,"lng":134.543031,"version":"13.0b/18.0a"},{"town":"飯谷町","koaza":"牛屋谷","lat":33.968653,"lng":134.54252,"version":"13.0b/18.0a"},{"town":"飯谷町","koaza":"岩名","lat":33.966937,"lng":134.54507,"version":"13.0b/18.0a"},{"town":"方上町","koaza":"切戸","lat":34.02545,"lng":134.544205,"version":"13.0b/18.0a"},{"town":"応神町古川","koaza":"東中道","lat":34.106783,"lng":134.545088,"version":"13.0b/18.0a"},{"town":"三軒屋町","koaza":"外","lat":34.038934,"lng":134.546583,"version":"13.0b/18.0a"},{"town":"西須賀町","koaza":"下中須","lat":34.030987,"lng":134.549327,"version":"13.0b/18.0a"},{"town":"多家良町","koaza":"甫毛ノ脇","lat":33.987223,"lng":134.544261,"version":"13.0b/18.0a"},{"town":"応神町古川","koaza":"東","lat":34.104729,"lng":134.547005,"version":"13.0b/18.0a"},{"town":"多家良町","koaza":"下開","lat":33.998358,"lng":134.545542,"version":"13.0b/18.0a"},{"town":"方上町","koaza":"下中山","lat":34.020988,"lng":134.544366,"version":"13.0b/18.0a"},{"town":"飯谷町","koaza":"宮ケ谷","lat":33.967914,"lng":134.544277,"version":"13.0b/18.0a"},{"town":"飯谷町","koaza":"嘉重","lat":33.964277,"lng":134.544604,"version":"13.0b/18.0a"},{"town":"方上町","koaza":"高坂","lat":34.022402,"lng":134.545073,"version":"13.0b/18.0a"},{"town":"多家良町","koaza":"野上","lat":33.99159,"lng":134.545208,"version":"13.0b/18.0a"},{"town":"三軒屋町","koaza":"西","lat":34.034036,"lng":134.545143,"version":"13.0b/18.0a"},{"town":"勝占町","koaza":"中山","lat":34.020184,"lng":134.547241,"version":"13.0b/18.0a"},{"town":"丈六町","koaza":"新居田","lat":34.007063,"lng":134.545238,"version":"13.0b/18.0a"},{"town":"丈六町","koaza":"小谷","lat":34.013578,"lng":134.545674,"version":"13.0b/18.0a"},{"town":"方上町","koaza":"鶴島","lat":34.024845,"lng":134.546185,"version":"13.0b/18.0a"},{"town":"丈六町","koaza":"八斗代","lat":34.010361,"lng":134.54683,"version":"13.0b/18.0a"},{"town":"西須賀町","koaza":"西開","lat":34.028386,"lng":134.546577,"version":"13.0b/18.0a"},{"town":"西須賀町","koaza":"東開","lat":34.031163,"lng":134.546313,"version":"13.0b/18.0a"},{"town":"勝占町","koaza":"半谷","lat":34.021466,"lng":134.546591,"version":"13.0b/18.0a"},{"town":"八万町","koaza":"沖須賀","lat":34.046048,"lng":134.550164,"version":"13.0b/18.0a"},{"town":"三軒屋町","koaza":"上分","lat":34.035252,"lng":134.548469,"version":"13.0b/18.0a"},{"town":"多家良町","koaza":"吉田","lat":34.001094,"lng":134.545824,"version":"13.0b/18.0a"},{"town":"飯谷町","koaza":"川端","lat":33.966034,"lng":134.545216,"version":"13.0b/18.0a"},{"town":"丈六町","koaza":"八万免","lat":34.010133,"lng":134.548274,"version":"13.0b/18.0a"},{"town":"沖浜町","koaza":"明治開","lat":34.05077,"lng":134.54752,"version":"13.0b/18.0a"},{"town":"飯谷町","koaza":"高良","lat":33.985654,"lng":134.548873,"version":"13.0b/18.0a"},{"town":"飯谷町","koaza":"本谷","lat":33.979628,"lng":134.546993,"version":"13.0b/18.0a"},{"town":"飯谷町","koaza":"大ノ上","lat":33.979308,"lng":134.552674,"version":"13.0b/18.0a"},{"town":"勝占町","koaza":"片志","lat":34.015719,"lng":134.547902,"version":"13.0b/18.0a"},{"town":"西須賀町","koaza":"中開","lat":34.028085,"lng":134.548622,"version":"13.0b/18.0a"},{"town":"丈六町","koaza":"山端","lat":34.005708,"lng":134.547945,"version":"13.0b/18.0a"},{"town":"南二軒屋町","koaza":"新開","lat":34.053447,"lng":134.54722,"version":"13.0b/18.0a"},{"town":"多家良町","koaza":"中開","lat":33.996659,"lng":134.546585,"version":"13.0b/18.0a"},{"town":"飯谷町","koaza":"下沖野","lat":33.983954,"lng":134.549322,"version":"13.0b/18.0a"},{"town":"飯谷町","koaza":"西分","lat":33.965546,"lng":134.549752,"version":"13.0b/18.0a"},{"town":"応神町古川","koaza":"北","lat":34.106415,"lng":134.550153,"version":"13.0b/18.0a"},{"town":"西須賀町","koaza":"鶴島","lat":34.024564,"lng":134.547321,"version":"13.0b/18.0a"},{"town":"丈六町","koaza":"行正","lat":34.011842,"lng":134.547497,"version":"13.0b/18.0a"},{"town":"沖浜町","koaza":"栄開","lat":34.053051,"lng":134.547883,"version":"13.0b/18.0a"},{"town":"飯谷町","koaza":"上里","lat":33.968412,"lng":134.550673,"version":"13.0b/18.0a"},{"town":"南二軒屋町","koaza":"神成","lat":34.054617,"lng":134.547433,"version":"13.0b/18.0a"},{"town":"八万町","koaza":"大野","lat":34.042732,"lng":134.551118,"version":"13.0b/18.0a"},{"town":"丈六町","koaza":"西内","lat":34.008301,"lng":134.548614,"version":"13.0b/18.0a"},{"town":"沖浜町","koaza":"南開","lat":34.050216,"lng":134.548386,"version":"13.0b/18.0a"},{"town":"勝占町","koaza":"多々羅","lat":34.014914,"lng":134.548144,"version":"13.0b/18.0a"},{"town":"三軒屋町","koaza":"下分","lat":34.037342,"lng":134.551751,"version":"13.0b/18.0a"},{"town":"丈六町","koaza":"山脇","lat":34.004946,"lng":134.548849,"version":"13.0b/18.0a"},{"town":"沖浜町","koaza":"大木","lat":34.05079,"lng":134.549353,"version":"13.0b/18.0a"},{"town":"沖浜町","koaza":"居屋敷","lat":34.052148,"lng":134.549569,"version":"13.0b/18.0a"},{"town":"沖浜町","koaza":"西畑","lat":34.054938,"lng":134.549804,"version":"13.0b/18.0a"},{"town":"勝占町","koaza":"惣田","lat":34.021823,"lng":134.550224,"version":"13.0b/18.0a"},{"town":"応神町古川","koaza":"井利ノ元","lat":34.102922,"lng":134.550124,"version":"13.0b/18.0a"},{"town":"丈六町","koaza":"大白井","lat":34.012753,"lng":134.549971,"version":"13.0b/18.0a"},{"town":"丈六町","koaza":"門前","lat":34.006592,"lng":134.549982,"version":"13.0b/18.0a"},{"town":"沖浜町","koaza":"北畑","lat":34.056521,"lng":134.550113,"version":"13.0b/18.0a"},{"town":"勝占町","koaza":"山下","lat":34.016978,"lng":134.550943,"version":"13.0b/18.0a"},{"town":"勝占町","koaza":"原","lat":34.024009,"lng":134.550158,"version":"13.0b/18.0a"},{"town":"飯谷町","koaza":"手城","lat":33.977575,"lng":134.551676,"version":"13.0b/18.0a"},{"town":"飯谷町","koaza":"東分","lat":33.966186,"lng":134.555139,"version":"13.0b/18.0a"},{"town":"沖浜町","koaza":"中道","lat":34.053461,"lng":134.550064,"version":"13.0b/18.0a"},{"town":"勝占町","koaza":"松成","lat":34.019983,"lng":134.552192,"version":"13.0b/18.0a"},{"town":"丈六町","koaza":"柿町","lat":34.011227,"lng":134.551413,"version":"13.0b/18.0a"},{"town":"川内町","koaza":"榎瀬","lat":34.109799,"lng":134.558016,"version":"13.0b/18.0a"},{"town":"三軒屋町","koaza":"東","lat":34.03275,"lng":134.551075,"version":"13.0b/18.0a"},{"town":"丈六町","koaza":"西高木","lat":34.014849,"lng":134.551414,"version":"13.0b/18.0a"},{"town":"飯谷町","koaza":"西沖野","lat":33.98668,"lng":134.554515,"version":"13.0b/18.0a"},{"town":"丈六町","koaza":"篠原","lat":34.009926,"lng":134.550706,"version":"13.0b/18.0a"},{"town":"沖浜町","koaza":"東畑","lat":34.054785,"lng":134.551397,"version":"13.0b/18.0a"},{"town":"勝占町","koaza":"下多々羅","lat":34.023981,"lng":134.550675,"version":"13.0b/18.0a"},{"town":"勝占町","koaza":"中須","lat":34.022366,"lng":134.55413,"version":"13.0b/18.0a"},{"town":"応神町古川","koaza":"戎子野","lat":34.103695,"lng":134.555618,"version":"13.0b/18.0a"},{"town":"丈六町","koaza":"溝筋","lat":34.00795,"lng":134.551362,"version":"13.0b/18.0a"},{"town":"丈六町","koaza":"八反田","lat":34.012157,"lng":134.552692,"version":"13.0b/18.0a"},{"town":"沖浜町","koaza":"北川","lat":34.056549,"lng":134.552229,"version":"13.0b/18.0a"},{"town":"大松町","koaza":"西奥外","lat":34.027626,"lng":134.553177,"version":"13.0b/18.0a"},{"town":"大松町","koaza":"榎原外","lat":34.023277,"lng":134.555093,"version":"13.0b/18.0a"},{"town":"丈六町","koaza":"森ノ木","lat":34.01001,"lng":134.554232,"version":"13.0b/18.0a"},{"town":"丈六町","koaza":"ハヤサミ","lat":34.006663,"lng":134.552981,"version":"13.0b/18.0a"},{"town":"飯谷町","koaza":"東沖野","lat":33.981348,"lng":134.556426,"version":"13.0b/18.0a"},{"town":"勝占町","koaza":"下河原","lat":34.020344,"lng":134.553417,"version":"13.0b/18.0a"},{"town":"勝占町","koaza":"敷地","lat":34.016132,"lng":134.554709,"version":"13.0b/18.0a"},{"town":"飯谷町","koaza":"下里","lat":33.968542,"lng":134.553328,"version":"13.0b/18.0a"},{"town":"雑賀町","koaza":"西開","lat":34.039194,"lng":134.55709,"version":"13.0b/18.0a"},{"town":"大松町","koaza":"上西奥","lat":34.027597,"lng":134.554208,"version":"13.0b/18.0a"},{"town":"雑賀町","koaza":"中大開","lat":34.035439,"lng":134.55433,"version":"13.0b/18.0a"},{"town":"雑賀町","koaza":"上大開","lat":34.033726,"lng":134.554277,"version":"13.0b/18.0a"},{"town":"大松町","koaza":"上野神","lat":34.023646,"lng":134.553822,"version":"13.0b/18.0a"},{"town":"大松町","koaza":"下西奥","lat":34.03169,"lng":134.553914,"version":"13.0b/18.0a"},{"town":"雑賀町","koaza":"下大開","lat":34.038159,"lng":134.55576,"version":"13.0b/18.0a"},{"town":"飯谷町","koaza":"平畑","lat":33.983583,"lng":134.55434,"version":"13.0b/18.0a"},{"town":"勝占町","koaza":"下敷地","lat":34.018077,"lng":134.555061,"version":"13.0b/18.0a"},{"town":"応神町古川","koaza":"日ノ上","lat":34.100896,"lng":134.557913,"version":"13.0b/18.0a"},{"town":"飯谷町","koaza":"楠ノ上","lat":33.97464,"lng":134.55628,"version":"13.0b/18.0a"},{"town":"大松町","koaza":"大久保","lat":34.025932,"lng":134.556617,"version":"13.0b/18.0a"},{"town":"飯谷町","koaza":"杉尾","lat":33.969771,"lng":134.556188,"version":"13.0b/18.0a"},{"town":"勝占町","koaza":"外敷地","lat":34.016278,"lng":134.556414,"version":"13.0b/18.0a"},{"town":"川内町","koaza":"中島","lat":34.116592,"lng":134.563828,"version":"13.0b/18.0a"},{"town":"雑賀町","koaza":"北開西","lat":34.036396,"lng":134.557339,"version":"13.0b/18.0a"},{"town":"大松町","koaza":"上ノ口","lat":34.022684,"lng":134.558129,"version":"13.0b/18.0a"},{"town":"飯谷町","koaza":"白金谷","lat":33.986275,"lng":134.562058,"version":"13.0b/18.0a"},{"town":"飯谷町","koaza":"南ノ内","lat":33.977856,"lng":134.558208,"version":"13.0b/18.0a"},{"town":"飯谷町","koaza":"干飯","lat":33.976206,"lng":134.558718,"version":"13.0b/18.0a"},{"town":"山城町","koaza":"西浜傍示","lat":34.0519,"lng":134.558973,"version":"13.0b/18.0a"},{"town":"山城町","koaza":"東浜傍示","lat":34.050254,"lng":134.560954,"version":"13.0b/18.0a"},{"town":"大松町","koaza":"宮ノ本","lat":34.024072,"lng":134.558459,"version":"13.0b/18.0a"},{"town":"大松町","koaza":"鰯口","lat":34.029162,"lng":134.55879,"version":"13.0b/18.0a"},{"town":"大松町","koaza":"塚田","lat":34.02355,"lng":134.559226,"version":"13.0b/18.0a"},{"town":"雑賀町","koaza":"北開東","lat":34.037584,"lng":134.559813,"version":"13.0b/18.0a"},{"town":"大松町","koaza":"高曽根","lat":34.026816,"lng":134.559396,"version":"13.0b/18.0a"},{"town":"川内町","koaza":"北原","lat":34.10189,"lng":134.563257,"version":"13.0b/18.0a"},{"town":"大松町","koaza":"緑","lat":34.027169,"lng":134.559939,"version":"13.0b/18.0a"},{"town":"雑賀町","koaza":"東開","lat":34.040432,"lng":134.562665,"version":"13.0b/18.0a"},{"town":"論田町","koaza":"本浦中","lat":34.033435,"lng":134.563571,"version":"13.0b/18.0a"},{"town":"川内町","koaza":"上別宮南","lat":34.099245,"lng":134.56398,"version":"13.0b/18.0a"},{"town":"論田町","koaza":"本浦上","lat":34.030386,"lng":134.563657,"version":"13.0b/18.0a"},{"town":"飯谷町","koaza":"長田","lat":33.982264,"lng":134.565463,"version":"13.0b/18.0a"},{"town":"論田町","koaza":"本浦下","lat":34.034593,"lng":134.565218,"version":"13.0b/18.0a"},{"town":"大原町","koaza":"野神","lat":34.026643,"lng":134.564869,"version":"13.0b/18.0a"},{"town":"大原町","koaza":"千代ケ丸山","lat":34.021577,"lng":134.5669,"version":"13.0b/18.0a"},{"town":"大原町","koaza":"千代ケ丸","lat":34.025592,"lng":134.566795,"version":"13.0b/18.0a"},{"town":"大原町","koaza":"川添","lat":34.021696,"lng":134.564955,"version":"13.0b/18.0a"},{"town":"川内町","koaza":"沖島","lat":34.105309,"lng":134.573932,"version":"13.0b/18.0a"},{"town":"大原町","koaza":"中須","lat":34.028896,"lng":134.566762,"version":"13.0b/18.0a"},{"town":"川内町","koaza":"上別宮東","lat":34.099264,"lng":134.567137,"version":"13.0b/18.0a"},{"town":"川内町","koaza":"金岡","lat":34.09757,"lng":134.568285,"version":"13.0b/18.0a"},{"town":"川内町","koaza":"加賀須野","lat":34.118052,"lng":134.59006,"version":"13.0b/18.0a"},{"town":"川内町","koaza":"上別宮北","lat":34.102062,"lng":134.56669,"version":"13.0b/18.0a"},{"town":"川内町","koaza":"大松","lat":34.117906,"lng":134.574444,"version":"13.0b/18.0a"},{"town":"論田町","koaza":"小論田","lat":34.036284,"lng":134.567212,"version":"13.0b/18.0a"},{"town":"論田町","koaza":"大江","lat":34.03767,"lng":134.567452,"version":"13.0b/18.0a"},{"town":"川内町","koaza":"鈴江西","lat":34.10245,"lng":134.568717,"version":"13.0b/18.0a"},{"town":"大原町","koaza":"外籠","lat":34.033869,"lng":134.56854,"version":"13.0b/18.0a"},{"town":"論田町","koaza":"和太開","lat":34.038459,"lng":134.569388,"version":"13.0b/18.0a"},{"town":"大原町","koaza":"広裏","lat":34.031982,"lng":134.582222,"version":"13.0b/18.0a"},{"town":"大原町","koaza":"東千代ケ丸","lat":34.024065,"lng":134.569913,"version":"13.0b/18.0a"},{"town":"大原町","koaza":"内開","lat":34.026612,"lng":134.56986,"version":"13.0b/18.0a"},{"town":"川内町","koaza":"竹須賀","lat":34.10856,"lng":134.573706,"version":"13.0b/18.0a"},{"town":"大原町","koaza":"掛り","lat":34.030958,"lng":134.572677,"version":"13.0b/18.0a"},{"town":"論田町","koaza":"元開","lat":34.037555,"lng":134.571374,"version":"13.0b/18.0a"},{"town":"大原町","koaza":"長尾","lat":34.030364,"lng":134.574082,"version":"13.0b/18.0a"},{"town":"川内町","koaza":"鈴江南","lat":34.09633,"lng":134.571262,"version":"13.0b/18.0a"},{"town":"大原町","koaza":"余慶","lat":34.027265,"lng":134.571824,"version":"13.0b/18.0a"},{"town":"大原町","koaza":"池ノ内","lat":34.02477,"lng":134.57255,"version":"13.0b/18.0a"},{"town":"大原町","koaza":"池内山","lat":34.023439,"lng":134.572827,"version":"13.0b/18.0a"},{"town":"川内町","koaza":"鶴島","lat":34.094886,"lng":134.577044,"version":"13.0b/18.0a"},{"town":"川内町","koaza":"鈴江北","lat":34.099562,"lng":134.573392,"version":"13.0b/18.0a"},{"town":"大原町","koaza":"籠","lat":34.033326,"lng":134.575289,"version":"13.0b/18.0a"},{"town":"論田町","koaza":"中開","lat":34.037564,"lng":134.573817,"version":"13.0b/18.0a"},{"town":"大原町","koaza":"壱町地","lat":34.02751,"lng":134.576252,"version":"13.0b/18.0a"},{"town":"論田町","koaza":"新開","lat":34.036575,"lng":134.576273,"version":"13.0b/18.0a"},{"town":"大原町","koaza":"於庄谷","lat":34.025579,"lng":134.57618,"version":"13.0b/18.0a"},{"town":"川内町","koaza":"平石古田","lat":34.109935,"lng":134.57909,"version":"13.0b/18.0a"},{"town":"川内町","koaza":"鈴江東","lat":34.098947,"lng":134.577595,"version":"13.0b/18.0a"},{"town":"川内町","koaza":"平石夷野","lat":34.118242,"lng":134.583011,"version":"13.0b/18.0a"},{"town":"大原町","koaza":"三ツ谷","lat":34.025666,"lng":134.577132,"version":"13.0b/18.0a"},{"town":"川内町","koaza":"平石若宮","lat":34.103984,"lng":134.58148,"version":"13.0b/18.0a"},{"town":"大原町","koaza":"糠坪","lat":34.028019,"lng":134.577906,"version":"13.0b/18.0a"},{"town":"川内町","koaza":"平石住吉","lat":34.114007,"lng":134.582474,"version":"13.0b/18.0a"},{"town":"川内町","koaza":"宮島錦野","lat":34.094881,"lng":134.58118,"version":"13.0b/18.0a"},{"town":"川内町","koaza":"宮島浜","lat":34.098989,"lng":134.583934,"version":"13.0b/18.0a"},{"town":"川内町","koaza":"平石若松","lat":34.109528,"lng":134.584114,"version":"13.0b/18.0a"},{"town":"川内町","koaza":"富吉","lat":34.100343,"lng":134.587973,"version":"13.0b/18.0a"},{"town":"川内町","koaza":"宮島本浦","lat":34.092955,"lng":134.584453,"version":"13.0b/18.0a"},{"town":"大原町","koaza":"大神子","lat":34.031773,"lng":134.585416,"version":"13.0b/18.0a"},{"town":"川内町","koaza":"平石流通団地","lat":34.107007,"lng":134.586439,"version":"13.0b/18.0a"},{"town":"川内町","koaza":"小松西","lat":34.089475,"lng":134.589323,"version":"13.0b/18.0a"},{"town":"大原町","koaza":"浜","lat":34.030297,"lng":134.587039,"version":"13.0b/18.0a"},{"town":"川内町","koaza":"富久","lat":34.106761,"lng":134.591279,"version":"13.0b/18.0a"},{"town":"川内町","koaza":"松岡","lat":34.095707,"lng":134.587682,"version":"13.0b/18.0a"},{"town":"川内町","koaza":"米津","lat":34.11314,"lng":134.590579,"version":"13.0b/18.0a"},{"town":"川内町","koaza":"下別宮西","lat":34.094053,"lng":134.59133,"version":"13.0b/18.0a"},{"town":"川内町","koaza":"下別宮東","lat":34.095181,"lng":134.592982,"version":"13.0b/18.0a"},{"town":"川内町","koaza":"小松東","lat":34.088006,"lng":134.594339,"version":"13.0b/18.0a"},{"town":"川内町","koaza":"小松北","lat":34.092429,"lng":134.59572,"version":"13.0b/18.0a"},{"town":"大原町","koaza":"小神子","lat":34.019866,"lng":134.596591,"version":"13.0b/18.0a"},{"town":"川内町","koaza":"旭野","lat":34.092297,"lng":134.599619,"version":"13.0b/18.0a"},{"town":"大原町","koaza":"小神子山","lat":34.021678,"lng":134.597216,"version":"13.0b/18.0a"},{"town":"飯谷町","koaza":"西柳谷","lat":33.979069,"lng":134.541798,"version":"13.0b/18.0a"},{"town":"応神町古川","koaza":"鯛ノ浜添","lat":34.110213,"lng":134.551517,"version":"13.0b/18.0a"},{"town":"藍場町一丁目","koaza":"","lat":34.073407,"lng":134.548083,"version":"14.0b/19.0a"},{"town":"藍場町二丁目","koaza":"","lat":34.074604,"lng":134.546918,"version":"14.0b/19.0a"},{"town":"秋田町一丁目","koaza":"","lat":34.06588,"lng":134.549536,"version":"14.0b/19.0a"},{"town":"秋田町二丁目","koaza":"","lat":34.064247,"lng":134.549739,"version":"14.0b/19.0a"},{"town":"秋田町三丁目","koaza":"","lat":34.062963,"lng":134.549342,"version":"14.0b/19.0a"},{"town":"秋田町四丁目","koaza":"","lat":34.061556,"lng":134.549272,"version":"14.0b/19.0a"},{"town":"秋田町五丁目","koaza":"","lat":34.059945,"lng":134.549161,"version":"14.0b/19.0a"},{"town":"秋田町六丁目","koaza":"","lat":34.058606,"lng":134.549099,"version":"14.0b/19.0a"},{"town":"鮎喰町一丁目","koaza":"","lat":34.072534,"lng":134.503629,"version":"14.0b/19.0a"},{"town":"鮎喰町二丁目","koaza":"","lat":34.072533,"lng":134.500579,"version":"14.0b/19.0a"},{"town":"安宅一丁目","koaza":"","lat":34.070565,"lng":134.571522,"version":"14.0b/19.0a"},{"town":"安宅二丁目","koaza":"","lat":34.070649,"lng":134.57533,"version":"14.0b/19.0a"},{"town":"安宅三丁目","koaza":"","lat":34.069668,"lng":134.578881,"version":"14.0b/19.0a"},{"town":"飯谷町","koaza":"","lat":33.973595,"lng":134.551232,"version":"14.0b/19.0a"},{"town":"伊賀町一丁目","koaza":"","lat":34.06649,"lng":134.544631,"version":"14.0b/19.0a"},{"town":"伊賀町二丁目","koaza":"","lat":34.064678,"lng":134.544501,"version":"14.0b/19.0a"},{"town":"伊賀町三丁目","koaza":"","lat":34.063149,"lng":134.544225,"version":"14.0b/19.0a"},{"town":"伊賀町四丁目","koaza":"","lat":34.06202,"lng":134.544435,"version":"14.0b/19.0a"},{"town":"一宮町","koaza":"","lat":34.029041,"lng":134.470661,"version":"14.0b/19.0a"},{"town":"一番町一丁目","koaza":"","lat":34.072065,"lng":134.55333,"version":"14.0b/19.0a"},{"town":"一番町二丁目","koaza":"","lat":34.072452,"lng":134.552237,"version":"14.0b/19.0a"},{"town":"一番町三丁目","koaza":"","lat":34.072937,"lng":134.551306,"version":"14.0b/19.0a"},{"town":"伊月町一丁目","koaza":"","lat":34.065464,"lng":134.551552,"version":"14.0b/19.0a"},{"town":"伊月町二丁目","koaza":"","lat":34.064245,"lng":134.551071,"version":"14.0b/19.0a"},{"town":"伊月町三丁目","koaza":"","lat":34.062682,"lng":134.550088,"version":"14.0b/19.0a"},{"town":"伊月町四丁目","koaza":"","lat":34.06132,"lng":134.550014,"version":"14.0b/19.0a"},{"town":"伊月町五丁目","koaza":"","lat":34.059829,"lng":134.549786,"version":"14.0b/19.0a"},{"town":"伊月町六丁目","koaza":"","lat":34.05872,"lng":134.549781,"version":"14.0b/19.0a"},{"town":"応神町応神産業団地","koaza":"","lat":34.122362,"lng":134.523069,"version":"14.0b/19.0a"},{"town":"応神町中原","koaza":"","lat":34.108295,"lng":134.535315,"version":"14.0b/19.0a"},{"town":"応神町西貞方","koaza":"","lat":34.115518,"lng":134.509651,"version":"14.0b/19.0a"},{"town":"応神町東貞方","koaza":"","lat":34.113959,"lng":134.518757,"version":"14.0b/19.0a"},{"town":"応神町古川","koaza":"","lat":34.103249,"lng":134.549209,"version":"14.0b/19.0a"},{"town":"応神町吉成","koaza":"","lat":34.114119,"lng":134.530526,"version":"14.0b/19.0a"},{"town":"大谷町","koaza":"","lat":34.032825,"lng":134.533428,"version":"14.0b/19.0a"},{"town":"大原町","koaza":"","lat":34.027678,"lng":134.576657,"version":"14.0b/19.0a"},{"town":"大松町","koaza":"","lat":34.026142,"lng":134.555503,"version":"14.0b/19.0a"},{"town":"大道一丁目","koaza":"","lat":34.066157,"lng":134.547374,"version":"14.0b/19.0a"},{"town":"大道二丁目","koaza":"","lat":34.064642,"lng":134.547248,"version":"14.0b/19.0a"},{"town":"大道三丁目","koaza":"","lat":34.063023,"lng":134.547249,"version":"14.0b/19.0a"},{"town":"大道四丁目","koaza":"","lat":34.06168,"lng":134.547218,"version":"14.0b/19.0a"},{"town":"沖浜一丁目","koaza":"","lat":34.054986,"lng":134.553132,"version":"14.0b/19.0a"},{"town":"沖浜二丁目","koaza":"","lat":34.053034,"lng":134.552153,"version":"14.0b/19.0a"},{"town":"沖浜三丁目","koaza":"","lat":34.050414,"lng":134.551156,"version":"14.0b/19.0a"},{"town":"沖浜町","koaza":"","lat":34.053244,"lng":134.549406,"version":"14.0b/19.0a"},{"town":"沖浜東一丁目","koaza":"","lat":34.054473,"lng":134.554984,"version":"14.0b/19.0a"},{"town":"沖浜東二丁目","koaza":"","lat":34.052382,"lng":134.554529,"version":"14.0b/19.0a"},{"town":"沖浜東三丁目","koaza":"","lat":34.050379,"lng":134.553806,"version":"14.0b/19.0a"},{"town":"籠屋町一丁目","koaza":"","lat":34.068791,"lng":134.548157,"version":"14.0b/19.0a"},{"town":"籠屋町二丁目","koaza":"","lat":34.067835,"lng":134.547987,"version":"14.0b/19.0a"},{"town":"春日一丁目","koaza":"","lat":34.093815,"lng":134.535301,"version":"14.0b/19.0a"},{"town":"春日二丁目","koaza":"","lat":34.092941,"lng":134.528822,"version":"14.0b/19.0a"},{"town":"春日三丁目","koaza":"","lat":34.09185,"lng":134.525445,"version":"14.0b/19.0a"},{"town":"春日町","koaza":"","lat":34.099467,"lng":134.535684,"version":"14.0b/19.0a"},{"town":"方上町","koaza":"","lat":34.018722,"lng":134.530676,"version":"14.0b/19.0a"},{"town":"かちどき橋一丁目","koaza":"","lat":34.06535,"lng":134.556761,"version":"14.0b/19.0a"},{"town":"かちどき橋二丁目","koaza":"","lat":34.062808,"lng":134.55574,"version":"14.0b/19.0a"},{"town":"かちどき橋三丁目","koaza":"","lat":34.060984,"lng":134.554746,"version":"14.0b/19.0a"},{"town":"かちどき橋四丁目","koaza":"","lat":34.059722,"lng":134.554215,"version":"14.0b/19.0a"},{"town":"かちどき橋五丁目","koaza":"","lat":34.058741,"lng":134.553908,"version":"14.0b/19.0a"},{"town":"かちどき橋六丁目","koaza":"","lat":34.057462,"lng":134.553612,"version":"14.0b/19.0a"},{"town":"勝占町","koaza":"","lat":34.018971,"lng":134.549956,"version":"14.0b/19.0a"},{"town":"金沢一丁目","koaza":"","lat":34.078461,"lng":134.583015,"version":"14.0b/19.0a"},{"town":"金沢二丁目","koaza":"","lat":34.077046,"lng":134.587536,"version":"14.0b/19.0a"},{"town":"上八万町","koaza":"","lat":34.033361,"lng":134.506754,"version":"14.0b/19.0a"},{"town":"上吉野町一丁目","koaza":"","lat":34.088734,"lng":134.5617,"version":"14.0b/19.0a"},{"town":"上吉野町二丁目","koaza":"","lat":34.089723,"lng":134.559829,"version":"14.0b/19.0a"},{"town":"上吉野町三丁目","koaza":"","lat":34.090744,"lng":134.556474,"version":"14.0b/19.0a"},{"town":"加茂名町","koaza":"","lat":34.058538,"lng":134.507412,"version":"14.0b/19.0a"},{"town":"川内町","koaza":"","lat":34.106079,"lng":134.57436,"version":"14.0b/19.0a"},{"town":"北沖洲一丁目","koaza":"","lat":34.070624,"lng":134.583076,"version":"14.0b/19.0a"},{"town":"北沖洲二丁目","koaza":"","lat":34.073826,"lng":134.591007,"version":"14.0b/19.0a"},{"town":"北沖洲三丁目","koaza":"","lat":34.068389,"lng":134.589798,"version":"14.0b/19.0a"},{"town":"北佐古一番町","koaza":"","lat":34.081792,"lng":134.539392,"version":"14.0b/19.0a"},{"town":"北佐古二番町","koaza":"","lat":34.082845,"lng":134.535894,"version":"14.0b/19.0a"},{"town":"北島田町一丁目","koaza":"","lat":34.087473,"lng":134.515713,"version":"14.0b/19.0a"},{"town":"北島田町二丁目","koaza":"","lat":34.085757,"lng":134.513046,"version":"14.0b/19.0a"},{"town":"北島田町三丁目","koaza":"","lat":34.089053,"lng":134.511653,"version":"14.0b/19.0a"},{"town":"北常三島町一丁目","koaza":"","lat":34.081152,"lng":134.561069,"version":"14.0b/19.0a"},{"town":"北常三島町二丁目","koaza":"","lat":34.081562,"lng":134.562719,"version":"14.0b/19.0a"},{"town":"北常三島町三丁目","koaza":"","lat":34.08138,"lng":134.565825,"version":"14.0b/19.0a"},{"town":"北田宮二丁目","koaza":"","lat":34.091273,"lng":134.54188,"version":"14.0b/19.0a"},{"town":"北田宮三丁目","koaza":"","lat":34.089315,"lng":134.536918,"version":"14.0b/19.0a"},{"town":"北田宮四丁目","koaza":"","lat":34.088826,"lng":134.531675,"version":"14.0b/19.0a"},{"town":"北出来島町一丁目","koaza":"","lat":34.078575,"lng":134.547647,"version":"14.0b/19.0a"},{"town":"北出来島町二丁目","koaza":"","lat":34.079506,"lng":134.546021,"version":"14.0b/19.0a"},{"town":"北前川町一丁目","koaza":"","lat":34.080426,"lng":134.555766,"version":"14.0b/19.0a"},{"town":"北前川町二丁目","koaza":"","lat":34.080517,"lng":134.554853,"version":"14.0b/19.0a"},{"town":"北前川町三丁目","koaza":"","lat":34.081067,"lng":134.552903,"version":"14.0b/19.0a"},{"town":"北前川町四丁目","koaza":"","lat":34.081455,"lng":134.550082,"version":"14.0b/19.0a"},{"town":"北前川町五丁目","koaza":"","lat":34.081891,"lng":134.548762,"version":"14.0b/19.0a"},{"town":"北矢三町一丁目","koaza":"","lat":34.087612,"lng":134.527534,"version":"14.0b/19.0a"},{"town":"北矢三町二丁目","koaza":"","lat":34.089093,"lng":134.523714,"version":"14.0b/19.0a"},{"town":"北矢三町三丁目","koaza":"","lat":34.088492,"lng":134.520906,"version":"14.0b/19.0a"},{"town":"北矢三町四丁目","koaza":"","lat":34.087214,"lng":134.518233,"version":"14.0b/19.0a"},{"town":"北山町","koaza":"","lat":34.026984,"lng":134.533686,"version":"14.0b/19.0a"},{"town":"銀座","koaza":"","lat":34.068476,"lng":134.549255,"version":"14.0b/19.0a"},{"town":"蔵本町一丁目","koaza":"","lat":34.077262,"lng":134.519947,"version":"14.0b/19.0a"},{"town":"蔵本町二丁目","koaza":"","lat":34.076377,"lng":134.517683,"version":"14.0b/19.0a"},{"town":"蔵本町三丁目","koaza":"","lat":34.078066,"lng":134.516565,"version":"14.0b/19.0a"},{"town":"蔵本元町一丁目","koaza":"","lat":34.078747,"lng":134.519835,"version":"14.0b/19.0a"},{"town":"蔵本元町二丁目","koaza":"","lat":34.08009,"lng":134.518462,"version":"14.0b/19.0a"},{"town":"蔵本元町三丁目","koaza":"","lat":34.081813,"lng":134.518761,"version":"14.0b/19.0a"},{"town":"国府町池尻","koaza":"","lat":34.078615,"lng":134.470808,"version":"14.0b/19.0a"},{"town":"国府町井戸","koaza":"","lat":34.083273,"lng":134.484761,"version":"14.0b/19.0a"},{"town":"国府町延命","koaza":"","lat":34.049181,"lng":134.481075,"version":"14.0b/19.0a"},{"town":"国府町川原田","koaza":"","lat":34.090992,"lng":134.472214,"version":"14.0b/19.0a"},{"town":"国府町観音寺","koaza":"","lat":34.069936,"lng":134.472055,"version":"14.0b/19.0a"},{"town":"国府町北岩延","koaza":"","lat":34.084461,"lng":134.492529,"version":"14.0b/19.0a"},{"town":"国府町府中","koaza":"","lat":34.073489,"lng":134.480068,"version":"14.0b/19.0a"},{"town":"国府町桜間","koaza":"","lat":34.083199,"lng":134.465958,"version":"14.0b/19.0a"},{"town":"国府町佐野塚","koaza":"","lat":34.106666,"lng":134.463405,"version":"14.0b/19.0a"},{"town":"国府町敷地","koaza":"","lat":34.075793,"lng":134.466976,"version":"14.0b/19.0a"},{"town":"国府町芝原","koaza":"","lat":34.093154,"lng":134.46304,"version":"14.0b/19.0a"},{"town":"国府町中","koaza":"","lat":34.061892,"lng":134.479174,"version":"14.0b/19.0a"},{"town":"国府町西黒田","koaza":"","lat":34.104038,"lng":134.468679,"version":"14.0b/19.0a"},{"town":"国府町西高輪","koaza":"","lat":34.090434,"lng":134.478169,"version":"14.0b/19.0a"},{"town":"国府町西矢野","koaza":"","lat":34.053284,"lng":134.46982,"version":"14.0b/19.0a"},{"town":"国府町花園","koaza":"","lat":34.092693,"lng":134.486348,"version":"14.0b/19.0a"},{"town":"国府町早淵","koaza":"","lat":34.062182,"lng":134.485669,"version":"14.0b/19.0a"},{"town":"国府町日開","koaza":"","lat":34.082153,"lng":134.476552,"version":"14.0b/19.0a"},{"town":"国府町東黒田","koaza":"","lat":34.103923,"lng":134.480223,"version":"14.0b/19.0a"},{"town":"国府町東高輪","koaza":"","lat":34.092864,"lng":134.48091,"version":"14.0b/19.0a"},{"town":"国府町南岩延","koaza":"","lat":34.079205,"lng":134.497096,"version":"14.0b/19.0a"},{"town":"国府町矢野","koaza":"","lat":34.060551,"lng":134.473426,"version":"14.0b/19.0a"},{"town":"国府町竜王","koaza":"","lat":34.093164,"lng":134.454437,"version":"14.0b/19.0a"},{"town":"国府町和田","koaza":"","lat":34.073631,"lng":134.490211,"version":"14.0b/19.0a"},{"town":"紺屋町","koaza":"","lat":34.067119,"lng":134.548716,"version":"14.0b/19.0a"},{"town":"雑賀町","koaza":"","lat":34.036384,"lng":134.557319,"version":"14.0b/19.0a"},{"town":"幸町一丁目","koaza":"","lat":34.071485,"lng":134.554704,"version":"14.0b/19.0a"},{"town":"幸町二丁目","koaza":"","lat":34.070168,"lng":134.554799,"version":"14.0b/19.0a"},{"town":"幸町三丁目","koaza":"","lat":34.068384,"lng":134.554865,"version":"14.0b/19.0a"},{"town":"栄町一丁目","koaza":"","lat":34.065868,"lng":134.548774,"version":"14.0b/19.0a"},{"town":"栄町二丁目","koaza":"","lat":34.064303,"lng":134.548724,"version":"14.0b/19.0a"},{"town":"栄町三丁目","koaza":"","lat":34.063056,"lng":134.548657,"version":"14.0b/19.0a"},{"town":"栄町四丁目","koaza":"","lat":34.061611,"lng":134.548566,"version":"14.0b/19.0a"},{"town":"栄町五丁目","koaza":"","lat":34.060232,"lng":134.548516,"version":"14.0b/19.0a"},{"town":"栄町六丁目","koaza":"","lat":34.058774,"lng":134.54843,"version":"14.0b/19.0a"},{"town":"佐古一番町","koaza":"","lat":34.07789,"lng":134.541324,"version":"14.0b/19.0a"},{"town":"佐古二番町","koaza":"","lat":34.078435,"lng":134.538503,"version":"14.0b/19.0a"},{"town":"佐古三番町","koaza":"","lat":34.078658,"lng":134.535981,"version":"14.0b/19.0a"},{"town":"佐古四番町","koaza":"","lat":34.078794,"lng":134.53344,"version":"14.0b/19.0a"},{"town":"佐古五番町","koaza":"","lat":34.078881,"lng":134.530965,"version":"14.0b/19.0a"},{"town":"佐古六番町","koaza":"","lat":34.078277,"lng":134.527334,"version":"14.0b/19.0a"},{"town":"佐古七番町","koaza":"","lat":34.078066,"lng":134.524224,"version":"14.0b/19.0a"},{"town":"佐古八番町","koaza":"","lat":34.077777,"lng":134.521891,"version":"14.0b/19.0a"},{"town":"佐古山町","koaza":"","lat":34.070256,"lng":134.523048,"version":"14.0b/19.0a"},{"town":"三軒屋町","koaza":"","lat":34.034571,"lng":134.548027,"version":"14.0b/19.0a"},{"town":"渋野町","koaza":"","lat":34.007617,"lng":134.52501,"version":"14.0b/19.0a"},{"town":"下助任町一丁目","koaza":"","lat":34.081371,"lng":134.557339,"version":"14.0b/19.0a"},{"town":"下助任町二丁目","koaza":"","lat":34.082206,"lng":134.555723,"version":"14.0b/19.0a"},{"town":"下助任町三丁目","koaza":"","lat":34.082212,"lng":134.55344,"version":"14.0b/19.0a"},{"town":"下助任町四丁目","koaza":"","lat":34.083209,"lng":134.550482,"version":"14.0b/19.0a"},{"town":"下助任町五丁目","koaza":"","lat":34.08287,"lng":134.54903,"version":"14.0b/19.0a"},{"town":"下町","koaza":"","lat":34.031425,"lng":134.48427,"version":"14.0b/19.0a"},{"town":"城東町一丁目","koaza":"","lat":34.074611,"lng":134.573574,"version":"14.0b/19.0a"},{"town":"城東町二丁目","koaza":"","lat":34.073713,"lng":134.57662,"version":"14.0b/19.0a"},{"town":"城南町一丁目","koaza":"","lat":34.056591,"lng":134.539827,"version":"14.0b/19.0a"},{"town":"城南町二丁目","koaza":"","lat":34.054987,"lng":134.541308,"version":"14.0b/19.0a"},{"town":"城南町三丁目","koaza":"","lat":34.053798,"lng":134.539101,"version":"14.0b/19.0a"},{"town":"城南町四丁目","koaza":"","lat":34.052378,"lng":134.540864,"version":"14.0b/19.0a"},{"town":"庄町一丁目","koaza":"","lat":34.075593,"lng":134.514487,"version":"14.0b/19.0a"},{"town":"庄町二丁目","koaza":"","lat":34.076427,"lng":134.511819,"version":"14.0b/19.0a"},{"town":"庄町三丁目","koaza":"","lat":34.075486,"lng":134.510408,"version":"14.0b/19.0a"},{"town":"庄町四丁目","koaza":"","lat":34.075149,"lng":134.508302,"version":"14.0b/19.0a"},{"town":"庄町五丁目","koaza":"","lat":34.074546,"lng":134.505725,"version":"14.0b/19.0a"},{"town":"丈六町","koaza":"","lat":34.008359,"lng":134.5494,"version":"14.0b/19.0a"},{"town":"昭和町一丁目","koaza":"","lat":34.064492,"lng":134.557767,"version":"14.0b/19.0a"},{"town":"昭和町二丁目","koaza":"","lat":34.064223,"lng":134.559152,"version":"14.0b/19.0a"},{"town":"昭和町三丁目","koaza":"","lat":34.063503,"lng":134.560566,"version":"14.0b/19.0a"},{"town":"昭和町四丁目","koaza":"","lat":34.062744,"lng":134.56203,"version":"14.0b/19.0a"},{"town":"昭和町五丁目","koaza":"","lat":34.061319,"lng":134.56343,"version":"14.0b/19.0a"},{"town":"昭和町六丁目","koaza":"","lat":34.059357,"lng":134.565383,"version":"14.0b/19.0a"},{"town":"昭和町七丁目","koaza":"","lat":34.058683,"lng":134.567631,"version":"14.0b/19.0a"},{"town":"昭和町八丁目","koaza":"","lat":34.057123,"lng":134.572554,"version":"14.0b/19.0a"},{"town":"新内町一丁目","koaza":"","lat":34.069755,"lng":134.552791,"version":"14.0b/19.0a"},{"town":"新内町二丁目","koaza":"","lat":34.070367,"lng":134.55092,"version":"14.0b/19.0a"},{"town":"新蔵町一丁目","koaza":"","lat":34.070208,"lng":134.55795,"version":"14.0b/19.0a"},{"town":"新蔵町二丁目","koaza":"","lat":34.070088,"lng":134.559834,"version":"14.0b/19.0a"},{"town":"新蔵町三丁目","koaza":"","lat":34.069866,"lng":134.561506,"version":"14.0b/19.0a"},{"town":"新浜町一丁目","koaza":"","lat":34.051736,"lng":134.570302,"version":"14.0b/19.0a"},{"town":"新浜町二丁目","koaza":"","lat":34.049875,"lng":134.568398,"version":"14.0b/19.0a"},{"town":"新浜町三丁目","koaza":"","lat":34.048028,"lng":134.56723,"version":"14.0b/19.0a"},{"town":"新浜町四丁目","koaza":"","lat":34.051047,"lng":134.565834,"version":"14.0b/19.0a"},{"town":"新浜本町一丁目","koaza":"","lat":34.043999,"lng":134.572639,"version":"14.0b/19.0a"},{"town":"新浜本町二丁目","koaza":"","lat":34.04347,"lng":134.568054,"version":"14.0b/19.0a"},{"town":"新浜本町三丁目","koaza":"","lat":34.046519,"lng":134.566181,"version":"14.0b/19.0a"},{"town":"新浜本町四丁目","koaza":"","lat":34.047324,"lng":134.570722,"version":"14.0b/19.0a"},{"town":"新町橋一丁目","koaza":"","lat":34.071047,"lng":134.547433,"version":"14.0b/19.0a"},{"town":"新町橋二丁目","koaza":"","lat":34.070233,"lng":134.545677,"version":"14.0b/19.0a"},{"town":"新南福島一丁目","koaza":"","lat":34.067043,"lng":134.565161,"version":"14.0b/19.0a"},{"town":"新南福島二丁目","koaza":"","lat":34.067203,"lng":134.567822,"version":"14.0b/19.0a"},{"town":"末広一丁目","koaza":"","lat":34.064176,"lng":134.569115,"version":"14.0b/19.0a"},