[{"town":"大字芦津","koaza":"","lat":35.278365,"lng":134.347762,"version":"13.0b/18.0a"},{"town":"大字市瀬","koaza":"","lat":35.290363,"lng":134.237148,"version":"13.0b/18.0a"},{"town":"大字岩神","koaza":"","lat":35.269538,"lng":134.221408,"version":"13.0b/18.0a"},{"town":"大字宇波","koaza":"","lat":35.246227,"lng":134.162269,"version":"13.0b/18.0a"},{"town":"大字大背","koaza":"","lat":35.218185,"lng":134.19901,"version":"13.0b/18.0a"},{"town":"大字大内","koaza":"","lat":35.251783,"lng":134.283124,"version":"13.0b/18.0a"},{"town":"大字大屋","koaza":"","lat":35.212496,"lng":134.241567,"version":"13.0b/18.0a"},{"town":"大字大呂","koaza":"","lat":35.272433,"lng":134.298183,"version":"13.0b/18.0a"},{"town":"大字奥本","koaza":"","lat":35.194081,"lng":134.193441,"version":"13.0b/18.0a"},{"town":"大字尾見","koaza":"","lat":35.245623,"lng":134.294561,"version":"13.0b/18.0a"},{"town":"大字木原","koaza":"","lat":35.242103,"lng":134.222799,"version":"13.0b/18.0a"},{"town":"大字口宇波","koaza":"","lat":35.242651,"lng":134.186459,"version":"13.0b/18.0a"},{"town":"大字口波多","koaza":"","lat":35.261767,"lng":134.184413,"version":"13.0b/18.0a"},{"town":"大字慶所","koaza":"","lat":35.221045,"lng":134.229523,"version":"13.0b/18.0a"},{"town":"大字毛谷","koaza":"","lat":35.26148,"lng":134.26403,"version":"13.0b/18.0a"},{"town":"大字河津原","koaza":"","lat":35.194315,"lng":134.166167,"version":"13.0b/18.0a"},{"town":"大字郷原","koaza":"","lat":35.264818,"lng":134.273785,"version":"13.0b/18.0a"},{"town":"大字駒帰","koaza":"","lat":35.224525,"lng":134.330382,"version":"13.0b/18.0a"},{"town":"大字坂原","koaza":"","lat":35.269853,"lng":134.213275,"version":"13.0b/18.0a"},{"town":"大字篠坂","koaza":"","lat":35.260984,"lng":134.255599,"version":"13.0b/18.0a"},{"town":"大字惣地","koaza":"","lat":35.265545,"lng":134.195915,"version":"13.0b/18.0a"},{"town":"大字智頭","koaza":"","lat":35.267531,"lng":134.239403,"version":"13.0b/18.0a"},{"town":"大字中田","koaza":"","lat":35.266108,"lng":134.209468,"version":"13.0b/18.0a"},{"town":"大字中原","koaza":"","lat":35.23944,"lng":134.314063,"version":"13.0b/18.0a"},{"town":"大字新見","koaza":"","lat":35.253184,"lng":134.203391,"version":"13.0b/18.0a"},{"town":"大字西宇塚","koaza":"","lat":35.221115,"lng":134.175192,"version":"13.0b/18.0a"},{"town":"大字西谷","koaza":"","lat":35.216812,"lng":134.271922,"version":"13.0b/18.0a"},{"town":"大字西野","koaza":"","lat":35.281168,"lng":134.274108,"version":"13.0b/18.0a"},{"town":"大字野原","koaza":"","lat":35.20669,"lng":134.211047,"version":"13.0b/18.0a"},{"town":"大字波多","koaza":"","lat":35.268184,"lng":134.158358,"version":"13.0b/18.0a"},{"town":"大字埴師","koaza":"","lat":35.233235,"lng":134.245938,"version":"13.0b/18.0a"},{"town":"大字早瀬","koaza":"","lat":35.218192,"lng":134.216956,"version":"13.0b/18.0a"},{"town":"大字東宇塚","koaza":"","lat":35.20571,"lng":134.182683,"version":"13.0b/18.0a"},{"town":"大字福原","koaza":"","lat":35.223865,"lng":134.301012,"version":"13.0b/18.0a"},{"town":"大字穂見","koaza":"","lat":35.241338,"lng":134.250097,"version":"13.0b/18.0a"},{"town":"大字真鹿野","koaza":"","lat":35.202526,"lng":134.220545,"version":"13.0b/18.0a"},{"town":"大字三田","koaza":"","lat":35.247116,"lng":134.215888,"version":"13.0b/18.0a"},{"town":"大字南方","koaza":"","lat":35.254034,"lng":134.244276,"version":"13.0b/18.0a"},{"town":"大字三吉","koaza":"","lat":35.228549,"lng":134.216484,"version":"13.0b/18.0a"},{"town":"大字八河谷","koaza":"","lat":35.30155,"lng":134.330432,"version":"13.0b/18.0a"},{"town":"大字山根","koaza":"","lat":35.251919,"lng":134.233153,"version":"13.0b/18.0a"},{"town":"大字横田","koaza":"","lat":35.236391,"lng":134.219158,"version":"13.0b/18.0a"},{"town":"大字芦津","koaza":"","lat":35.278365,"lng":134.347762,"version":"14.0b/19.0a"},{"town":"大字市瀬","koaza":"","lat":35.290363,"lng":134.237148,"version":"14.0b/19.0a"},{"town":"大字岩神","koaza":"","lat":35.269538,"lng":134.221408,"version":"14.0b/19.0a"},{"town":"大字宇波","koaza":"","lat":35.246227,"lng":134.162269,"version":"14.0b/19.0a"},{"town":"大字大背","koaza":"","lat":35.218185,"lng":134.19901,"version":"14.0b/19.0a"},{"town":"大字大内","koaza":"","lat":35.251783,"lng":134.283124,"version":"14.0b/19.0a"},{"town":"大字大屋","koaza":"","lat":35.212496,"lng":134.241567,"version":"14.0b/19.0a"},{"town":"大字大呂","koaza":"","lat":35.272433,"lng":134.298183,"version":"14.0b/19.0a"},{"town":"大字奥本","koaza":"","lat":35.194081,"lng":134.193441,"version":"14.0b/19.0a"},{"town":"大字尾見","koaza":"","lat":35.245623,"lng":134.294561,"version":"14.0b/19.0a"},{"town":"大字木原","koaza":"","lat":35.242103,"lng":134.222799,"version":"14.0b/19.0a"},{"town":"大字口宇波","koaza":"","lat":35.242651,"lng":134.186459,"version":"14.0b/19.0a"},{"town":"大字口波多","koaza":"","lat":35.261767,"lng":134.184413,"version":"14.0b/19.0a"},{"town":"大字慶所","koaza":"","lat":35.221045,"lng":134.229523,"version":"14.0b/19.0a"},{"town":"大字毛谷","koaza":"","lat":35.26148,"lng":134.26403,"version":"14.0b/19.0a"},{"town":"大字河津原","koaza":"","lat":35.194315,"lng":134.166167,"version":"14.0b/19.0a"},{"town":"大字郷原","koaza":"","lat":35.264818,"lng":134.273785,"version":"14.0b/19.0a"},{"town":"大字駒帰","koaza":"","lat":35.224525,"lng":134.330382,"version":"14.0b/19.0a"},{"town":"大字坂原","koaza":"","lat":35.269853,"lng":134.213275,"version":"14.0b/19.0a"},{"town":"大字篠坂","koaza":"","lat":35.260984,"lng":134.255599,"version":"14.0b/19.0a"},{"town":"大字惣地","koaza":"","lat":35.265545,"lng":134.195915,"version":"14.0b/19.0a"},{"town":"大字智頭","koaza":"","lat":35.267531,"lng":134.239403,"version":"14.0b/19.0a"},{"town":"大字中田","koaza":"","lat":35.266108,"lng":134.209468,"version":"14.0b/19.0a"},{"town":"大字中原","koaza":"","lat":35.23944,"lng":134.314063,"version":"14.0b/19.0a"},{"town":"大字新見","koaza":"","lat":35.253184,"lng":134.203391,"version":"14.0b/19.0a"},{"town":"大字西宇塚","koaza":"","lat":35.221115,"lng":134.175192,"version":"14.0b/19.0a"},{"town":"大字西谷","koaza":"","lat":35.216812,"lng":134.271922,"version":"14.0b/19.0a"},{"town":"大字西野","koaza":"","lat":35.281168,"lng":134.274108,"version":"14.0b/19.0a"},{"town":"大字野原","koaza":"","lat":35.20669,"lng":134.211047,"version":"14.0b/19.0a"},{"town":"大字波多","koaza":"","lat":35.268184,"lng":134.158358,"version":"14.0b/19.0a"},{"town":"大字埴師","koaza":"","lat":35.233235,"lng":134.245938,"version":"14.0b/19.0a"},{"town":"大字早瀬","koaza":"","lat":35.218192,"lng":134.216956,"version":"14.0b/19.0a"},{"town":"大字東宇塚","koaza":"","lat":35.20571,"lng":134.182683,"version":"14.0b/19.0a"},{"town":"大字福原","koaza":"","lat":35.223865,"lng":134.301012,"version":"14.0b/19.0a"},{"town":"大字穂見","koaza":"","lat":35.241338,"lng":134.250097,"version":"14.0b/19.0a"},{"town":"大字真鹿野","koaza":"","lat":35.202526,"lng":134.220545,"version":"14.0b/19.0a"},{"town":"大字三田","koaza":"","lat":35.247116,"lng":134.215888,"version":"14.0b/19.0a"},{"town":"大字南方","koaza":"","lat":35.254034,"lng":134.244276,"version":"14.0b/19.0a"},{"town":"大字三吉","koaza":"","lat":35.228549,"lng":134.216484,"version":"14.0b/19.0a"},{"town":"大字八河谷","koaza":"","lat":35.30155,"lng":134.330432,"version":"14.0b/19.0a"},{"town":"大字山根","koaza":"","lat":35.251919,"lng":134.233153,"version":"14.0b/19.0a"},{"town":"大字横田","koaza":"","lat":35.236391,"lng":134.219158,"version":"14.0b/19.0a"}]