[{"town":"相生町","koaza":"","lat":35.546713,"lng":133.233527,"version":"13.0b/18.0a"},{"town":"上道町","koaza":"","lat":35.540032,"lng":133.237183,"version":"13.0b/18.0a"},{"town":"朝日町","koaza":"","lat":35.547163,"lng":133.235739,"version":"13.0b/18.0a"},{"town":"栄町","koaza":"","lat":35.547242,"lng":133.229304,"version":"13.0b/18.0a"},{"town":"京町","koaza":"","lat":35.544875,"lng":133.228245,"version":"13.0b/18.0a"},{"town":"幸神町","koaza":"","lat":35.507481,"lng":133.238788,"version":"13.0b/18.0a"},{"town":"小篠津町","koaza":"","lat":35.502769,"lng":133.23733,"version":"13.0b/18.0a"},{"town":"佐斐神町","koaza":"","lat":35.492995,"lng":133.234821,"version":"13.0b/18.0a"},{"town":"財ノ木町","koaza":"","lat":35.505062,"lng":133.251491,"version":"13.0b/18.0a"},{"town":"三軒屋町","koaza":"","lat":35.509643,"lng":133.230124,"version":"13.0b/18.0a"},{"town":"潮見町","koaza":"","lat":35.551285,"lng":133.268487,"version":"13.0b/18.0a"},{"town":"東雲町","koaza":"","lat":35.545117,"lng":133.238646,"version":"13.0b/18.0a"},{"town":"芝町","koaza":"","lat":35.530511,"lng":133.218594,"version":"13.0b/18.0a"},{"town":"清水町","koaza":"","lat":35.539173,"lng":133.216475,"version":"13.0b/18.0a"},{"town":"末広町","koaza":"","lat":35.545899,"lng":133.231941,"version":"13.0b/18.0a"},{"town":"誠道町","koaza":"","lat":35.516,"lng":133.234495,"version":"13.0b/18.0a"},{"town":"大正町","koaza":"","lat":35.545614,"lng":133.224735,"version":"13.0b/18.0a"},{"town":"高松町","koaza":"","lat":35.516513,"lng":133.243424,"version":"13.0b/18.0a"},{"town":"竹内団地","koaza":"","lat":35.522264,"lng":133.253661,"version":"13.0b/18.0a"},{"town":"竹内町","koaza":"","lat":35.522065,"lng":133.237259,"version":"13.0b/18.0a"},{"town":"外江町","koaza":"","lat":35.531352,"lng":133.209157,"version":"13.0b/18.0a"},{"town":"中海干拓地","koaza":"","lat":35.500412,"lng":133.218172,"version":"13.0b/18.0a"},{"town":"中野町","koaza":"","lat":35.532681,"lng":133.233433,"version":"13.0b/18.0a"},{"town":"中町","koaza":"","lat":35.545875,"lng":133.232681,"version":"13.0b/18.0a"},{"town":"新屋町","koaza":"","lat":35.5143,"lng":133.248262,"version":"13.0b/18.0a"},{"town":"西工業団地","koaza":"","lat":35.527007,"lng":133.201408,"version":"13.0b/18.0a"},{"town":"入船町","koaza":"","lat":35.547218,"lng":133.238738,"version":"13.0b/18.0a"},{"town":"蓮池町","koaza":"","lat":35.540265,"lng":133.224017,"version":"13.0b/18.0a"},{"town":"花町","koaza":"","lat":35.545664,"lng":133.241458,"version":"13.0b/18.0a"},{"town":"馬場崎町","koaza":"","lat":35.540427,"lng":133.227113,"version":"13.0b/18.0a"},{"town":"浜ノ町","koaza":"","lat":35.544007,"lng":133.222128,"version":"13.0b/18.0a"},{"town":"東本町","koaza":"","lat":35.545524,"lng":133.235779,"version":"13.0b/18.0a"},{"town":"日ノ出町","koaza":"","lat":35.54479,"lng":133.230735,"version":"13.0b/18.0a"},{"town":"福定町","koaza":"","lat":35.527199,"lng":133.234184,"version":"13.0b/18.0a"},{"town":"本町","koaza":"","lat":35.546153,"lng":133.230808,"version":"13.0b/18.0a"},{"town":"松ヶ枝町","koaza":"","lat":35.546115,"lng":133.228308,"version":"13.0b/18.0a"},{"town":"岬町","koaza":"","lat":35.545998,"lng":133.24447,"version":"13.0b/18.0a"},{"town":"湊町","koaza":"","lat":35.54179,"lng":133.230269,"version":"13.0b/18.0a"},{"town":"美保町","koaza":"","lat":35.518565,"lng":133.245663,"version":"13.0b/18.0a"},{"town":"麦垣町","koaza":"","lat":35.510013,"lng":133.251269,"version":"13.0b/18.0a"},{"town":"明治町","koaza":"","lat":35.543324,"lng":133.227193,"version":"13.0b/18.0a"},{"town":"元町","koaza":"","lat":35.542415,"lng":133.233928,"version":"13.0b/18.0a"},{"town":"森岡町","koaza":"","lat":35.521677,"lng":133.223275,"version":"13.0b/18.0a"},{"town":"弥生町","koaza":"","lat":35.541946,"lng":133.218967,"version":"13.0b/18.0a"},{"town":"夕日ヶ丘一丁目","koaza":"","lat":35.501951,"lng":133.225016,"version":"13.0b/18.0a"},{"town":"夕日ヶ丘二丁目","koaza":"","lat":35.507679,"lng":133.219194,"version":"13.0b/18.0a"},{"town":"米川町","koaza":"","lat":35.539101,"lng":133.221558,"version":"13.0b/18.0a"},{"town":"渡町","koaza":"","lat":35.515792,"lng":133.214002,"version":"13.0b/18.0a"},{"town":"昭和町","koaza":"","lat":35.544164,"lng":133.252856,"version":"13.0b/18.0a"},{"town":"上道町","koaza":"一本松","lat":35.54273,"lng":133.236833,"version":"13.0b/18.0a"},{"town":"相生町","koaza":"","lat":35.546713,"lng":133.233527,"version":"14.0b/19.0a"},{"town":"上道町","koaza":"","lat":35.540032,"lng":133.237183,"version":"14.0b/19.0a"},{"town":"朝日町","koaza":"","lat":35.547163,"lng":133.235739,"version":"14.0b/19.0a"},{"town":"栄町","koaza":"","lat":35.547242,"lng":133.229304,"version":"14.0b/19.0a"},{"town":"京町","koaza":"","lat":35.544875,"lng":133.228245,"version":"14.0b/19.0a"},{"town":"幸神町","koaza":"","lat":35.507481,"lng":133.238788,"version":"14.0b/19.0a"},{"town":"小篠津町","koaza":"","lat":35.502769,"lng":133.23733,"version":"14.0b/19.0a"},{"town":"佐斐神町","koaza":"","lat":35.492995,"lng":133.234821,"version":"14.0b/19.0a"},{"town":"財ノ木町","koaza":"","lat":35.505062,"lng":133.251491,"version":"14.0b/19.0a"},{"town":"三軒屋町","koaza":"","lat":35.509643,"lng":133.230124,"version":"14.0b/19.0a"},{"town":"潮見町","koaza":"","lat":35.551285,"lng":133.268487,"version":"14.0b/19.0a"},{"town":"東雲町","koaza":"","lat":35.545117,"lng":133.238646,"version":"14.0b/19.0a"},{"town":"芝町","koaza":"","lat":35.530511,"lng":133.218594,"version":"14.0b/19.0a"},{"town":"清水町","koaza":"","lat":35.539173,"lng":133.216475,"version":"14.0b/19.0a"},{"town":"末広町","koaza":"","lat":35.545899,"lng":133.231941,"version":"14.0b/19.0a"},{"town":"誠道町","koaza":"","lat":35.516,"lng":133.234495,"version":"14.0b/19.0a"},{"town":"大正町","koaza":"","lat":35.545614,"lng":133.224735,"version":"14.0b/19.0a"},{"town":"高松町","koaza":"","lat":35.516513,"lng":133.243424,"version":"14.0b/19.0a"},{"town":"竹内団地","koaza":"","lat":35.522264,"lng":133.253661,"version":"14.0b/19.0a"},{"town":"竹内町","koaza":"","lat":35.522065,"lng":133.237259,"version":"14.0b/19.0a"},{"town":"外江町","koaza":"","lat":35.531352,"lng":133.209157,"version":"14.0b/19.0a"},{"town":"中海干拓地","koaza":"","lat":35.500412,"lng":133.218172,"version":"14.0b/19.0a"},{"town":"中野町","koaza":"","lat":35.532681,"lng":133.233433,"version":"14.0b/19.0a"},{"town":"中町","koaza":"","lat":35.545875,"lng":133.232681,"version":"14.0b/19.0a"},{"town":"新屋町","koaza":"","lat":35.5143,"lng":133.248262,"version":"14.0b/19.0a"},{"town":"西工業団地","koaza":"","lat":35.527007,"lng":133.201408,"version":"14.0b/19.0a"},{"town":"入船町","koaza":"","lat":35.547218,"lng":133.238738,"version":"14.0b/19.0a"},{"town":"蓮池町","koaza":"","lat":35.540265,"lng":133.224017,"version":"14.0b/19.0a"},{"town":"花町","koaza":"","lat":35.545664,"lng":133.241458,"version":"14.0b/19.0a"},{"town":"馬場崎町","koaza":"","lat":35.540427,"lng":133.227113,"version":"14.0b/19.0a"},{"town":"浜ノ町","koaza":"","lat":35.544007,"lng":133.222128,"version":"14.0b/19.0a"},{"town":"東本町","koaza":"","lat":35.545524,"lng":133.235779,"version":"14.0b/19.0a"},{"town":"日ノ出町","koaza":"","lat":35.54479,"lng":133.230735,"version":"14.0b/19.0a"},{"town":"福定町","koaza":"","lat":35.527199,"lng":133.234184,"version":"14.0b/19.0a"},{"town":"本町","koaza":"","lat":35.546153,"lng":133.230808,"version":"14.0b/19.0a"},{"town":"松ヶ枝町","koaza":"","lat":35.546115,"lng":133.228308,"version":"14.0b/19.0a"},{"town":"岬町","koaza":"","lat":35.545998,"lng":133.24447,"version":"14.0b/19.0a"},{"town":"湊町","koaza":"","lat":35.54179,"lng":133.230269,"version":"14.0b/19.0a"},{"town":"美保町","koaza":"","lat":35.518565,"lng":133.245663,"version":"14.0b/19.0a"},{"town":"麦垣町","koaza":"","lat":35.510013,"lng":133.251269,"version":"14.0b/19.0a"},{"town":"明治町","koaza":"","lat":35.543324,"lng":133.227193,"version":"14.0b/19.0a"},{"town":"元町","koaza":"","lat":35.542415,"lng":133.233928,"version":"14.0b/19.0a"},{"town":"森岡町","koaza":"","lat":35.521677,"lng":133.223275,"version":"14.0b/19.0a"},{"town":"弥生町","koaza":"","lat":35.541946,"lng":133.218967,"version":"14.0b/19.0a"},{"town":"夕日ヶ丘一丁目","koaza":"","lat":35.501951,"lng":133.225016,"version":"14.0b/19.0a"},{"town":"夕日ヶ丘二丁目","koaza":"","lat":35.507679,"lng":133.219194,"version":"14.0b/19.0a"},{"town":"米川町","koaza":"","lat":35.539101,"lng":133.221558,"version":"14.0b/19.0a"},{"town":"渡町","koaza":"","lat":35.515792,"lng":133.214002,"version":"14.0b/19.0a"},{"town":"昭和町","koaza":"","lat":35.544164,"lng":133.252856,"version":"14.0b/19.0a"},{"town":"上道町","koaza":"一本松","lat":35.54273,"lng":133.236833,"version":"14.0b/19.0a"}]