[{"town":"宇々島郷","koaza":"","lat":33.17302,"lng":129.038612,"version":"13.0b/18.0a"},{"town":"大島郷","koaza":"","lat":33.169787,"lng":129.022254,"version":"13.0b/18.0a"},{"town":"黒島郷","koaza":"","lat":33.180571,"lng":129.058359,"version":"13.0b/18.0a"},{"town":"中村郷","koaza":"","lat":33.201268,"lng":129.064429,"version":"13.0b/18.0a"},{"town":"納島郷","koaza":"","lat":33.222622,"lng":129.069363,"version":"13.0b/18.0a"},{"town":"野崎郷","koaza":"","lat":33.186627,"lng":129.127665,"version":"13.0b/18.0a"},{"town":"浜津郷","koaza":"","lat":33.202473,"lng":129.039282,"version":"13.0b/18.0a"},{"town":"笛吹郷","koaza":"","lat":33.192347,"lng":129.053175,"version":"13.0b/18.0a"},{"town":"前方郷","koaza":"","lat":33.201271,"lng":129.075963,"version":"13.0b/18.0a"},{"town":"班島郷","koaza":"","lat":33.206448,"lng":129.019105,"version":"13.0b/18.0a"},{"town":"六島郷","koaza":"","lat":33.223789,"lng":129.135211,"version":"13.0b/18.0a"},{"town":"柳郷","koaza":"","lat":33.209989,"lng":129.051923,"version":"13.0b/18.0a"},{"town":"藪路木島郷","koaza":"","lat":33.18201,"lng":129.020408,"version":"13.0b/18.0a"},{"town":"宇々島郷","koaza":"","lat":33.17302,"lng":129.038612,"version":"14.0b/19.0a"},{"town":"大島郷","koaza":"","lat":33.169787,"lng":129.022254,"version":"14.0b/19.0a"},{"town":"黒島郷","koaza":"","lat":33.180571,"lng":129.058359,"version":"14.0b/19.0a"},{"town":"中村郷","koaza":"","lat":33.201268,"lng":129.064429,"version":"14.0b/19.0a"},{"town":"納島郷","koaza":"","lat":33.222622,"lng":129.069363,"version":"14.0b/19.0a"},{"town":"野崎郷","koaza":"","lat":33.186627,"lng":129.127665,"version":"14.0b/19.0a"},{"town":"浜津郷","koaza":"","lat":33.202473,"lng":129.039282,"version":"14.0b/19.0a"},{"town":"笛吹郷","koaza":"","lat":33.192347,"lng":129.053175,"version":"14.0b/19.0a"},{"town":"前方郷","koaza":"","lat":33.201271,"lng":129.075963,"version":"14.0b/19.0a"},{"town":"班島郷","koaza":"","lat":33.206448,"lng":129.019105,"version":"14.0b/19.0a"},{"town":"六島郷","koaza":"","lat":33.223789,"lng":129.135211,"version":"14.0b/19.0a"},{"town":"柳郷","koaza":"","lat":33.209989,"lng":129.051923,"version":"14.0b/19.0a"},{"town":"藪路木島郷","koaza":"","lat":33.18201,"lng":129.020408,"version":"14.0b/19.0a"}]