[{"town":"有井川","koaza":"","lat":33.071462,"lng":133.077348,"version":"13.0b/18.0a"},{"town":"伊田","koaza":"","lat":33.041019,"lng":133.082188,"version":"13.0b/18.0a"},{"town":"市野瀬","koaza":"","lat":33.171906,"lng":133.160446,"version":"13.0b/18.0a"},{"town":"市野々川","koaza":"","lat":33.128645,"lng":133.089028,"version":"13.0b/18.0a"},{"town":"出口","koaza":"","lat":32.988327,"lng":132.990396,"version":"13.0b/18.0a"},{"town":"伊與喜","koaza":"","lat":33.111896,"lng":133.079568,"version":"13.0b/18.0a"},{"town":"入野","koaza":"","lat":33.025371,"lng":133.00943,"version":"13.0b/18.0a"},{"town":"浮鞭","koaza":"","lat":33.042197,"lng":133.031877,"version":"13.0b/18.0a"},{"town":"馬荷","koaza":"","lat":33.050223,"lng":132.973357,"version":"13.0b/18.0a"},{"town":"大井川","koaza":"","lat":33.070118,"lng":132.980091,"version":"13.0b/18.0a"},{"town":"大方橘川","koaza":"","lat":33.042869,"lng":132.987058,"version":"13.0b/18.0a"},{"town":"奥湊川","koaza":"","lat":33.086587,"lng":133.013099,"version":"13.0b/18.0a"},{"town":"御坊畑","koaza":"","lat":33.026841,"lng":132.967665,"version":"13.0b/18.0a"},{"town":"荷稲","koaza":"","lat":33.131551,"lng":133.120004,"version":"13.0b/18.0a"},{"town":"上川口","koaza":"","lat":33.043859,"lng":133.054998,"version":"13.0b/18.0a"},{"town":"上田の口","koaza":"","lat":33.008722,"lng":132.974839,"version":"13.0b/18.0a"},{"town":"加持","koaza":"","lat":33.055987,"lng":133.013045,"version":"13.0b/18.0a"},{"town":"加持川","koaza":"","lat":33.072004,"lng":132.996161,"version":"13.0b/18.0a"},{"town":"川奥","koaza":"","lat":33.14839,"lng":133.104252,"version":"13.0b/18.0a"},{"town":"口湊川","koaza":"","lat":33.053802,"lng":133.028374,"version":"13.0b/18.0a"},{"town":"熊井","koaza":"","lat":33.099199,"lng":133.109929,"version":"13.0b/18.0a"},{"town":"熊野浦","koaza":"","lat":33.09882,"lng":133.133206,"version":"13.0b/18.0a"},{"town":"黒潮","koaza":"","lat":33.075685,"lng":133.11246,"version":"13.0b/18.0a"},{"town":"小黒ノ川","koaza":"","lat":33.117292,"lng":133.12245,"version":"13.0b/18.0a"},{"town":"拳ノ川","koaza":"","lat":33.148604,"lng":133.121217,"version":"13.0b/18.0a"},{"town":"佐賀","koaza":"","lat":33.078751,"lng":133.096991,"version":"13.0b/18.0a"},{"town":"佐賀橘川","koaza":"","lat":33.147206,"lng":133.140319,"version":"13.0b/18.0a"},{"town":"下田の口","koaza":"","lat":33.022057,"lng":132.993715,"version":"13.0b/18.0a"},{"town":"白濱","koaza":"","lat":33.055089,"lng":133.093658,"version":"13.0b/18.0a"},{"town":"鈴","koaza":"","lat":33.124337,"lng":133.14848,"version":"13.0b/18.0a"},{"town":"田野浦","koaza":"","lat":33.002,"lng":132.998849,"version":"13.0b/18.0a"},{"town":"中ノ川","koaza":"","lat":33.129336,"lng":133.13786,"version":"13.0b/18.0a"},{"town":"灘","koaza":"","lat":33.034927,"lng":133.091117,"version":"13.0b/18.0a"},{"town":"藤縄","koaza":"","lat":33.098509,"lng":133.084873,"version":"13.0b/18.0a"},{"town":"不破原","koaza":"","lat":33.110668,"lng":133.112981,"version":"13.0b/18.0a"},{"town":"蜷川","koaza":"","lat":33.083417,"lng":133.048261,"version":"13.0b/18.0a"},{"town":"入野","koaza":"芝","lat":33.018936,"lng":133.002379,"version":"13.0b/18.0a"},{"town":"有井川","koaza":"","lat":33.071462,"lng":133.077348,"version":"14.0b/19.0a"},{"town":"伊田","koaza":"","lat":33.041019,"lng":133.082188,"version":"14.0b/19.0a"},{"town":"市野瀬","koaza":"","lat":33.171906,"lng":133.160446,"version":"14.0b/19.0a"},{"town":"市野々川","koaza":"","lat":33.128645,"lng":133.089028,"version":"14.0b/19.0a"},{"town":"出口","koaza":"","lat":32.988327,"lng":132.990396,"version":"14.0b/19.0a"},{"town":"伊與喜","koaza":"","lat":33.111896,"lng":133.079568,"version":"14.0b/19.0a"},{"town":"入野","koaza":"","lat":33.025371,"lng":133.00943,"version":"14.0b/19.0a"},{"town":"浮鞭","koaza":"","lat":33.042197,"lng":133.031877,"version":"14.0b/19.0a"},{"town":"馬荷","koaza":"","lat":33.050223,"lng":132.973357,"version":"14.0b/19.0a"},{"town":"大井川","koaza":"","lat":33.070118,"lng":132.980091,"version":"14.0b/19.0a"},{"town":"大方橘川","koaza":"","lat":33.042869,"lng":132.987058,"version":"14.0b/19.0a"},{"town":"奥湊川","koaza":"","lat":33.086587,"lng":133.013099,"version":"14.0b/19.0a"},{"town":"御坊畑","koaza":"","lat":33.026841,"lng":132.967665,"version":"14.0b/19.0a"},{"town":"荷稲","koaza":"","lat":33.131551,"lng":133.120004,"version":"14.0b/19.0a"},{"town":"上川口","koaza":"","lat":33.043859,"lng":133.054998,"version":"14.0b/19.0a"},{"town":"上田の口","koaza":"","lat":33.008722,"lng":132.974839,"version":"14.0b/19.0a"},{"town":"加持","koaza":"","lat":33.055987,"lng":133.013045,"version":"14.0b/19.0a"},{"town":"加持川","koaza":"","lat":33.072004,"lng":132.996161,"version":"14.0b/19.0a"},{"town":"川奥","koaza":"","lat":33.14839,"lng":133.104252,"version":"14.0b/19.0a"},{"town":"口湊川","koaza":"","lat":33.053802,"lng":133.028374,"version":"14.0b/19.0a"},{"town":"熊井","koaza":"","lat":33.099199,"lng":133.109929,"version":"14.0b/19.0a"},{"town":"熊野浦","koaza":"","lat":33.09882,"lng":133.133206,"version":"14.0b/19.0a"},{"town":"黒潮","koaza":"","lat":33.075685,"lng":133.11246,"version":"14.0b/19.0a"},{"town":"小黒ノ川","koaza":"","lat":33.117292,"lng":133.12245,"version":"14.0b/19.0a"},{"town":"拳ノ川","koaza":"","lat":33.148604,"lng":133.121217,"version":"14.0b/19.0a"},{"town":"佐賀","koaza":"","lat":33.078751,"lng":133.096991,"version":"14.0b/19.0a"},{"town":"佐賀橘川","koaza":"","lat":33.147206,"lng":133.140319,"version":"14.0b/19.0a"},{"town":"下田の口","koaza":"","lat":33.022057,"lng":132.993715,"version":"14.0b/19.0a"},{"town":"白濱","koaza":"","lat":33.055089,"lng":133.093658,"version":"14.0b/19.0a"},{"town":"鈴","koaza":"","lat":33.124337,"lng":133.14848,"version":"14.0b/19.0a"},{"town":"田野浦","koaza":"","lat":33.002,"lng":132.998849,"version":"14.0b/19.0a"},{"town":"中ノ川","koaza":"","lat":33.129336,"lng":133.13786,"version":"14.0b/19.0a"},{"town":"灘","koaza":"","lat":33.034927,"lng":133.091117,"version":"14.0b/19.0a"},{"town":"藤縄","koaza":"","lat":33.098509,"lng":133.084873,"version":"14.0b/19.0a"},{"town":"不破原","koaza":"","lat":33.110668,"lng":133.112981,"version":"14.0b/19.0a"},{"town":"蜷川","koaza":"","lat":33.083417,"lng":133.048261,"version":"14.0b/19.0a"},{"town":"入野","koaza":"芝","lat":33.018936,"lng":133.002379,"version":"14.0b/19.0a"}]