[{"town":"相去","koaza":"","lat":33.220902,"lng":133.046774,"version":"13.0b/18.0a"},{"town":"秋丸","koaza":"","lat":33.18647,"lng":133.070902,"version":"13.0b/18.0a"},{"town":"家地川","koaza":"","lat":33.158098,"lng":133.080869,"version":"13.0b/18.0a"},{"town":"井崎","koaza":"","lat":33.200127,"lng":132.855196,"version":"13.0b/18.0a"},{"town":"市生原","koaza":"","lat":33.274781,"lng":133.117776,"version":"13.0b/18.0a"},{"town":"市ノ又","koaza":"","lat":33.199265,"lng":133.039623,"version":"13.0b/18.0a"},{"town":"壱斗俵","koaza":"","lat":33.294442,"lng":133.112547,"version":"13.0b/18.0a"},{"town":"魚ノ川","koaza":"","lat":33.2808,"lng":133.155996,"version":"13.0b/18.0a"},{"town":"打井川","koaza":"","lat":33.150786,"lng":133.033799,"version":"13.0b/18.0a"},{"town":"浦越","koaza":"","lat":33.205072,"lng":132.947609,"version":"13.0b/18.0a"},{"town":"江師","koaza":"","lat":33.213201,"lng":132.963201,"version":"13.0b/18.0a"},{"town":"大井川","koaza":"","lat":33.207974,"lng":132.884781,"version":"13.0b/18.0a"},{"town":"大井野","koaza":"","lat":33.206323,"lng":133.119803,"version":"13.0b/18.0a"},{"town":"大鶴津","koaza":"","lat":33.197892,"lng":133.219445,"version":"13.0b/18.0a"},{"town":"大道","koaza":"","lat":33.279239,"lng":132.892906,"version":"13.0b/18.0a"},{"town":"大向","koaza":"","lat":33.184207,"lng":133.098253,"version":"13.0b/18.0a"},{"town":"興津","koaza":"","lat":33.164538,"lng":133.179012,"version":"13.0b/18.0a"},{"town":"奥呉地","koaza":"","lat":33.295405,"lng":133.156131,"version":"13.0b/18.0a"},{"town":"奥神ノ川","koaza":"","lat":33.263966,"lng":133.076721,"version":"13.0b/18.0a"},{"town":"小野","koaza":"","lat":33.230246,"lng":132.865577,"version":"13.0b/18.0a"},{"town":"親ケ内","koaza":"","lat":33.215267,"lng":133.183778,"version":"13.0b/18.0a"},{"town":"折合","koaza":"","lat":33.26513,"lng":133.047031,"version":"13.0b/18.0a"},{"town":"替坂本","koaza":"","lat":33.268141,"lng":133.176654,"version":"13.0b/18.0a"},{"town":"香月が丘","koaza":"","lat":33.215661,"lng":133.128763,"version":"13.0b/18.0a"},{"town":"影野","koaza":"","lat":33.284505,"lng":133.17897,"version":"13.0b/18.0a"},{"town":"数神","koaza":"","lat":33.229724,"lng":133.177209,"version":"13.0b/18.0a"},{"town":"上秋丸","koaza":"","lat":33.307117,"lng":133.109501,"version":"13.0b/18.0a"},{"town":"上岡","koaza":"","lat":33.184812,"lng":133.017784,"version":"13.0b/18.0a"},{"town":"茅吹手","koaza":"","lat":33.214047,"lng":132.928236,"version":"13.0b/18.0a"},{"town":"烏手","koaza":"","lat":33.195764,"lng":133.058748,"version":"13.0b/18.0a"},{"town":"河内","koaza":"","lat":33.218224,"lng":132.865607,"version":"13.0b/18.0a"},{"town":"川ノ内","koaza":"","lat":33.292334,"lng":133.142251,"version":"13.0b/18.0a"},{"town":"北琴平町","koaza":"","lat":33.215164,"lng":133.134704,"version":"13.0b/18.0a"},{"town":"希ノ川","koaza":"","lat":33.173073,"lng":132.991538,"version":"13.0b/18.0a"},{"town":"金上野","koaza":"","lat":33.191734,"lng":133.144042,"version":"13.0b/18.0a"},{"town":"口神ノ川","koaza":"","lat":33.201305,"lng":133.10556,"version":"13.0b/18.0a"},{"town":"窪川","koaza":"","lat":33.205801,"lng":133.133679,"version":"13.0b/18.0a"},{"town":"久保川","koaza":"","lat":33.244695,"lng":132.888678,"version":"13.0b/18.0a"},{"town":"窪川中津川","koaza":"","lat":33.29633,"lng":133.089399,"version":"13.0b/18.0a"},{"town":"黒石","koaza":"","lat":33.219647,"lng":133.199318,"version":"13.0b/18.0a"},{"town":"小石","koaza":"","lat":33.20623,"lng":132.979539,"version":"13.0b/18.0a"},{"town":"神ノ西","koaza":"","lat":33.213082,"lng":133.122161,"version":"13.0b/18.0a"},{"town":"古城","koaza":"","lat":33.260891,"lng":132.828419,"version":"13.0b/18.0a"},{"town":"小鶴津","koaza":"","lat":33.216877,"lng":133.235139,"version":"13.0b/18.0a"},{"town":"琴平町","koaza":"","lat":33.212498,"lng":133.135195,"version":"13.0b/18.0a"},{"town":"小向","koaza":"","lat":33.235804,"lng":133.162576,"version":"13.0b/18.0a"},{"town":"木屋ケ内","koaza":"","lat":33.243497,"lng":132.979241,"version":"13.0b/18.0a"},{"town":"根元原","koaza":"","lat":33.220887,"lng":133.142517,"version":"13.0b/18.0a"},{"town":"西原","koaza":"","lat":33.193867,"lng":133.126757,"version":"13.0b/18.0a"},{"town":"榊山町","koaza":"","lat":33.213147,"lng":133.139038,"version":"13.0b/18.0a"},{"town":"作屋","koaza":"","lat":33.264621,"lng":133.109096,"version":"13.0b/18.0a"},{"town":"里川","koaza":"","lat":33.185783,"lng":132.94258,"version":"13.0b/18.0a"},{"town":"茂串町","koaza":"","lat":33.208174,"lng":133.133254,"version":"13.0b/18.0a"},{"town":"仕出原","koaza":"","lat":33.223807,"lng":133.118257,"version":"13.0b/18.0a"},{"town":"下岡","koaza":"","lat":33.189409,"lng":133.003864,"version":"13.0b/18.0a"},{"town":"下呉地","koaza":"","lat":33.268787,"lng":133.165051,"version":"13.0b/18.0a"},{"town":"下津井","koaza":"","lat":33.294436,"lng":132.936121,"version":"13.0b/18.0a"},{"town":"下道","koaza":"","lat":33.265718,"lng":132.946461,"version":"13.0b/18.0a"},{"town":"勝賀野","koaza":"","lat":33.274174,"lng":133.143828,"version":"13.0b/18.0a"},{"town":"上宮","koaza":"","lat":33.17653,"lng":133.049738,"version":"13.0b/18.0a"},{"town":"昭和","koaza":"","lat":33.21651,"lng":132.905971,"version":"13.0b/18.0a"},{"town":"地吉","koaza":"","lat":33.256846,"lng":132.804567,"version":"13.0b/18.0a"},{"town":"志和","koaza":"","lat":33.224376,"lng":133.234228,"version":"13.0b/18.0a"},{"town":"志和峰","koaza":"","lat":33.229334,"lng":133.218954,"version":"13.0b/18.0a"},{"town":"新開町","koaza":"","lat":33.209251,"lng":133.129535,"version":"13.0b/18.0a"},{"town":"瀬里","koaza":"","lat":33.187652,"lng":132.987071,"version":"13.0b/18.0a"},{"town":"天ノ川","koaza":"","lat":33.184302,"lng":133.090205,"version":"13.0b/18.0a"},{"town":"大正","koaza":"","lat":33.174579,"lng":132.960289,"version":"13.0b/18.0a"},{"town":"大正大奈路","koaza":"","lat":33.232176,"lng":132.989825,"version":"13.0b/18.0a"},{"town":"大正北ノ川","koaza":"","lat":33.185239,"lng":133.034281,"version":"13.0b/18.0a"},{"town":"大正中津川","koaza":"","lat":33.277737,"lng":132.999161,"version":"13.0b/18.0a"},{"town":"高野","koaza":"","lat":33.173277,"lng":133.106142,"version":"13.0b/18.0a"},{"town":"津賀","koaza":"","lat":33.225245,"lng":132.932155,"version":"13.0b/18.0a"},{"town":"寺野","koaza":"","lat":33.220923,"lng":133.076053,"version":"13.0b/18.0a"},{"town":"土居","koaza":"","lat":33.240064,"lng":133.198046,"version":"13.0b/18.0a"},{"town":"道徳","koaza":"","lat":33.276104,"lng":133.189558,"version":"13.0b/18.0a"},{"town":"十川","koaza":"","lat":33.258318,"lng":132.865551,"version":"13.0b/18.0a"},{"town":"十和川口","koaza":"","lat":33.229452,"lng":132.835868,"version":"13.0b/18.0a"},{"town":"戸川","koaza":"","lat":33.26429,"lng":132.850111,"version":"13.0b/18.0a"},{"town":"床鍋","koaza":"","lat":33.302949,"lng":133.175121,"version":"13.0b/18.0a"},{"town":"富岡","koaza":"","lat":33.225995,"lng":133.16058,"version":"13.0b/18.0a"},{"town":"中神ノ川","koaza":"","lat":33.228409,"lng":133.098201,"version":"13.0b/18.0a"},{"town":"中ノ越","koaza":"","lat":33.232349,"lng":133.158556,"version":"13.0b/18.0a"},{"town":"中村","koaza":"","lat":33.271886,"lng":133.131244,"version":"13.0b/18.0a"},{"town":"七里","koaza":"","lat":33.256801,"lng":133.134137,"version":"13.0b/18.0a"},{"town":"奈路","koaza":"","lat":33.23567,"lng":133.185645,"version":"13.0b/18.0a"},{"town":"仁井田","koaza":"","lat":33.245124,"lng":133.165121,"version":"13.0b/18.0a"},{"town":"西川角","koaza":"","lat":33.245569,"lng":133.131808,"version":"13.0b/18.0a"},{"town":"西ノ川","koaza":"","lat":33.230375,"lng":132.97101,"version":"13.0b/18.0a"},{"town":"根々崎","koaza":"","lat":33.224857,"lng":133.134128,"version":"13.0b/18.0a"},{"town":"野地","koaza":"","lat":33.177756,"lng":133.072719,"version":"13.0b/18.0a"},{"town":"野々川","koaza":"","lat":33.190162,"lng":132.905255,"version":"13.0b/18.0a"},{"town":"八千数","koaza":"","lat":33.209195,"lng":133.177557,"version":"13.0b/18.0a"},{"town":"飯ノ川","koaza":"","lat":33.239166,"lng":133.21296,"version":"13.0b/18.0a"},{"town":"東大奈路","koaza":"","lat":33.227839,"lng":133.145287,"version":"13.0b/18.0a"},{"town":"東川角","koaza":"","lat":33.237944,"lng":133.133724,"version":"13.0b/18.0a"},{"town":"東北ノ川","koaza":"","lat":33.287694,"lng":133.125552,"version":"13.0b/18.0a"},{"town":"東町","koaza":"","lat":33.209526,"lng":133.13734,"version":"13.0b/18.0a"},{"town":"檜生原","koaza":"","lat":33.238108,"lng":133.061631,"version":"13.0b/18.0a"},{"town":"日野地","koaza":"","lat":33.319065,"lng":133.059388,"version":"13.0b/18.0a"},{"town":"平串","koaza":"","lat":33.227772,"lng":133.152965,"version":"13.0b/18.0a"},{"town":"平野","koaza":"","lat":33.250878,"lng":133.188605,"version":"13.0b/18.0a"},{"town":"弘瀬","koaza":"","lat":33.165912,"lng":133.059043,"version":"13.0b/18.0a"},{"town":"広瀬","koaza":"","lat":33.20413,"lng":132.83176,"version":"13.0b/18.0a"},{"town":"弘見","koaza":"","lat":33.233325,"lng":133.200099,"version":"13.0b/18.0a"},{"town":"藤ノ川","koaza":"","lat":33.217097,"lng":133.169169,"version":"13.0b/18.0a"},{"town":"古市町","koaza":"","lat":33.207747,"lng":133.141447,"version":"13.0b/18.0a"},{"town":"本堂","koaza":"","lat":33.217999,"lng":133.191219,"version":"13.0b/18.0a"},{"town":"本町","koaza":"","lat":33.21025,"lng":133.13354,"version":"13.0b/18.0a"},{"town":"見付","koaza":"","lat":33.201648,"lng":133.162503,"version":"13.0b/18.0a"},{"town":"南川口","koaza":"","lat":33.201657,"lng":133.08519,"version":"13.0b/18.0a"},{"town":"峰ノ上","koaza":"","lat":33.173053,"lng":133.139499,"version":"13.0b/18.0a"},{"town":"宮内","koaza":"","lat":33.237342,"lng":133.11084,"version":"13.0b/18.0a"},{"town":"向川","koaza":"","lat":33.22469,"lng":133.165446,"version":"13.0b/18.0a"},{"town":"芳川","koaza":"","lat":33.225479,"lng":133.014706,"version":"13.0b/18.0a"},{"town":"与津地","koaza":"","lat":33.198643,"lng":133.192061,"version":"13.0b/18.0a"},{"town":"米奥","koaza":"","lat":33.276838,"lng":133.092093,"version":"13.0b/18.0a"},{"town":"六反地","koaza":"","lat":33.257631,"lng":133.167218,"version":"13.0b/18.0a"},{"town":"若井","koaza":"","lat":33.183291,"lng":133.105048,"version":"13.0b/18.0a"},{"town":"若井川","koaza":"","lat":33.17349,"lng":133.123416,"version":"13.0b/18.0a"},{"town":"相去","koaza":"","lat":33.220902,"lng":133.046774,"version":"14.0b/19.0a"},{"town":"秋丸","koaza":"","lat":33.18647,"lng":133.070902,"version":"14.0b/19.0a"},{"town":"家地川","koaza":"","lat":33.158098,"lng":133.080869,"version":"14.0b/19.0a"},{"town":"井崎","koaza":"","lat":33.200127,"lng":132.855196,"version":"14.0b/19.0a"},{"town":"市生原","koaza":"","lat":33.274781,"lng":133.117776,"version":"14.0b/19.0a"},{"town":"市ノ又","koaza":"","lat":33.199265,"lng":133.039623,"version":"14.0b/19.0a"},{"town":"壱斗俵","koaza":"","lat":33.294442,"lng":133.112547,"version":"14.0b/19.0a"},{"town":"魚ノ川","koaza":"","lat":33.2808,"lng":133.155996,"version":"14.0b/19.0a"},{"town":"打井川","koaza":"","lat":33.150786,"lng":133.033799,"version":"14.0b/19.0a"},{"town":"浦越","koaza":"","lat":33.205072,"lng":132.947609,"version":"14.0b/19.0a"},{"town":"江師","koaza":"","lat":33.213201,"lng":132.963201,"version":"14.0b/19.0a"},{"town":"大井川","koaza":"","lat":33.207974,"lng":132.884781,"version":"14.0b/19.0a"},{"town":"大井野","koaza":"","lat":33.206323,"lng":133.119803,"version":"14.0b/19.0a"},{"town":"大鶴津","koaza":"","lat":33.197892,"lng":133.219445,"version":"14.0b/19.0a"},{"town":"大道","koaza":"","lat":33.279239,"lng":132.892906,"version":"14.0b/19.0a"},{"town":"大向","koaza":"","lat":33.184207,"lng":133.098253,"version":"14.0b/19.0a"},{"town":"興津","koaza":"","lat":33.164538,"lng":133.179012,"version":"14.0b/19.0a"},{"town":"奥呉地","koaza":"","lat":33.295405,"lng":133.156131,"version":"14.0b/19.0a"},{"town":"奥神ノ川","koaza":"","lat":33.263966,"lng":133.076721,"version":"14.0b/19.0a"},{"town":"小野","koaza":"","lat":33.230246,"lng":132.865577,"version":"14.0b/19.0a"},{"town":"親ケ内","koaza":"","lat":33.215267,"lng":133.183778,"version":"14.0b/19.0a"},{"town":"折合","koaza":"","lat":33.26513,"lng":133.047031,"version":"14.0b/19.0a"},{"town":"替坂本","koaza":"","lat":33.268141,"lng":133.176654,"version":"14.0b/19.0a"},{"town":"香月が丘","koaza":"","lat":33.215661,"lng":133.128763,"version":"14.0b/19.0a"},{"town":"影野","koaza":"","lat":33.284505,"lng":133.17897,"version":"14.0b/19.0a"},{"town":"数神","koaza":"","lat":33.229724,"lng":133.177209,"version":"14.0b/19.0a"},{"town":"上秋丸","koaza":"","lat":33.307117,"lng":133.109501,"version":"14.0b/19.0a"},{"town":"上岡","koaza":"","lat":33.184812,"lng":133.017784,"version":"14.0b/19.0a"},{"town":"茅吹手","koaza":"","lat":33.214047,"lng":132.928236,"version":"14.0b/19.0a"},{"town":"烏手","koaza":"","lat":33.195764,"lng":133.058748,"version":"14.0b/19.0a"},{"town":"河内","koaza":"","lat":33.218224,"lng":132.865607,"version":"14.0b/19.0a"},{"town":"川ノ内","koaza":"","lat":33.292334,"lng":133.142251,"version":"14.0b/19.0a"},{"town":"北琴平町","koaza":"","lat":33.215164,"lng":133.134704,"version":"14.0b/19.0a"},{"town":"希ノ川","koaza":"","lat":33.173073,"lng":132.991538,"version":"14.0b/19.0a"},{"town":"金上野","koaza":"","lat":33.191734,"lng":133.144042,"version":"14.0b/19.0a"},{"town":"口神ノ川","koaza":"","lat":33.201305,"lng":133.10556,"version":"14.0b/19.0a"},{"town":"窪川","koaza":"","lat":33.205801,"lng":133.133679,"version":"14.0b/19.0a"},{"town":"久保川","koaza":"","lat":33.244695,"lng":132.888678,"version":"14.0b/19.0a"},{"town":"窪川中津川","koaza":"","lat":33.29633,"lng":133.089399,"version":"14.0b/19.0a"},{"town":"黒石","koaza":"","lat":33.219647,"lng":133.199318,"version":"14.0b/19.0a"},{"town":"小石","koaza":"","lat":33.20623,"lng":132.979539,"version":"14.0b/19.0a"},{"town":"神ノ西","koaza":"","lat":33.213082,"lng":133.122161,"version":"14.0b/19.0a"},{"town":"古城","koaza":"","lat":33.260891,"lng":132.828419,"version":"14.0b/19.0a"},{"town":"小鶴津","koaza":"","lat":33.216877,"lng":133.235139,"version":"14.0b/19.0a"},{"town":"琴平町","koaza":"","lat":33.212498,"lng":133.135195,"version":"14.0b/19.0a"},{"town":"小向","koaza":"","lat":33.235804,"lng":133.162576,"version":"14.0b/19.0a"},{"town":"木屋ケ内","koaza":"","lat":33.243497,"lng":132.979241,"version":"14.0b/19.0a"},{"town":"根元原","koaza":"","lat":33.220887,"lng":133.142517,"version":"14.0b/19.0a"},{"town":"西原","koaza":"","lat":33.193867,"lng":133.126757,"version":"14.0b/19.0a"},{"town":"榊山町","koaza":"","lat":33.213147,"lng":133.139038,"version":"14.0b/19.0a"},{"town":"作屋","koaza":"","lat":33.264621,"lng":133.109096,"version":"14.0b/19.0a"},{"town":"里川","koaza":"","lat":33.185783,"lng":132.94258,"version":"14.0b/19.0a"},{"town":"茂串町","koaza":"","lat":33.208174,"lng":133.133254,"version":"14.0b/19.0a"},{"town":"仕出原","koaza":"","lat":33.223807,"lng":133.118257,"version":"14.0b/19.0a"},{"town":"下岡","koaza":"","lat":33.189409,"lng":133.003864,"version":"14.0b/19.0a"},{"town":"下呉地","koaza":"","lat":33.268787,"lng":133.165051,"version":"14.0b/19.0a"},{"town":"下津井","koaza":"","lat":33.294436,"lng":132.936121,"version":"14.0b/19.0a"},{"town":"下道","koaza":"","lat":33.265718,"lng":132.946461,"version":"14.0b/19.0a"},{"town":"勝賀野","koaza":"","lat":33.274174,"lng":133.143828,"version":"14.0b/19.0a"},{"town":"上宮","koaza":"","lat":33.17653,"lng":133.049738,"version":"14.0b/19.0a"},{"town":"昭和","koaza":"","lat":33.21651,"lng":132.905971,"version":"14.0b/19.0a"},{"town":"地吉","koaza":"","lat":33.256846,"lng":132.804567,"version":"14.0b/19.0a"},{"town":"志和","koaza":"","lat":33.224376,"lng":133.234228,"version":"14.0b/19.0a"},{"town":"志和峰","koaza":"","lat":33.229334,"lng":133.218954,"version":"14.0b/19.0a"},{"town":"新開町","koaza":"","lat":33.209251,"lng":133.129535,"version":"14.0b/19.0a"},{"town":"瀬里","koaza":"","lat":33.187652,"lng":132.987071,"version":"14.0b/19.0a"},{"town":"天ノ川","koaza":"","lat":33.184302,"lng":133.090205,"version":"14.0b/19.0a"},{"town":"大正","koaza":"","lat":33.174579,"lng":132.960289,"version":"14.0b/19.0a"},{"town":"大正大奈路","koaza":"","lat":33.232176,"lng":132.989825,"version":"14.0b/19.0a"},{"town":"大正北ノ川","koaza":"","lat":33.185239,"lng":133.034281,"version":"14.0b/19.0a"},{"town":"大正中津川","koaza":"","lat":33.277737,"lng":132.999161,"version":"14.0b/19.0a"},{"town":"高野","koaza":"","lat":33.173277,"lng":133.106142,"version":"14.0b/19.0a"},{"town":"津賀","koaza":"","lat":33.225245,"lng":132.932155,"version":"14.0b/19.0a"},{"town":"寺野","koaza":"","lat":33.220923,"lng":133.076053,"version":"14.0b/19.0a"},{"town":"土居","koaza":"","lat":33.240064,"lng":133.198046,"version":"14.0b/19.0a"},{"town":"道徳","koaza":"","lat":33.276104,"lng":133.189558,"version":"14.0b/19.0a"},{"town":"十川","koaza":"","lat":33.258318,"lng":132.865551,"version":"14.0b/19.0a"},{"town":"十和川口","koaza":"","lat":33.229452,"lng":132.835868,"version":"14.0b/19.0a"},{"town":"戸川","koaza":"","lat":33.26429,"lng":132.850111,"version":"14.0b/19.0a"},{"town":"床鍋","koaza":"","lat":33.302949,"lng":133.175121,"version":"14.0b/19.0a"},{"town":"富岡","koaza":"","lat":33.225995,"lng":133.16058,"version":"14.0b/19.0a"},{"town":"中神ノ川","koaza":"","lat":33.228409,"lng":133.098201,"version":"14.0b/19.0a"},{"town":"中ノ越","koaza":"","lat":33.232349,"lng":133.158556,"version":"14.0b/19.0a"},{"town":"中村","koaza":"","lat":33.271886,"lng":133.131244,"version":"14.0b/19.0a"},{"town":"七里","koaza":"","lat":33.256801,"lng":133.134137,"version":"14.0b/19.0a"},{"town":"奈路","koaza":"","lat":33.23567,"lng":133.185645,"version":"14.0b/19.0a"},{"town":"仁井田","koaza":"","lat":33.245124,"lng":133.165121,"version":"14.0b/19.0a"},{"town":"西川角","koaza":"","lat":33.245569,"lng":133.131808,"version":"14.0b/19.0a"},{"town":"西ノ川","koaza":"","lat":33.230375,"lng":132.97101,"version":"14.0b/19.0a"},{"town":"根々崎","koaza":"","lat":33.224857,"lng":133.134128,"version":"14.0b/19.0a"},{"town":"野地","koaza":"","lat":33.177756,"lng":133.072719,"version":"14.0b/19.0a"},{"town":"野々川","koaza":"","lat":33.190162,"lng":132.905255,"version":"14.0b/19.0a"},{"town":"八千数","koaza":"","lat":33.209195,"lng":133.177557,"version":"14.0b/19.0a"},{"town":"飯ノ川","koaza":"","lat":33.239166,"lng":133.21296,"version":"14.0b/19.0a"},{"town":"東大奈路","koaza":"","lat":33.227839,"lng":133.145287,"version":"14.0b/19.0a"},{"town":"東川角","koaza":"","lat":33.237944,"lng":133.133724,"version":"14.0b/19.0a"},{"town":"東北ノ川","koaza":"","lat":33.287694,"lng":133.125552,"version":"14.0b/19.0a"},{"town":"東町","koaza":"","lat":33.209526,"lng":133.13734,"version":"14.0b/19.0a"},{"town":"檜生原","koaza":"","lat":33.238108,"lng":133.061631,"version":"14.0b/19.0a"},{"town":"日野地","koaza":"","lat":33.319065,"lng":133.059388,"version":"14.0b/19.0a"},{"town":"平串","koaza":"","lat":33.227772,"lng":133.152965,"version":"14.0b/19.0a"},{"town":"平野","koaza":"","lat":33.250878,"lng":133.188605,"version":"14.0b/19.0a"},{"town":"弘瀬","koaza":"","lat":33.165912,"lng":133.059043,"version":"14.0b/19.0a"},{"town":"広瀬","koaza":"","lat":33.20413,"lng":132.83176,"version":"14.0b/19.0a"},{"town":"弘見","koaza":"","lat":33.233325,"lng":133.200099,"version":"14.0b/19.0a"},{"town":"藤ノ川","koaza":"","lat":33.217097,"lng":133.169169,"version":"14.0b/19.0a"},{"town":"古市町","koaza":"","lat":33.207747,"lng":133.141447,"version":"14.0b/19.0a"},{"town":"本堂","koaza":"","lat":33.217999,"lng":133.191219,"version":"14.0b/19.0a"},{"town":"本町","koaza":"","lat":33.21025,"lng":133.13354,"version":"14.0b/19.0a"},{"town":"見付","koaza":"","lat":33.201648,"lng":133.162503,"version":"14.0b/19.0a"},{"town":"南川口","koaza":"","lat":33.201657,"lng":133.08519,"version":"14.0b/19.0a"},{"town":"峰ノ上","koaza":"","lat":33.173053,"lng":133.139499,"version":"14.0b/19.0a"},{"town":"宮内","koaza":"","lat":33.237342,"lng":133.11084,"version":"14.0b/19.0a"},{"town":"向川","koaza":"","lat":33.22469,"lng":133.165446,"version":"14.0b/19.0a"},{"town":"芳川","koaza":"","lat":33.225479,"lng":133.014706,"version":"14.0b/19.0a"},{"town":"与津地","koaza":"","lat":33.198643,"lng":133.192061,"version":"14.0b/19.0a"},{"town":"米奥","koaza":"","lat":33.276838,"lng":133.092093,"version":"14.0b/19.0a"},{"town":"六反地","koaza":"","lat":33.257631,"lng":133.167218,"version":"14.0b/19.0a"},{"town":"若井","koaza":"","lat":33.183291,"lng":133.105048,"version":"14.0b/19.0a"},{"town":"若井川","koaza":"","lat":33.17349,"lng":133.123416,"version":"14.0b/19.0a"}]