[{"town":"大字池峰","koaza":"","lat":34.029912,"lng":135.93971,"version":"13.0b/18.0a"},{"town":"大字浦向","koaza":"","lat":33.998617,"lng":135.934973,"version":"13.0b/18.0a"},{"town":"大字上池原","koaza":"","lat":34.069104,"lng":135.943629,"version":"13.0b/18.0a"},{"town":"大字上桑原","koaza":"","lat":34.000768,"lng":135.98169,"version":"13.0b/18.0a"},{"town":"大字佐田","koaza":"","lat":34.001464,"lng":135.967103,"version":"13.0b/18.0a"},{"town":"大字下池原","koaza":"","lat":34.041465,"lng":135.985107,"version":"13.0b/18.0a"},{"town":"大字下桑原","koaza":"","lat":34.02188,"lng":135.987288,"version":"13.0b/18.0a"},{"town":"大字前鬼","koaza":"","lat":34.08146,"lng":135.908906,"version":"13.0b/18.0a"},{"town":"大字寺垣内","koaza":"","lat":34.013759,"lng":135.943921,"version":"13.0b/18.0a"},{"town":"大字池峰","koaza":"","lat":34.029912,"lng":135.93971,"version":"14.0b/19.0a"},{"town":"大字浦向","koaza":"","lat":33.998617,"lng":135.934973,"version":"14.0b/19.0a"},{"town":"大字上池原","koaza":"","lat":34.069104,"lng":135.943629,"version":"14.0b/19.0a"},{"town":"大字上桑原","koaza":"","lat":34.000768,"lng":135.98169,"version":"14.0b/19.0a"},{"town":"大字佐田","koaza":"","lat":34.001464,"lng":135.967103,"version":"14.0b/19.0a"},{"town":"大字下池原","koaza":"","lat":34.041465,"lng":135.985107,"version":"14.0b/19.0a"},{"town":"大字下桑原","koaza":"","lat":34.02188,"lng":135.987288,"version":"14.0b/19.0a"},{"town":"大字前鬼","koaza":"","lat":34.08146,"lng":135.908906,"version":"14.0b/19.0a"},{"town":"大字寺垣内","koaza":"","lat":34.013759,"lng":135.943921,"version":"14.0b/19.0a"}]