[{"town":"大字味間","koaza":"","lat":34.538034,"lng":135.810728,"version":"13.0b/18.0a"},{"town":"大字今里","koaza":"","lat":34.570174,"lng":135.794117,"version":"13.0b/18.0a"},{"town":"大字伊与戸","koaza":"","lat":34.54773,"lng":135.814459,"version":"13.0b/18.0a"},{"town":"大字多","koaza":"","lat":34.53342,"lng":135.789593,"version":"13.0b/18.0a"},{"town":"大字大網","koaza":"","lat":34.548122,"lng":135.768062,"version":"13.0b/18.0a"},{"town":"大字大木","koaza":"","lat":34.551689,"lng":135.814105,"version":"13.0b/18.0a"},{"town":"大字鍵","koaza":"","lat":34.5667,"lng":135.798871,"version":"13.0b/18.0a"},{"town":"大字笠形","koaza":"","lat":34.543558,"lng":135.814089,"version":"13.0b/18.0a"},{"town":"大字金澤","koaza":"","lat":34.554623,"lng":135.819856,"version":"13.0b/18.0a"},{"town":"大字唐古","koaza":"","lat":34.574499,"lng":135.798078,"version":"13.0b/18.0a"},{"town":"大字藏堂","koaza":"","lat":34.547074,"lng":135.820651,"version":"13.0b/18.0a"},{"town":"大字黒田","koaza":"","lat":34.566961,"lng":135.7761,"version":"13.0b/18.0a"},{"town":"大字小阪","koaza":"","lat":34.562219,"lng":135.7997,"version":"13.0b/18.0a"},{"town":"大字金剛寺","koaza":"","lat":34.554654,"lng":135.765819,"version":"13.0b/18.0a"},{"town":"大字阪手","koaza":"","lat":34.554311,"lng":135.79921,"version":"13.0b/18.0a"},{"town":"大字佐味","koaza":"","lat":34.54125,"lng":135.770777,"version":"13.0b/18.0a"},{"town":"大字十六面","koaza":"","lat":34.553037,"lng":135.774962,"version":"13.0b/18.0a"},{"town":"大字新町","koaza":"","lat":34.558605,"lng":135.789894,"version":"13.0b/18.0a"},{"town":"大字大安寺","koaza":"","lat":34.552845,"lng":135.806559,"version":"13.0b/18.0a"},{"town":"大字為川南方","koaza":"","lat":34.552139,"lng":135.821199,"version":"13.0b/18.0a"},{"town":"大字為川北方","koaza":"","lat":34.556855,"lng":135.819462,"version":"13.0b/18.0a"},{"town":"大字千代","koaza":"","lat":34.54387,"lng":135.802111,"version":"13.0b/18.0a"},{"town":"大字富本","koaza":"","lat":34.562507,"lng":135.771404,"version":"13.0b/18.0a"},{"town":"大字新木","koaza":"","lat":34.542896,"lng":135.786843,"version":"13.0b/18.0a"},{"town":"大字西井上","koaza":"","lat":34.55839,"lng":135.805636,"version":"13.0b/18.0a"},{"town":"大字西竹田","koaza":"","lat":34.556223,"lng":135.771358,"version":"13.0b/18.0a"},{"town":"大字西代","koaza":"","lat":34.576419,"lng":135.792691,"version":"13.0b/18.0a"},{"town":"大字秦庄","koaza":"","lat":34.544535,"lng":135.791803,"version":"13.0b/18.0a"},{"town":"大字八田","koaza":"","lat":34.58184,"lng":135.803619,"version":"13.0b/18.0a"},{"town":"大字東井上","koaza":"","lat":34.558334,"lng":135.814053,"version":"13.0b/18.0a"},{"town":"大字平田","koaza":"","lat":34.555794,"lng":135.813332,"version":"13.0b/18.0a"},{"town":"大字平野","koaza":"","lat":34.549815,"lng":135.773322,"version":"13.0b/18.0a"},{"town":"大字法貴寺","koaza":"","lat":34.567287,"lng":135.807083,"version":"13.0b/18.0a"},{"town":"大字保津","koaza":"","lat":34.555951,"lng":135.782789,"version":"13.0b/18.0a"},{"town":"大字松本","koaza":"","lat":34.560015,"lng":135.766507,"version":"13.0b/18.0a"},{"town":"大字満田","koaza":"","lat":34.541264,"lng":135.775607,"version":"13.0b/18.0a"},{"town":"大字三笠","koaza":"","lat":34.549367,"lng":135.788651,"version":"13.0b/18.0a"},{"town":"大字宮古","koaza":"","lat":34.563454,"lng":135.78176,"version":"13.0b/18.0a"},{"town":"大字宮森","koaza":"","lat":34.539024,"lng":135.793027,"version":"13.0b/18.0a"},{"town":"大字八尾","koaza":"","lat":34.564398,"lng":135.789898,"version":"13.0b/18.0a"},{"town":"大字藥王寺","koaza":"","lat":34.550252,"lng":135.782159,"version":"13.0b/18.0a"},{"town":"大字矢部","koaza":"","lat":34.540449,"lng":135.781571,"version":"13.0b/18.0a"},{"town":"（大字なし）","koaza":"小室","lat":34.555736,"lng":135.790208,"version":"13.0b/18.0a"},{"town":"（大字なし）","koaza":"幸町","lat":34.552807,"lng":135.789934,"version":"13.0b/18.0a"},{"town":"（大字なし）","koaza":"","lat":34.553543,"lng":135.789985,"version":"13.0b/18.0a"},{"town":"（大字なし）","koaza":"殿町","lat":34.554226,"lng":135.789755,"version":"13.0b/18.0a"},{"town":"（大字なし）","koaza":"戎通一丁目","lat":34.554476,"lng":135.790785,"version":"13.0b/18.0a"},{"town":"（大字なし）","koaza":"戎通三丁目","lat":34.552795,"lng":135.791059,"version":"13.0b/18.0a"},{"town":"（大字なし）","koaza":"戎通二丁目","lat":34.553678,"lng":135.791012,"version":"13.0b/18.0a"},{"town":"（大字なし）","koaza":"大門西","lat":34.551827,"lng":135.791864,"version":"13.0b/18.0a"},{"town":"（大字なし）","koaza":"大門中","lat":34.55148,"lng":135.793341,"version":"13.0b/18.0a"},{"town":"（大字なし）","koaza":"八幡町","lat":34.555923,"lng":135.79462,"version":"13.0b/18.0a"},{"town":"（大字なし）","koaza":"祗園町","lat":34.552779,"lng":135.794449,"version":"13.0b/18.0a"},{"town":"（大字なし）","koaza":"材木町","lat":34.553674,"lng":135.794192,"version":"13.0b/18.0a"},{"town":"（大字なし）","koaza":"堺町","lat":34.552539,"lng":135.793786,"version":"13.0b/18.0a"},{"town":"（大字なし）","koaza":"新地","lat":34.550351,"lng":135.794685,"version":"13.0b/18.0a"},{"town":"（大字なし）","koaza":"南町","lat":34.551597,"lng":135.794261,"version":"13.0b/18.0a"},{"town":"（大字なし）","koaza":"三輪町","lat":34.553353,"lng":135.795147,"version":"13.0b/18.0a"},{"town":"大字阪手","koaza":"石橋","lat":34.559324,"lng":135.797031,"version":"13.0b/18.0a"},{"town":"（大字なし）","koaza":"茶町","lat":34.554432,"lng":135.79263,"version":"13.0b/18.0a"},{"town":"（大字なし）","koaza":"大門東","lat":34.551944,"lng":135.793985,"version":"13.0b/18.0a"},{"town":"（大字なし）","koaza":"郭内","lat":34.554917,"lng":135.794702,"version":"13.0b/18.0a"},{"town":"（大字なし）","koaza":"味間町","lat":34.554583,"lng":135.793764,"version":"13.0b/18.0a"},{"town":"（大字なし）","koaza":"根太口","lat":34.554978,"lng":135.795103,"version":"13.0b/18.0a"},{"town":"（大字なし）","koaza":"市町","lat":34.554398,"lng":135.793166,"version":"13.0b/18.0a"},{"town":"（大字なし）","koaza":"魚町","lat":34.554904,"lng":135.792635,"version":"13.0b/18.0a"},{"town":"大字味間","koaza":"","lat":34.538034,"lng":135.810728,"version":"14.0b/19.0a"},{"town":"大字今里","koaza":"","lat":34.570174,"lng":135.794117,"version":"14.0b/19.0a"},{"town":"大字伊与戸","koaza":"","lat":34.54773,"lng":135.814459,"version":"14.0b/19.0a"},{"town":"大字多","koaza":"","lat":34.53342,"lng":135.789593,"version":"14.0b/19.0a"},{"town":"大字大網","koaza":"","lat":34.548122,"lng":135.768062,"version":"14.0b/19.0a"},{"town":"大字大木","koaza":"","lat":34.551689,"lng":135.814105,"version":"14.0b/19.0a"},{"town":"大字鍵","koaza":"","lat":34.5667,"lng":135.798871,"version":"14.0b/19.0a"},{"town":"大字笠形","koaza":"","lat":34.543558,"lng":135.814089,"version":"14.0b/19.0a"},{"town":"大字金澤","koaza":"","lat":34.554623,"lng":135.819856,"version":"14.0b/19.0a"},{"town":"大字唐古","koaza":"","lat":34.574499,"lng":135.798078,"version":"14.0b/19.0a"},{"town":"大字藏堂","koaza":"","lat":34.547074,"lng":135.820651,"version":"14.0b/19.0a"},{"town":"大字黒田","koaza":"","lat":34.566961,"lng":135.7761,"version":"14.0b/19.0a"},{"town":"大字小阪","koaza":"","lat":34.562219,"lng":135.7997,"version":"14.0b/19.0a"},{"town":"大字金剛寺","koaza":"","lat":34.554654,"lng":135.765819,"version":"14.0b/19.0a"},{"town":"大字阪手","koaza":"","lat":34.554311,"lng":135.79921,"version":"14.0b/19.0a"},{"town":"大字佐味","koaza":"","lat":34.54125,"lng":135.770777,"version":"14.0b/19.0a"},{"town":"大字十六面","koaza":"","lat":34.553037,"lng":135.774962,"version":"14.0b/19.0a"},{"town":"大字新町","koaza":"","lat":34.558605,"lng":135.789894,"version":"14.0b/19.0a"},{"town":"大字大安寺","koaza":"","lat":34.552845,"lng":135.806559,"version":"14.0b/19.0a"},{"town":"大字為川南方","koaza":"","lat":34.552139,"lng":135.821199,"version":"14.0b/19.0a"},{"town":"大字為川北方","koaza":"","lat":34.556855,"lng":135.819462,"version":"14.0b/19.0a"},{"town":"大字千代","koaza":"","lat":34.54387,"lng":135.802111,"version":"14.0b/19.0a"},{"town":"大字富本","koaza":"","lat":34.562507,"lng":135.771404,"version":"14.0b/19.0a"},{"town":"大字新木","koaza":"","lat":34.542896,"lng":135.786843,"version":"14.0b/19.0a"},{"town":"大字西井上","koaza":"","lat":34.55839,"lng":135.805636,"version":"14.0b/19.0a"},{"town":"大字西竹田","koaza":"","lat":34.556223,"lng":135.771358,"version":"14.0b/19.0a"},{"town":"大字西代","koaza":"","lat":34.576419,"lng":135.792691,"version":"14.0b/19.0a"},{"town":"大字秦庄","koaza":"","lat":34.544535,"lng":135.791803,"version":"14.0b/19.0a"},{"town":"大字八田","koaza":"","lat":34.58184,"lng":135.803619,"version":"14.0b/19.0a"},{"town":"大字東井上","koaza":"","lat":34.558334,"lng":135.814053,"version":"14.0b/19.0a"},{"town":"大字平田","koaza":"","lat":34.555794,"lng":135.813332,"version":"14.0b/19.0a"},{"town":"大字平野","koaza":"","lat":34.549815,"lng":135.773322,"version":"14.0b/19.0a"},{"town":"大字法貴寺","koaza":"","lat":34.567287,"lng":135.807083,"version":"14.0b/19.0a"},{"town":"大字保津","koaza":"","lat":34.555951,"lng":135.782789,"version":"14.0b/19.0a"},{"town":"大字松本","koaza":"","lat":34.560015,"lng":135.766507,"version":"14.0b/19.0a"},{"town":"大字満田","koaza":"","lat":34.541264,"lng":135.775607,"version":"14.0b/19.0a"},{"town":"大字三笠","koaza":"","lat":34.549367,"lng":135.788651,"version":"14.0b/19.0a"},{"town":"大字宮古","koaza":"","lat":34.563454,"lng":135.78176,"version":"14.0b/19.0a"},{"town":"大字宮森","koaza":"","lat":34.539024,"lng":135.793027,"version":"14.0b/19.0a"},{"town":"大字八尾","koaza":"","lat":34.564398,"lng":135.789898,"version":"14.0b/19.0a"},{"town":"大字藥王寺","koaza":"","lat":34.550252,"lng":135.782159,"version":"14.0b/19.0a"},{"town":"大字矢部","koaza":"","lat":34.540449,"lng":135.781571,"version":"14.0b/19.0a"},{"town":"（大字なし）","koaza":"小室","lat":34.555736,"lng":135.790208,"version":"14.0b/19.0a"},{"town":"（大字なし）","koaza":"幸町","lat":34.552807,"lng":135.789934,"version":"14.0b/19.0a"},{"town":"（大字なし）","koaza":"","lat":34.553543,"lng":135.789985,"version":"14.0b/19.0a"},{"town":"（大字なし）","koaza":"殿町","lat":34.554226,"lng":135.789755,"version":"14.0b/19.0a"},{"town":"（大字なし）","koaza":"戎通一丁目","lat":34.554476,"lng":135.790785,"version":"14.0b/19.0a"},{"town":"（大字なし）","koaza":"戎通三丁目","lat":34.552795,"lng":135.791059,"version":"14.0b/19.0a"},{"town":"（大字なし）","koaza":"戎通二丁目","lat":34.553678,"lng":135.791012,"version":"14.0b/19.0a"},{"town":"（大字なし）","koaza":"大門西","lat":34.551827,"lng":135.791864,"version":"14.0b/19.0a"},{"town":"（大字なし）","koaza":"大門中","lat":34.55148,"lng":135.793341,"version":"14.0b/19.0a"},{"town":"（大字なし）","koaza":"八幡町","lat":34.555923,"lng":135.79462,"version":"14.0b/19.0a"},{"town":"（大字なし）","koaza":"祗園町","lat":34.552779,"lng":135.794449,"version":"14.0b/19.0a"},{"town":"（大字なし）","koaza":"材木町","lat":34.553674,"lng":135.794192,"version":"14.0b/19.0a"},{"town":"（大字なし）","koaza":"堺町","lat":34.552539,"lng":135.793786,"version":"14.0b/19.0a"},{"town":"（大字なし）","koaza":"新地","lat":34.550351,"lng":135.794685,"version":"14.0b/19.0a"},{"town":"（大字なし）","koaza":"南町","lat":34.551597,"lng":135.794261,"version":"14.0b/19.0a"},{"town":"（大字なし）","koaza":"三輪町","lat":34.553353,"lng":135.795147,"version":"14.0b/19.0a"},{"town":"大字阪手","koaza":"石橋","lat":34.559324,"lng":135.797031,"version":"14.0b/19.0a"},{"town":"（大字なし）","koaza":"茶町","lat":34.554432,"lng":135.79263,"version":"14.0b/19.0a"},{"town":"（大字なし）","koaza":"大門東","lat":34.551944,"lng":135.793985,"version":"14.0b/19.0a"},{"town":"（大字なし）","koaza":"郭内","lat":34.554917,"lng":135.794702,"version":"14.0b/19.0a"},{"town":"（大字なし）","koaza":"味間町","lat":34.554583,"lng":135.793764,"version":"14.0b/19.0a"},{"town":"（大字なし）","koaza":"根太口","lat":34.554978,"lng":135.795103,"version":"14.0b/19.0a"},{"town":"（大字なし）","koaza":"市町","lat":34.554398,"lng":135.793166,"version":"14.0b/19.0a"},{"town":"（大字なし）","koaza":"魚町","lat":34.554904,"lng":135.792635,"version":"14.0b/19.0a"}]