[{"town":"旭ケ丘一丁目","koaza":"","lat":34.553926,"lng":135.69675,"version":"13.0b/18.0a"},{"town":"旭ケ丘二丁目","koaza":"","lat":34.553138,"lng":135.693075,"version":"13.0b/18.0a"},{"town":"旭ケ丘三丁目","koaza":"","lat":34.556642,"lng":135.692545,"version":"13.0b/18.0a"},{"town":"旭ケ丘四丁目","koaza":"","lat":34.553729,"lng":135.689716,"version":"13.0b/18.0a"},{"town":"旭ケ丘五丁目","koaza":"","lat":34.553693,"lng":135.68491,"version":"13.0b/18.0a"},{"town":"穴虫","koaza":"","lat":34.543675,"lng":135.67403,"version":"13.0b/18.0a"},{"town":"磯壁","koaza":"","lat":34.527143,"lng":135.698779,"version":"13.0b/18.0a"},{"town":"磯壁一丁目","koaza":"","lat":34.53629,"lng":135.697056,"version":"13.0b/18.0a"},{"town":"磯壁二丁目","koaza":"","lat":34.536732,"lng":135.700259,"version":"13.0b/18.0a"},{"town":"磯壁三丁目","koaza":"","lat":34.537371,"lng":135.702456,"version":"13.0b/18.0a"},{"town":"磯壁四丁目","koaza":"","lat":34.533949,"lng":135.702038,"version":"13.0b/18.0a"},{"town":"磯壁五丁目","koaza":"","lat":34.532838,"lng":135.698229,"version":"13.0b/18.0a"},{"town":"磯壁六丁目","koaza":"","lat":34.530243,"lng":135.702475,"version":"13.0b/18.0a"},{"town":"磯壁七丁目","koaza":"","lat":34.529279,"lng":135.698523,"version":"13.0b/18.0a"},{"town":"今泉","koaza":"","lat":34.560311,"lng":135.687798,"version":"13.0b/18.0a"},{"town":"逢坂","koaza":"","lat":34.551914,"lng":135.685993,"version":"13.0b/18.0a"},{"town":"逢坂一丁目","koaza":"","lat":34.543394,"lng":135.693655,"version":"13.0b/18.0a"},{"town":"逢坂二丁目","koaza":"","lat":34.543711,"lng":135.690771,"version":"13.0b/18.0a"},{"town":"逢坂三丁目","koaza":"","lat":34.545276,"lng":135.694042,"version":"13.0b/18.0a"},{"town":"逢坂四丁目","koaza":"","lat":34.547799,"lng":135.695126,"version":"13.0b/18.0a"},{"town":"逢坂五丁目","koaza":"","lat":34.547852,"lng":135.692622,"version":"13.0b/18.0a"},{"town":"逢坂六丁目","koaza":"","lat":34.547371,"lng":135.690257,"version":"13.0b/18.0a"},{"town":"逢坂七丁目","koaza":"","lat":34.550639,"lng":135.693877,"version":"13.0b/18.0a"},{"town":"逢坂八丁目","koaza":"","lat":34.549647,"lng":135.690207,"version":"13.0b/18.0a"},{"town":"鎌田","koaza":"","lat":34.524376,"lng":135.711389,"version":"13.0b/18.0a"},{"town":"上中","koaza":"","lat":34.561332,"lng":135.702387,"version":"13.0b/18.0a"},{"town":"瓦口","koaza":"","lat":34.535917,"lng":135.718844,"version":"13.0b/18.0a"},{"town":"北今市一丁目","koaza":"","lat":34.547938,"lng":135.704194,"version":"13.0b/18.0a"},{"town":"北今市二丁目","koaza":"","lat":34.55102,"lng":135.702616,"version":"13.0b/18.0a"},{"town":"北今市三丁目","koaza":"","lat":34.547602,"lng":135.701218,"version":"13.0b/18.0a"},{"town":"北今市四丁目","koaza":"","lat":34.551114,"lng":135.700872,"version":"13.0b/18.0a"},{"town":"北今市五丁目","koaza":"","lat":34.54724,"lng":135.698227,"version":"13.0b/18.0a"},{"town":"北今市六丁目","koaza":"","lat":34.549708,"lng":135.698264,"version":"13.0b/18.0a"},{"town":"北今市七丁目","koaza":"","lat":34.551077,"lng":135.697396,"version":"13.0b/18.0a"},{"town":"五位堂","koaza":"","lat":34.533987,"lng":135.7197,"version":"13.0b/18.0a"},{"town":"五位堂一丁目","koaza":"","lat":34.532962,"lng":135.712938,"version":"13.0b/18.0a"},{"town":"五位堂二丁目","koaza":"","lat":34.533126,"lng":135.714609,"version":"13.0b/18.0a"},{"town":"五位堂三丁目","koaza":"","lat":34.533605,"lng":135.717674,"version":"13.0b/18.0a"},{"town":"五位堂四丁目","koaza":"","lat":34.531651,"lng":135.717972,"version":"13.0b/18.0a"},{"town":"五位堂五丁目","koaza":"","lat":34.528886,"lng":135.716281,"version":"13.0b/18.0a"},{"town":"五位堂六丁目","koaza":"","lat":34.528592,"lng":135.718643,"version":"13.0b/18.0a"},{"town":"五ケ所","koaza":"","lat":34.549114,"lng":135.716818,"version":"13.0b/18.0a"},{"town":"下田西一丁目","koaza":"","lat":34.543318,"lng":135.704537,"version":"13.0b/18.0a"},{"town":"下田西二丁目","koaza":"","lat":34.544004,"lng":135.70104,"version":"13.0b/18.0a"},{"town":"下田西三丁目","koaza":"","lat":34.54073,"lng":135.701433,"version":"13.0b/18.0a"},{"town":"下田西四丁目","koaza":"","lat":34.540522,"lng":135.705404,"version":"13.0b/18.0a"},{"town":"下田東一丁目","koaza":"","lat":34.544586,"lng":135.705979,"version":"13.0b/18.0a"},{"town":"下田東四丁目","koaza":"","lat":34.543789,"lng":135.708708,"version":"13.0b/18.0a"},{"town":"下田東五丁目","koaza":"","lat":34.546517,"lng":135.708746,"version":"13.0b/18.0a"},{"town":"関屋","koaza":"","lat":34.55495,"lng":135.670504,"version":"13.0b/18.0a"},{"town":"関屋北一丁目","koaza":"","lat":34.560574,"lng":135.67608,"version":"13.0b/18.0a"},{"town":"関屋北二丁目","koaza":"","lat":34.556918,"lng":135.671401,"version":"13.0b/18.0a"},{"town":"関屋北三丁目","koaza":"","lat":34.559861,"lng":135.671612,"version":"13.0b/18.0a"},{"town":"関屋北四丁目","koaza":"","lat":34.5633,"lng":135.672197,"version":"13.0b/18.0a"},{"town":"関屋北五丁目","koaza":"","lat":34.559602,"lng":135.66742,"version":"13.0b/18.0a"},{"town":"関屋北六丁目","koaza":"","lat":34.557222,"lng":135.665378,"version":"13.0b/18.0a"},{"town":"関屋北七丁目","koaza":"","lat":34.557704,"lng":135.661776,"version":"13.0b/18.0a"},{"town":"関屋北八丁目","koaza":"","lat":34.563461,"lng":135.664175,"version":"13.0b/18.0a"},{"town":"高","koaza":"","lat":34.553802,"lng":135.702751,"version":"13.0b/18.0a"},{"town":"高山台一丁目","koaza":"","lat":34.546981,"lng":135.682904,"version":"13.0b/18.0a"},{"town":"高山台二丁目","koaza":"","lat":34.549012,"lng":135.680421,"version":"13.0b/18.0a"},{"town":"高山台三丁目","koaza":"","lat":34.547617,"lng":135.676508,"version":"13.0b/18.0a"},{"town":"田尻","koaza":"","lat":34.549029,"lng":135.657785,"version":"13.0b/18.0a"},{"town":"西真美一丁目","koaza":"","lat":34.54348,"lng":135.712346,"version":"13.0b/18.0a"},{"town":"西真美二丁目","koaza":"","lat":34.547573,"lng":135.713243,"version":"13.0b/18.0a"},{"town":"西真美三丁目","koaza":"","lat":34.544009,"lng":135.716047,"version":"13.0b/18.0a"},{"town":"尼寺","koaza":"","lat":34.572867,"lng":135.68432,"version":"13.0b/18.0a"},{"town":"尼寺一丁目","koaza":"","lat":34.571987,"lng":135.703213,"version":"13.0b/18.0a"},{"town":"尼寺二丁目","koaza":"","lat":34.572142,"lng":135.699861,"version":"13.0b/18.0a"},{"town":"尼寺三丁目","koaza":"","lat":34.571443,"lng":135.695388,"version":"13.0b/18.0a"},{"town":"白鳳台一丁目","koaza":"","lat":34.56893,"lng":135.696708,"version":"13.0b/18.0a"},{"town":"白鳳台二丁目","koaza":"","lat":34.569032,"lng":135.692774,"version":"13.0b/18.0a"},{"town":"畑","koaza":"","lat":34.537469,"lng":135.68215,"version":"13.0b/18.0a"},{"town":"畑一丁目","koaza":"","lat":34.538416,"lng":135.696094,"version":"13.0b/18.0a"},{"town":"畑二丁目","koaza":"","lat":34.539095,"lng":135.692559,"version":"13.0b/18.0a"},{"town":"畑三丁目","koaza":"","lat":34.540711,"lng":135.692193,"version":"13.0b/18.0a"},{"town":"畑四丁目","koaza":"","lat":34.53989,"lng":135.686743,"version":"13.0b/18.0a"},{"town":"畑五丁目","koaza":"","lat":34.53734,"lng":135.691392,"version":"13.0b/18.0a"},{"town":"畑六丁目","koaza":"","lat":34.535956,"lng":135.688693,"version":"13.0b/18.0a"},{"town":"畑七丁目","koaza":"","lat":34.53699,"lng":135.685448,"version":"13.0b/18.0a"},{"town":"平野","koaza":"","lat":34.56561,"lng":135.69235,"version":"13.0b/18.0a"},{"town":"藤山一丁目","koaza":"","lat":34.542715,"lng":135.697569,"version":"13.0b/18.0a"},{"town":"藤山二丁目","koaza":"","lat":34.544643,"lng":135.696865,"version":"13.0b/18.0a"},{"town":"別所","koaza":"","lat":34.533545,"lng":135.723365,"version":"13.0b/18.0a"},{"town":"本町","koaza":"","lat":34.541208,"lng":135.697827,"version":"13.0b/18.0a"},{"town":"真美ヶ丘一丁目","koaza":"","lat":34.541244,"lng":135.717323,"version":"13.0b/18.0a"},{"town":"真美ヶ丘二丁目","koaza":"","lat":34.540564,"lng":135.721477,"version":"13.0b/18.0a"},{"town":"真美ヶ丘三丁目","koaza":"","lat":34.537974,"lng":135.723837,"version":"13.0b/18.0a"},{"town":"真美ヶ丘四丁目","koaza":"","lat":34.535586,"lng":135.727322,"version":"13.0b/18.0a"},{"town":"真美ヶ丘五丁目","koaza":"","lat":34.547212,"lng":135.719315,"version":"13.0b/18.0a"},{"town":"真美ヶ丘六丁目","koaza":"","lat":34.543574,"lng":135.722292,"version":"13.0b/18.0a"},{"town":"真美ヶ丘七丁目","koaza":"","lat":34.54216,"lng":135.725444,"version":"13.0b/18.0a"},{"town":"良福寺","koaza":"","lat":34.529409,"lng":135.708067,"version":"13.0b/18.0a"},{"town":"下田東三丁目","koaza":"","lat":34.5419,"lng":135.711667,"version":"13.0b/18.0a"},{"town":"下田東二丁目","koaza":"","lat":34.541333,"lng":135.708432,"version":"13.0b/18.0a"},{"town":"すみれ野一丁目","koaza":"","lat":34.540242,"lng":135.71264,"version":"13.0b/18.0a"},{"town":"狐井","koaza":"","lat":34.536347,"lng":135.709592,"version":"13.0b/18.0a"},{"town":"すみれ野二丁目","koaza":"","lat":34.538691,"lng":135.713887,"version":"13.0b/18.0a"},{"town":"旭ケ丘一丁目","koaza":"","lat":34.553926,"lng":135.69675,"version":"14.0b/19.0a"},{"town":"旭ケ丘二丁目","koaza":"","lat":34.553138,"lng":135.693075,"version":"14.0b/19.0a"},{"town":"旭ケ丘三丁目","koaza":"","lat":34.556642,"lng":135.692545,"version":"14.0b/19.0a"},{"town":"旭ケ丘四丁目","koaza":"","lat":34.553729,"lng":135.689716,"version":"14.0b/19.0a"},{"town":"旭ケ丘五丁目","koaza":"","lat":34.553693,"lng":135.68491,"version":"14.0b/19.0a"},{"town":"穴虫","koaza":"","lat":34.543675,"lng":135.67403,"version":"14.0b/19.0a"},{"town":"磯壁","koaza":"","lat":34.527143,"lng":135.698779,"version":"14.0b/19.0a"},{"town":"磯壁一丁目","koaza":"","lat":34.53629,"lng":135.697056,"version":"14.0b/19.0a"},{"town":"磯壁二丁目","koaza":"","lat":34.536732,"lng":135.700259,"version":"14.0b/19.0a"},{"town":"磯壁三丁目","koaza":"","lat":34.537371,"lng":135.702456,"version":"14.0b/19.0a"},{"town":"磯壁四丁目","koaza":"","lat":34.533949,"lng":135.702038,"version":"14.0b/19.0a"},{"town":"磯壁五丁目","koaza":"","lat":34.532838,"lng":135.698229,"version":"14.0b/19.0a"},{"town":"磯壁六丁目","koaza":"","lat":34.530243,"lng":135.702475,"version":"14.0b/19.0a"},{"town":"磯壁七丁目","koaza":"","lat":34.529279,"lng":135.698523,"version":"14.0b/19.0a"},{"town":"今泉","koaza":"","lat":34.560311,"lng":135.687798,"version":"14.0b/19.0a"},{"town":"逢坂","koaza":"","lat":34.551914,"lng":135.685993,"version":"14.0b/19.0a"},{"town":"逢坂一丁目","koaza":"","lat":34.543394,"lng":135.693655,"version":"14.0b/19.0a"},{"town":"逢坂二丁目","koaza":"","lat":34.543711,"lng":135.690771,"version":"14.0b/19.0a"},{"town":"逢坂三丁目","koaza":"","lat":34.545276,"lng":135.694042,"version":"14.0b/19.0a"},{"town":"逢坂四丁目","koaza":"","lat":34.547799,"lng":135.695126,"version":"14.0b/19.0a"},{"town":"逢坂五丁目","koaza":"","lat":34.547852,"lng":135.692622,"version":"14.0b/19.0a"},{"town":"逢坂六丁目","koaza":"","lat":34.547371,"lng":135.690257,"version":"14.0b/19.0a"},{"town":"逢坂七丁目","koaza":"","lat":34.550639,"lng":135.693877,"version":"14.0b/19.0a"},{"town":"逢坂八丁目","koaza":"","lat":34.549647,"lng":135.690207,"version":"14.0b/19.0a"},{"town":"鎌田","koaza":"","lat":34.524376,"lng":135.711389,"version":"14.0b/19.0a"},{"town":"上中","koaza":"","lat":34.561332,"lng":135.702387,"version":"14.0b/19.0a"},{"town":"瓦口","koaza":"","lat":34.535917,"lng":135.718844,"version":"14.0b/19.0a"},{"town":"北今市一丁目","koaza":"","lat":34.547938,"lng":135.704194,"version":"14.0b/19.0a"},{"town":"北今市二丁目","koaza":"","lat":34.55102,"lng":135.702616,"version":"14.0b/19.0a"},{"town":"北今市三丁目","koaza":"","lat":34.547602,"lng":135.701218,"version":"14.0b/19.0a"},{"town":"北今市四丁目","koaza":"","lat":34.551114,"lng":135.700872,"version":"14.0b/19.0a"},{"town":"北今市五丁目","koaza":"","lat":34.54724,"lng":135.698227,"version":"14.0b/19.0a"},{"town":"北今市六丁目","koaza":"","lat":34.549708,"lng":135.698264,"version":"14.0b/19.0a"},{"town":"北今市七丁目","koaza":"","lat":34.551077,"lng":135.697396,"version":"14.0b/19.0a"},{"town":"五位堂","koaza":"","lat":34.533987,"lng":135.7197,"version":"14.0b/19.0a"},{"town":"五位堂一丁目","koaza":"","lat":34.532962,"lng":135.712938,"version":"14.0b/19.0a"},{"town":"五位堂二丁目","koaza":"","lat":34.533126,"lng":135.714609,"version":"14.0b/19.0a"},{"town":"五位堂三丁目","koaza":"","lat":34.533605,"lng":135.717674,"version":"14.0b/19.0a"},{"town":"五位堂四丁目","koaza":"","lat":34.531651,"lng":135.717972,"version":"14.0b/19.0a"},{"town":"五位堂五丁目","koaza":"","lat":34.528886,"lng":135.716281,"version":"14.0b/19.0a"},{"town":"五位堂六丁目","koaza":"","lat":34.528592,"lng":135.718643,"version":"14.0b/19.0a"},{"town":"五ケ所","koaza":"","lat":34.549114,"lng":135.716818,"version":"14.0b/19.0a"},{"town":"下田西一丁目","koaza":"","lat":34.543318,"lng":135.704537,"version":"14.0b/19.0a"},{"town":"下田西二丁目","koaza":"","lat":34.544004,"lng":135.70104,"version":"14.0b/19.0a"},{"town":"下田西三丁目","koaza":"","lat":34.54073,"lng":135.701433,"version":"14.0b/19.0a"},{"town":"下田西四丁目","koaza":"","lat":34.540522,"lng":135.705404,"version":"14.0b/19.0a"},{"town":"下田東一丁目","koaza":"","lat":34.544586,"lng":135.705979,"version":"14.0b/19.0a"},{"town":"下田東四丁目","koaza":"","lat":34.543789,"lng":135.708708,"version":"14.0b/19.0a"},{"town":"下田東五丁目","koaza":"","lat":34.546517,"lng":135.708746,"version":"14.0b/19.0a"},{"town":"関屋","koaza":"","lat":34.55495,"lng":135.670504,"version":"14.0b/19.0a"},{"town":"関屋北一丁目","koaza":"","lat":34.560574,"lng":135.67608,"version":"14.0b/19.0a"},{"town":"関屋北二丁目","koaza":"","lat":34.556918,"lng":135.671401,"version":"14.0b/19.0a"},{"town":"関屋北三丁目","koaza":"","lat":34.559861,"lng":135.671612,"version":"14.0b/19.0a"},{"town":"関屋北四丁目","koaza":"","lat":34.5633,"lng":135.672197,"version":"14.0b/19.0a"},{"town":"関屋北五丁目","koaza":"","lat":34.559602,"lng":135.66742,"version":"14.0b/19.0a"},{"town":"関屋北六丁目","koaza":"","lat":34.557222,"lng":135.665378,"version":"14.0b/19.0a"},{"town":"関屋北七丁目","koaza":"","lat":34.557704,"lng":135.661776,"version":"14.0b/19.0a"},{"town":"関屋北八丁目","koaza":"","lat":34.563461,"lng":135.664175,"version":"14.0b/19.0a"},{"town":"高","koaza":"","lat":34.553802,"lng":135.702751,"version":"14.0b/19.0a"},{"town":"高山台一丁目","koaza":"","lat":34.546981,"lng":135.682904,"version":"14.0b/19.0a"},{"town":"高山台二丁目","koaza":"","lat":34.549012,"lng":135.680421,"version":"14.0b/19.0a"},{"town":"高山台三丁目","koaza":"","lat":34.547617,"lng":135.676508,"version":"14.0b/19.0a"},{"town":"田尻","koaza":"","lat":34.549029,"lng":135.657785,"version":"14.0b/19.0a"},{"town":"西真美一丁目","koaza":"","lat":34.54348,"lng":135.712346,"version":"14.0b/19.0a"},{"town":"西真美二丁目","koaza":"","lat":34.547573,"lng":135.713243,"version":"14.0b/19.0a"},{"town":"西真美三丁目","koaza":"","lat":34.544009,"lng":135.716047,"version":"14.0b/19.0a"},{"town":"尼寺","koaza":"","lat":34.572867,"lng":135.68432,"version":"14.0b/19.0a"},{"town":"尼寺一丁目","koaza":"","lat":34.571987,"lng":135.703213,"version":"14.0b/19.0a"},{"town":"尼寺二丁目","koaza":"","lat":34.572142,"lng":135.699861,"version":"14.0b/19.0a"},{"town":"尼寺三丁目","koaza":"","lat":34.571443,"lng":135.695388,"version":"14.0b/19.0a"},{"town":"白鳳台一丁目","koaza":"","lat":34.56893,"lng":135.696708,"version":"14.0b/19.0a"},{"town":"白鳳台二丁目","koaza":"","lat":34.569032,"lng":135.692774,"version":"14.0b/19.0a"},{"town":"畑","koaza":"","lat":34.537469,"lng":135.68215,"version":"14.0b/19.0a"},{"town":"畑一丁目","koaza":"","lat":34.538416,"lng":135.696094,"version":"14.0b/19.0a"},{"town":"畑二丁目","koaza":"","lat":34.539095,"lng":135.692559,"version":"14.0b/19.0a"},{"town":"畑三丁目","koaza":"","lat":34.540711,"lng":135.692193,"version":"14.0b/19.0a"},{"town":"畑四丁目","koaza":"","lat":34.53989,"lng":135.686743,"version":"14.0b/19.0a"},{"town":"畑五丁目","koaza":"","lat":34.53734,"lng":135.691392,"version":"14.0b/19.0a"},{"town":"畑六丁目","koaza":"","lat":34.535956,"lng":135.688693,"version":"14.0b/19.0a"},{"town":"畑七丁目","koaza":"","lat":34.53699,"lng":135.685448,"version":"14.0b/19.0a"},{"town":"平野","koaza":"","lat":34.56561,"lng":135.69235,"version":"14.0b/19.0a"},{"town":"藤山一丁目","koaza":"","lat":34.542715,"lng":135.697569,"version":"14.0b/19.0a"},{"town":"藤山二丁目","koaza":"","lat":34.544643,"lng":135.696865,"version":"14.0b/19.0a"},{"town":"別所","koaza":"","lat":34.533545,"lng":135.723365,"version":"14.0b/19.0a"},{"town":"本町","koaza":"","lat":34.541208,"lng":135.697827,"version":"14.0b/19.0a"},{"town":"真美ヶ丘一丁目","koaza":"","lat":34.541244,"lng":135.717323,"version":"14.0b/19.0a"},{"town":"真美ヶ丘二丁目","koaza":"","lat":34.540564,"lng":135.721477,"version":"14.0b/19.0a"},{"town":"真美ヶ丘三丁目","koaza":"","lat":34.537974,"lng":135.723837,"version":"14.0b/19.0a"},{"town":"真美ヶ丘四丁目","koaza":"","lat":34.535586,"lng":135.727322,"version":"14.0b/19.0a"},{"town":"真美ヶ丘五丁目","koaza":"","lat":34.547212,"lng":135.719315,"version":"14.0b/19.0a"},{"town":"真美ヶ丘六丁目","koaza":"","lat":34.543574,"lng":135.722292,"version":"14.0b/19.0a"},{"town":"真美ヶ丘七丁目","koaza":"","lat":34.54216,"lng":135.725444,"version":"14.0b/19.0a"},{"town":"良福寺","koaza":"","lat":34.529409,"lng":135.708067,"version":"14.0b/19.0a"},{"town":"下田東三丁目","koaza":"","lat":34.5419,"lng":135.711667,"version":"14.0b/19.0a"},{"town":"下田東二丁目","koaza":"","lat":34.541333,"lng":135.708432,"version":"14.0b/19.0a"},{"town":"すみれ野一丁目","koaza":"","lat":34.540242,"lng":135.71264,"version":"14.0b/19.0a"},{"town":"狐井","koaza":"","lat":34.536347,"lng":135.709592,"version":"14.0b/19.0a"},{"town":"すみれ野二丁目","koaza":"","lat":34.538691,"lng":135.713887,"version":"14.0b/19.0a"}]