[{"town":"字黒岩山","koaza":"","lat":36.991905,"lng":139.381177,"version":"13.0b/18.0a"},{"town":"字帝釈山","koaza":"","lat":37.012852,"lng":139.39679,"version":"13.0b/18.0a"},{"town":"字左通","koaza":"","lat":37.00308,"lng":139.368322,"version":"13.0b/18.0a"},{"town":"字燧ケ岳","koaza":"","lat":36.986156,"lng":139.347295,"version":"13.0b/18.0a"},{"town":"字入畑","koaza":"","lat":36.998048,"lng":139.360145,"version":"13.0b/18.0a"},{"town":"字下ノ原","koaza":"","lat":37.025117,"lng":139.3887,"version":"13.0b/18.0a"},{"town":"字滝沢","koaza":"","lat":37.030039,"lng":139.393862,"version":"13.0b/18.0a"},{"town":"字上ノ原","koaza":"","lat":37.018918,"lng":139.38263,"version":"13.0b/18.0a"},{"town":"字居平","koaza":"","lat":37.021566,"lng":139.386141,"version":"13.0b/18.0a"},{"town":"字見通","koaza":"","lat":37.035044,"lng":139.399331,"version":"13.0b/18.0a"},{"town":"字下見通","koaza":"","lat":37.041853,"lng":139.403166,"version":"13.0b/18.0a"},{"town":"字高屋敷","koaza":"","lat":37.052657,"lng":139.410042,"version":"13.0b/18.0a"},{"town":"字駒ケ岳","koaza":"","lat":37.052631,"lng":139.404662,"version":"13.0b/18.0a"},{"town":"字葭ケ平","koaza":"","lat":37.065327,"lng":139.411761,"version":"13.0b/18.0a"},{"town":"字上河原","koaza":"","lat":37.008594,"lng":139.373844,"version":"13.0b/18.0a"},{"town":"字大根卸","koaza":"","lat":37.003793,"lng":139.365972,"version":"13.0b/18.0a"},{"town":"字上ノ台","koaza":"","lat":37.016751,"lng":139.384634,"version":"13.0b/18.0a"},{"town":"字下ノ台","koaza":"","lat":37.018916,"lng":139.384592,"version":"13.0b/18.0a"},{"town":"字黒岩山","koaza":"","lat":36.991905,"lng":139.381177,"version":"14.0b/19.0a"},{"town":"字帝釈山","koaza":"","lat":37.012852,"lng":139.39679,"version":"14.0b/19.0a"},{"town":"字左通","koaza":"","lat":37.00308,"lng":139.368322,"version":"14.0b/19.0a"},{"town":"字燧ケ岳","koaza":"","lat":36.986156,"lng":139.347295,"version":"14.0b/19.0a"},{"town":"字入畑","koaza":"","lat":36.998048,"lng":139.360145,"version":"14.0b/19.0a"},{"town":"字下ノ原","koaza":"","lat":37.025117,"lng":139.3887,"version":"14.0b/19.0a"},{"town":"字滝沢","koaza":"","lat":37.030039,"lng":139.393862,"version":"14.0b/19.0a"},{"town":"字上ノ原","koaza":"","lat":37.018918,"lng":139.38263,"version":"14.0b/19.0a"},{"town":"字居平","koaza":"","lat":37.021566,"lng":139.386141,"version":"14.0b/19.0a"},{"town":"字見通","koaza":"","lat":37.035044,"lng":139.399331,"version":"14.0b/19.0a"},{"town":"字下見通","koaza":"","lat":37.041853,"lng":139.403166,"version":"14.0b/19.0a"},{"town":"字高屋敷","koaza":"","lat":37.052657,"lng":139.410042,"version":"14.0b/19.0a"},{"town":"字駒ケ岳","koaza":"","lat":37.052631,"lng":139.404662,"version":"14.0b/19.0a"},{"town":"字葭ケ平","koaza":"","lat":37.065327,"lng":139.411761,"version":"14.0b/19.0a"},{"town":"字上河原","koaza":"","lat":37.008594,"lng":139.373844,"version":"14.0b/19.0a"},{"town":"字大根卸","koaza":"","lat":37.003793,"lng":139.365972,"version":"14.0b/19.0a"},{"town":"字上ノ台","koaza":"","lat":37.016751,"lng":139.384634,"version":"14.0b/19.0a"},{"town":"字下ノ台","koaza":"","lat":37.018916,"lng":139.384592,"version":"14.0b/19.0a"}]