[{"town":"東小磯","koaza":"","lat":35.313178,"lng":139.307282,"version":"13.0b/18.0a"},{"town":"東町三丁目","koaza":"","lat":35.314144,"lng":139.327498,"version":"13.0b/18.0a"},{"town":"石神台三丁目","koaza":"","lat":35.309422,"lng":139.267562,"version":"13.0b/18.0a"},{"town":"石神台一丁目","koaza":"","lat":35.312215,"lng":139.270114,"version":"13.0b/18.0a"},{"town":"石神台二丁目","koaza":"","lat":35.310604,"lng":139.26872,"version":"13.0b/18.0a"},{"town":"国府新宿","koaza":"","lat":35.303721,"lng":139.272493,"version":"13.0b/18.0a"},{"town":"東町一丁目","koaza":"","lat":35.312362,"lng":139.322426,"version":"13.0b/18.0a"},{"town":"東町二丁目","koaza":"","lat":35.313055,"lng":139.324938,"version":"13.0b/18.0a"},{"town":"高麗","koaza":"","lat":35.32342,"lng":139.322022,"version":"13.0b/18.0a"},{"town":"大磯","koaza":"","lat":35.313826,"lng":139.316566,"version":"13.0b/18.0a"},{"town":"高麗一丁目","koaza":"","lat":35.319751,"lng":139.326394,"version":"13.0b/18.0a"},{"town":"高麗三丁目","koaza":"","lat":35.323562,"lng":139.331275,"version":"13.0b/18.0a"},{"town":"高麗二丁目","koaza":"","lat":35.323529,"lng":139.327053,"version":"13.0b/18.0a"},{"town":"西小磯","koaza":"","lat":35.313038,"lng":139.298167,"version":"13.0b/18.0a"},{"town":"月京","koaza":"","lat":35.312076,"lng":139.275514,"version":"13.0b/18.0a"},{"town":"国府本郷","koaza":"","lat":35.309627,"lng":139.2869,"version":"13.0b/18.0a"},{"town":"寺坂","koaza":"","lat":35.325942,"lng":139.287629,"version":"13.0b/18.0a"},{"town":"虫窪","koaza":"","lat":35.320879,"lng":139.264589,"version":"13.0b/18.0a"},{"town":"生沢","koaza":"","lat":35.319942,"lng":139.278874,"version":"13.0b/18.0a"},{"town":"黒岩","koaza":"","lat":35.329389,"lng":139.262561,"version":"13.0b/18.0a"},{"town":"西久保","koaza":"","lat":35.324357,"lng":139.25598,"version":"13.0b/18.0a"},{"town":"東小磯","koaza":"","lat":35.313178,"lng":139.307282,"version":"14.0b/19.0a"},{"town":"東町三丁目","koaza":"","lat":35.314144,"lng":139.327498,"version":"14.0b/19.0a"},{"town":"石神台三丁目","koaza":"","lat":35.309422,"lng":139.267562,"version":"14.0b/19.0a"},{"town":"石神台一丁目","koaza":"","lat":35.312215,"lng":139.270114,"version":"14.0b/19.0a"},{"town":"石神台二丁目","koaza":"","lat":35.310604,"lng":139.26872,"version":"14.0b/19.0a"},{"town":"国府新宿","koaza":"","lat":35.303721,"lng":139.272493,"version":"14.0b/19.0a"},{"town":"東町一丁目","koaza":"","lat":35.312362,"lng":139.322426,"version":"14.0b/19.0a"},{"town":"東町二丁目","koaza":"","lat":35.313055,"lng":139.324938,"version":"14.0b/19.0a"},{"town":"高麗","koaza":"","lat":35.32342,"lng":139.322022,"version":"14.0b/19.0a"},{"town":"大磯","koaza":"","lat":35.313826,"lng":139.316566,"version":"14.0b/19.0a"},{"town":"高麗一丁目","koaza":"","lat":35.319751,"lng":139.326394,"version":"14.0b/19.0a"},{"town":"高麗三丁目","koaza":"","lat":35.323562,"lng":139.331275,"version":"14.0b/19.0a"},{"town":"高麗二丁目","koaza":"","lat":35.323529,"lng":139.327053,"version":"14.0b/19.0a"},{"town":"西小磯","koaza":"","lat":35.313038,"lng":139.298167,"version":"14.0b/19.0a"},{"town":"月京","koaza":"","lat":35.312076,"lng":139.275514,"version":"14.0b/19.0a"},{"town":"国府本郷","koaza":"","lat":35.309627,"lng":139.2869,"version":"14.0b/19.0a"},{"town":"寺坂","koaza":"","lat":35.325942,"lng":139.287629,"version":"14.0b/19.0a"},{"town":"虫窪","koaza":"","lat":35.320879,"lng":139.264589,"version":"14.0b/19.0a"},{"town":"生沢","koaza":"","lat":35.319942,"lng":139.278874,"version":"14.0b/19.0a"},{"town":"黒岩","koaza":"","lat":35.329389,"lng":139.262561,"version":"14.0b/19.0a"},{"town":"西久保","koaza":"","lat":35.324357,"lng":139.25598,"version":"14.0b/19.0a"}]