[{"town":"上新城二丁目","koaza":"","lat":35.58722,"lng":139.630813,"version":"13.0b/18.0a"},{"town":"上小田中二丁目","koaza":"","lat":35.588425,"lng":139.63638,"version":"13.0b/18.0a"},{"town":"上小田中三丁目","koaza":"","lat":35.586945,"lng":139.633167,"version":"13.0b/18.0a"},{"town":"上小田中六丁目","koaza":"","lat":35.582178,"lng":139.645375,"version":"13.0b/18.0a"},{"town":"等々力","koaza":"","lat":35.58918,"lng":139.653175,"version":"13.0b/18.0a"},{"town":"宮内四丁目","koaza":"","lat":35.58606,"lng":139.644465,"version":"13.0b/18.0a"},{"town":"上丸子天神町","koaza":"","lat":35.586928,"lng":139.66357,"version":"13.0b/18.0a"},{"town":"宮内二丁目","koaza":"","lat":35.590908,"lng":139.638814,"version":"13.0b/18.0a"},{"town":"新城三丁目","koaza":"","lat":35.585398,"lng":139.630159,"version":"13.0b/18.0a"},{"town":"新城五丁目","koaza":"","lat":35.586216,"lng":139.628985,"version":"13.0b/18.0a"},{"town":"上丸子八幡町","koaza":"","lat":35.582599,"lng":139.667963,"version":"13.0b/18.0a"},{"town":"小杉陣屋町二丁目","koaza":"","lat":35.585132,"lng":139.65604,"version":"13.0b/18.0a"},{"town":"小杉陣屋町一丁目","koaza":"","lat":35.585031,"lng":139.658407,"version":"13.0b/18.0a"},{"town":"新城一丁目","koaza":"","lat":35.58526,"lng":139.631542,"version":"13.0b/18.0a"},{"town":"井田一丁目","koaza":"","lat":35.562932,"lng":139.643385,"version":"13.0b/18.0a"},{"town":"上小田中四丁目","koaza":"","lat":35.583537,"lng":139.640258,"version":"13.0b/18.0a"},{"town":"下小田中四丁目","koaza":"","lat":35.576185,"lng":139.637997,"version":"13.0b/18.0a"},{"town":"井田二丁目","koaza":"","lat":35.561114,"lng":139.640893,"version":"13.0b/18.0a"},{"town":"井田杉山町","koaza":"","lat":35.569529,"lng":139.642792,"version":"13.0b/18.0a"},{"town":"上丸子山王町二丁目","koaza":"","lat":35.576142,"lng":139.666579,"version":"13.0b/18.0a"},{"town":"田尻町","koaza":"","lat":35.559488,"lng":139.672165,"version":"13.0b/18.0a"},{"town":"北谷町","koaza":"","lat":35.562575,"lng":139.671567,"version":"13.0b/18.0a"},{"town":"大倉町","koaza":"","lat":35.556774,"lng":139.665973,"version":"13.0b/18.0a"},{"town":"西加瀬","koaza":"","lat":35.560117,"lng":139.659823,"version":"13.0b/18.0a"},{"town":"木月二丁目","koaza":"","lat":35.564023,"lng":139.65547,"version":"13.0b/18.0a"},{"town":"木月四丁目","koaza":"","lat":35.559027,"lng":139.654425,"version":"13.0b/18.0a"},{"town":"木月一丁目","koaza":"","lat":35.565429,"lng":139.652818,"version":"13.0b/18.0a"},{"town":"井田三丁目","koaza":"","lat":35.562737,"lng":139.636755,"version":"13.0b/18.0a"},{"town":"苅宿","koaza":"","lat":35.561763,"lng":139.663954,"version":"13.0b/18.0a"},{"town":"市ノ坪","koaza":"","lat":35.567422,"lng":139.664481,"version":"13.0b/18.0a"},{"town":"上丸子","koaza":"","lat":35.574764,"lng":139.664298,"version":"13.0b/18.0a"},{"town":"新丸子東三丁目","koaza":"","lat":35.574728,"lng":139.6612,"version":"13.0b/18.0a"},{"town":"新丸子東二丁目","koaza":"","lat":35.577759,"lng":139.662374,"version":"13.0b/18.0a"},{"town":"下沼部","koaza":"","lat":35.574007,"lng":139.668804,"version":"13.0b/18.0a"},{"town":"上丸子山王町一丁目","koaza":"","lat":35.578982,"lng":139.668365,"version":"13.0b/18.0a"},{"town":"小杉町二丁目","koaza":"","lat":35.579455,"lng":139.656175,"version":"13.0b/18.0a"},{"town":"小杉町一丁目","koaza":"","lat":35.579357,"lng":139.658607,"version":"13.0b/18.0a"},{"town":"新丸子東一丁目","koaza":"","lat":35.580086,"lng":139.663177,"version":"13.0b/18.0a"},{"town":"丸子通二丁目","koaza":"","lat":35.58328,"lng":139.661594,"version":"13.0b/18.0a"},{"town":"中丸子","koaza":"","lat":35.568518,"lng":139.668859,"version":"13.0b/18.0a"},{"town":"上平間","koaza":"","lat":35.559946,"lng":139.677571,"version":"13.0b/18.0a"},{"town":"小杉町三丁目","koaza":"","lat":35.574686,"lng":139.657252,"version":"13.0b/18.0a"},{"town":"木月祗園町","koaza":"","lat":35.568179,"lng":139.65085,"version":"13.0b/18.0a"},{"town":"木月三丁目","koaza":"","lat":35.562816,"lng":139.650428,"version":"13.0b/18.0a"},{"town":"丸子通一丁目","koaza":"","lat":35.582999,"lng":139.66455,"version":"13.0b/18.0a"},{"town":"新丸子町","koaza":"","lat":35.579381,"lng":139.660603,"version":"13.0b/18.0a"},{"town":"木月大町","koaza":"","lat":35.571152,"lng":139.65034,"version":"13.0b/18.0a"},{"town":"木月伊勢町","koaza":"","lat":35.569092,"lng":139.65494,"version":"13.0b/18.0a"},{"town":"今井仲町","koaza":"","lat":35.574457,"lng":139.651479,"version":"13.0b/18.0a"},{"town":"小杉御殿町一丁目","koaza":"","lat":35.583962,"lng":139.652437,"version":"13.0b/18.0a"},{"town":"上小田中七丁目","koaza":"","lat":35.581033,"lng":139.648845,"version":"13.0b/18.0a"},{"town":"小杉御殿町二丁目","koaza":"","lat":35.579423,"lng":139.653391,"version":"13.0b/18.0a"},{"town":"下小田中二丁目","koaza":"","lat":35.577623,"lng":139.643486,"version":"13.0b/18.0a"},{"town":"今井西町","koaza":"","lat":35.575397,"lng":139.64838,"version":"13.0b/18.0a"},{"town":"今井上町","koaza":"","lat":35.578438,"lng":139.649884,"version":"13.0b/18.0a"},{"town":"井田中ノ町","koaza":"","lat":35.565289,"lng":139.643876,"version":"13.0b/18.0a"},{"town":"下小田中六丁目","koaza":"","lat":35.57122,"lng":139.637288,"version":"13.0b/18.0a"},{"town":"下小田中五丁目","koaza":"","lat":35.574075,"lng":139.63411,"version":"13.0b/18.0a"},{"town":"下新城二丁目","koaza":"","lat":35.577461,"lng":139.632675,"version":"13.0b/18.0a"},{"town":"井田三舞町","koaza":"","lat":35.569301,"lng":139.646265,"version":"13.0b/18.0a"},{"town":"下小田中三丁目","koaza":"","lat":35.573154,"lng":139.643202,"version":"13.0b/18.0a"},{"town":"下小田中一丁目","koaza":"","lat":35.579784,"lng":139.637806,"version":"13.0b/18.0a"},{"town":"上小田中五丁目","koaza":"","lat":35.582758,"lng":139.636621,"version":"13.0b/18.0a"},{"town":"新城中町","koaza":"","lat":35.583254,"lng":139.633532,"version":"13.0b/18.0a"},{"town":"下新城三丁目","koaza":"","lat":35.579671,"lng":139.630402,"version":"13.0b/18.0a"},{"town":"新城四丁目","koaza":"","lat":35.582792,"lng":139.630059,"version":"13.0b/18.0a"},{"town":"下新城一丁目","koaza":"","lat":35.579922,"lng":139.633538,"version":"13.0b/18.0a"},{"town":"新城二丁目","koaza":"","lat":35.582811,"lng":139.63164,"version":"13.0b/18.0a"},{"town":"上小田中一丁目","koaza":"","lat":35.593112,"lng":139.630566,"version":"13.0b/18.0a"},{"town":"宮内三丁目","koaza":"","lat":35.590812,"lng":139.643723,"version":"13.0b/18.0a"},{"town":"上新城一丁目","koaza":"","lat":35.590571,"lng":139.628885,"version":"13.0b/18.0a"},{"town":"新城","koaza":"","lat":35.587962,"lng":139.627724,"version":"13.0b/18.0a"},{"town":"宮内一丁目","koaza":"","lat":35.594809,"lng":139.644987,"version":"13.0b/18.0a"},{"town":"今井南町","koaza":"","lat":35.572501,"lng":139.654761,"version":"13.0b/18.0a"},{"town":"木月住吉町","koaza":"","lat":35.565849,"lng":139.658919,"version":"13.0b/18.0a"},{"town":"上新城二丁目","koaza":"","lat":35.58722,"lng":139.630813,"version":"14.0b/19.0a"},{"town":"上小田中二丁目","koaza":"","lat":35.588425,"lng":139.63638,"version":"14.0b/19.0a"},{"town":"上小田中三丁目","koaza":"","lat":35.586945,"lng":139.633167,"version":"14.0b/19.0a"},{"town":"上小田中六丁目","koaza":"","lat":35.582178,"lng":139.645375,"version":"14.0b/19.0a"},{"town":"等々力","koaza":"","lat":35.58918,"lng":139.653175,"version":"14.0b/19.0a"},{"town":"宮内四丁目","koaza":"","lat":35.58606,"lng":139.644465,"version":"14.0b/19.0a"},{"town":"上丸子天神町","koaza":"","lat":35.586928,"lng":139.66357,"version":"14.0b/19.0a"},{"town":"宮内二丁目","koaza":"","lat":35.590908,"lng":139.638814,"version":"14.0b/19.0a"},{"town":"新城三丁目","koaza":"","lat":35.585398,"lng":139.630159,"version":"14.0b/19.0a"},{"town":"新城五丁目","koaza":"","lat":35.586216,"lng":139.628985,"version":"14.0b/19.0a"},{"town":"上丸子八幡町","koaza":"","lat":35.582599,"lng":139.667963,"version":"14.0b/19.0a"},{"town":"小杉陣屋町二丁目","koaza":"","lat":35.585132,"lng":139.65604,"version":"14.0b/19.0a"},{"town":"小杉陣屋町一丁目","koaza":"","lat":35.585031,"lng":139.658407,"version":"14.0b/19.0a"},{"town":"新城一丁目","koaza":"","lat":35.58526,"lng":139.631542,"version":"14.0b/19.0a"},{"town":"井田一丁目","koaza":"","lat":35.562932,"lng":139.643385,"version":"14.0b/19.0a"},{"town":"上小田中四丁目","koaza":"","lat":35.583537,"lng":139.640258,"version":"14.0b/19.0a"},{"town":"下小田中四丁目","koaza":"","lat":35.576185,"lng":139.637997,"version":"14.0b/19.0a"},{"town":"井田二丁目","koaza":"","lat":35.561114,"lng":139.640893,"version":"14.0b/19.0a"},{"town":"井田杉山町","koaza":"","lat":35.569529,"lng":139.642792,"version":"14.0b/19.0a"},{"town":"上丸子山王町二丁目","koaza":"","lat":35.576142,"lng":139.666579,"version":"14.0b/19.0a"},{"town":"田尻町","koaza":"","lat":35.559488,"lng":139.672165,"version":"14.0b/19.0a"},{"town":"北谷町","koaza":"","lat":35.562575,"lng":139.671567,"version":"14.0b/19.0a"},{"town":"大倉町","koaza":"","lat":35.556774,"lng":139.665973,"version":"14.0b/19.0a"},{"town":"西加瀬","koaza":"","lat":35.560117,"lng":139.659823,"version":"14.0b/19.0a"},{"town":"木月二丁目","koaza":"","lat":35.564023,"lng":139.65547,"version":"14.0b/19.0a"},{"town":"木月四丁目","koaza":"","lat":35.559027,"lng":139.654425,"version":"14.0b/19.0a"},{"town":"木月一丁目","koaza":"","lat":35.565429,"lng":139.652818,"version":"14.0b/19.0a"},{"town":"井田三丁目","koaza":"","lat":35.562737,"lng":139.636755,"version":"14.0b/19.0a"},{"town":"苅宿","koaza":"","lat":35.561763,"lng":139.663954,"version":"14.0b/19.0a"},{"town":"市ノ坪","koaza":"","lat":35.567422,"lng":139.664481,"version":"14.0b/19.0a"},{"town":"上丸子","koaza":"","lat":35.574764,"lng":139.664298,"version":"14.0b/19.0a"},{"town":"新丸子東三丁目","koaza":"","lat":35.574728,"lng":139.6612,"version":"14.0b/19.0a"},{"town":"新丸子東二丁目","koaza":"","lat":35.577759,"lng":139.662374,"version":"14.0b/19.0a"},{"town":"下沼部","koaza":"","lat":35.574007,"lng":139.668804,"version":"14.0b/19.0a"},{"town":"上丸子山王町一丁目","koaza":"","lat":35.578982,"lng":139.668365,"version":"14.0b/19.0a"},{"town":"小杉町二丁目","koaza":"","lat":35.579455,"lng":139.656175,"version":"14.0b/19.0a"},{"town":"小杉町一丁目","koaza":"","lat":35.579357,"lng":139.658607,"version":"14.0b/19.0a"},{"town":"新丸子東一丁目","koaza":"","lat":35.580086,"lng":139.663177,"version":"14.0b/19.0a"},{"town":"丸子通二丁目","koaza":"","lat":35.58328,"lng":139.661594,"version":"14.0b/19.0a"},{"town":"中丸子","koaza":"","lat":35.568518,"lng":139.668859,"version":"14.0b/19.0a"},{"town":"上平間","koaza":"","lat":35.559946,"lng":139.677571,"version":"14.0b/19.0a"},{"town":"小杉町三丁目","koaza":"","lat":35.574686,"lng":139.657252,"version":"14.0b/19.0a"},{"town":"木月祗園町","koaza":"","lat":35.568179,"lng":139.65085,"version":"14.0b/19.0a"},{"town":"木月三丁目","koaza":"","lat":35.562816,"lng":139.650428,"version":"14.0b/19.0a"},{"town":"丸子通一丁目","koaza":"","lat":35.582999,"lng":139.66455,"version":"14.0b/19.0a"},{"town":"新丸子町","koaza":"","lat":35.579381,"lng":139.660603,"version":"14.0b/19.0a"},{"town":"木月大町","koaza":"","lat":35.571152,"lng":139.65034,"version":"14.0b/19.0a"},{"town":"木月伊勢町","koaza":"","lat":35.569092,"lng":139.65494,"version":"14.0b/19.0a"},{"town":"今井仲町","koaza":"","lat":35.574457,"lng":139.651479,"version":"14.0b/19.0a"},{"town":"小杉御殿町一丁目","koaza":"","lat":35.583962,"lng":139.652437,"version":"14.0b/19.0a"},{"town":"上小田中七丁目","koaza":"","lat":35.581033,"lng":139.648845,"version":"14.0b/19.0a"},{"town":"小杉御殿町二丁目","koaza":"","lat":35.579423,"lng":139.653391,"version":"14.0b/19.0a"},{"town":"下小田中二丁目","koaza":"","lat":35.577623,"lng":139.643486,"version":"14.0b/19.0a"},{"town":"今井西町","koaza":"","lat":35.575397,"lng":139.64838,"version":"14.0b/19.0a"},{"town":"今井上町","koaza":"","lat":35.578438,"lng":139.649884,"version":"14.0b/19.0a"},{"town":"井田中ノ町","koaza":"","lat":35.565289,"lng":139.643876,"version":"14.0b/19.0a"},{"town":"下小田中六丁目","koaza":"","lat":35.57122,"lng":139.637288,"version":"14.0b/19.0a"},{"town":"下小田中五丁目","koaza":"","lat":35.574075,"lng":139.63411,"version":"14.0b/19.0a"},{"town":"下新城二丁目","koaza":"","lat":35.577461,"lng":139.632675,"version":"14.0b/19.0a"},{"town":"井田三舞町","koaza":"","lat":35.569301,"lng":139.646265,"version":"14.0b/19.0a"},{"town":"下小田中三丁目","koaza":"","lat":35.573154,"lng":139.643202,"version":"14.0b/19.0a"},{"town":"下小田中一丁目","koaza":"","lat":35.579784,"lng":139.637806,"version":"14.0b/19.0a"},{"town":"上小田中五丁目","koaza":"","lat":35.582758,"lng":139.636621,"version":"14.0b/19.0a"},{"town":"新城中町","koaza":"","lat":35.583254,"lng":139.633532,"version":"14.0b/19.0a"},{"town":"下新城三丁目","koaza":"","lat":35.579671,"lng":139.630402,"version":"14.0b/19.0a"},{"town":"新城四丁目","koaza":"","lat":35.582792,"lng":139.630059,"version":"14.0b/19.0a"},{"town":"下新城一丁目","koaza":"","lat":35.579922,"lng":139.633538,"version":"14.0b/19.0a"},{"town":"新城二丁目","koaza":"","lat":35.582811,"lng":139.63164,"version":"14.0b/19.0a"},{"town":"上小田中一丁目","koaza":"","lat":35.593112,"lng":139.630566,"version":"14.0b/19.0a"},{"town":"宮内三丁目","koaza":"","lat":35.590812,"lng":139.643723,"version":"14.0b/19.0a"},{"town":"上新城一丁目","koaza":"","lat":35.590571,"lng":139.628885,"version":"14.0b/19.0a"},{"town":"新城","koaza":"","lat":35.587962,"lng":139.627724,"version":"14.0b/19.0a"},{"town":"宮内一丁目","koaza":"","lat":35.594809,"lng":139.644987,"version":"14.0b/19.0a"},{"town":"今井南町","koaza":"","lat":35.572501,"lng":139.654761,"version":"14.0b/19.0a"},{"town":"木月住吉町","koaza":"","lat":35.565849,"lng":139.658919,"version":"14.0b/19.0a"}]