[{"town":"中野島四丁目","koaza":"","lat":35.628776,"lng":139.558865,"version":"13.0b/18.0a"},{"town":"中野島二丁目","koaza":"","lat":35.626321,"lng":139.549433,"version":"13.0b/18.0a"},{"town":"中野島三丁目","koaza":"","lat":35.627851,"lng":139.553337,"version":"13.0b/18.0a"},{"town":"中野島六丁目","koaza":"","lat":35.631822,"lng":139.551584,"version":"13.0b/18.0a"},{"town":"布田","koaza":"","lat":35.634035,"lng":139.547462,"version":"13.0b/18.0a"},{"town":"中野島一丁目","koaza":"","lat":35.628443,"lng":139.546871,"version":"13.0b/18.0a"},{"town":"堰三丁目","koaza":"","lat":35.611939,"lng":139.595076,"version":"13.0b/18.0a"},{"town":"堰二丁目","koaza":"","lat":35.613098,"lng":139.595394,"version":"13.0b/18.0a"},{"town":"宿河原五丁目","koaza":"","lat":35.617655,"lng":139.584313,"version":"13.0b/18.0a"},{"town":"東三田三丁目","koaza":"","lat":35.608627,"lng":139.550502,"version":"13.0b/18.0a"},{"town":"長尾五丁目","koaza":"","lat":35.611144,"lng":139.58277,"version":"13.0b/18.0a"},{"town":"長尾七丁目","koaza":"","lat":35.607114,"lng":139.584933,"version":"13.0b/18.0a"},{"town":"長尾六丁目","koaza":"","lat":35.607289,"lng":139.579872,"version":"13.0b/18.0a"},{"town":"長尾三丁目","koaza":"","lat":35.608226,"lng":139.577033,"version":"13.0b/18.0a"},{"town":"長尾四丁目","koaza":"","lat":35.610841,"lng":139.578522,"version":"13.0b/18.0a"},{"town":"宿河原三丁目","koaza":"","lat":35.613988,"lng":139.579678,"version":"13.0b/18.0a"},{"town":"宿河原七丁目","koaza":"","lat":35.616753,"lng":139.588536,"version":"13.0b/18.0a"},{"town":"堰一丁目","koaza":"","lat":35.615934,"lng":139.59429,"version":"13.0b/18.0a"},{"town":"東生田四丁目","koaza":"","lat":35.604824,"lng":139.56503,"version":"13.0b/18.0a"},{"town":"長尾一丁目","koaza":"","lat":35.611517,"lng":139.573892,"version":"13.0b/18.0a"},{"town":"東生田三丁目","koaza":"","lat":35.606368,"lng":139.566426,"version":"13.0b/18.0a"},{"town":"長尾二丁目","koaza":"","lat":35.608698,"lng":139.571747,"version":"13.0b/18.0a"},{"town":"東三田二丁目","koaza":"","lat":35.609706,"lng":139.553456,"version":"13.0b/18.0a"},{"town":"長沢四丁目","koaza":"","lat":35.598453,"lng":139.535439,"version":"13.0b/18.0a"},{"town":"東三田一丁目","koaza":"","lat":35.612653,"lng":139.549014,"version":"13.0b/18.0a"},{"town":"長沢三丁目","koaza":"","lat":35.599901,"lng":139.541631,"version":"13.0b/18.0a"},{"town":"長沢一丁目","koaza":"","lat":35.603541,"lng":139.544964,"version":"13.0b/18.0a"},{"town":"南生田八丁目","koaza":"","lat":35.607585,"lng":139.537406,"version":"13.0b/18.0a"},{"town":"南生田五丁目","koaza":"","lat":35.602854,"lng":139.538988,"version":"13.0b/18.0a"},{"town":"南生田六丁目","koaza":"","lat":35.604456,"lng":139.538512,"version":"13.0b/18.0a"},{"town":"三田五丁目","koaza":"","lat":35.607256,"lng":139.54602,"version":"13.0b/18.0a"},{"town":"栗谷二丁目","koaza":"","lat":35.609318,"lng":139.534694,"version":"13.0b/18.0a"},{"town":"長沢二丁目","koaza":"","lat":35.601068,"lng":139.545353,"version":"13.0b/18.0a"},{"town":"南生田二丁目","koaza":"","lat":35.603908,"lng":139.529195,"version":"13.0b/18.0a"},{"town":"南生田四丁目","koaza":"","lat":35.600659,"lng":139.53421,"version":"13.0b/18.0a"},{"town":"南生田三丁目","koaza":"","lat":35.605112,"lng":139.53387,"version":"13.0b/18.0a"},{"town":"宿河原六丁目","koaza":"","lat":35.611016,"lng":139.588193,"version":"13.0b/18.0a"},{"town":"宿河原四丁目","koaza":"","lat":35.618086,"lng":139.580264,"version":"13.0b/18.0a"},{"town":"中野島","koaza":"","lat":35.627599,"lng":139.561988,"version":"13.0b/18.0a"},{"town":"登戸新町","koaza":"","lat":35.624304,"lng":139.564813,"version":"13.0b/18.0a"},{"town":"東生田二丁目","koaza":"","lat":35.610181,"lng":139.565234,"version":"13.0b/18.0a"},{"town":"宿河原二丁目","koaza":"","lat":35.613705,"lng":139.572656,"version":"13.0b/18.0a"},{"town":"東生田一丁目","koaza":"","lat":35.613408,"lng":139.566567,"version":"13.0b/18.0a"},{"town":"枡形五丁目","koaza":"","lat":35.613493,"lng":139.553267,"version":"13.0b/18.0a"},{"town":"中野島五丁目","koaza":"","lat":35.631348,"lng":139.558649,"version":"13.0b/18.0a"},{"town":"枡形三丁目","koaza":"","lat":35.616609,"lng":139.559119,"version":"13.0b/18.0a"},{"town":"枡形六丁目","koaza":"","lat":35.612494,"lng":139.559472,"version":"13.0b/18.0a"},{"town":"三田四丁目","koaza":"","lat":35.608601,"lng":139.54269,"version":"13.0b/18.0a"},{"town":"三田三丁目","koaza":"","lat":35.609581,"lng":139.546214,"version":"13.0b/18.0a"},{"town":"栗谷四丁目","koaza":"","lat":35.61118,"lng":139.538998,"version":"13.0b/18.0a"},{"town":"南生田七丁目","koaza":"","lat":35.608487,"lng":139.540045,"version":"13.0b/18.0a"},{"town":"枡形七丁目","koaza":"","lat":35.606517,"lng":139.556576,"version":"13.0b/18.0a"},{"town":"枡形四丁目","koaza":"","lat":35.617383,"lng":139.552885,"version":"13.0b/18.0a"},{"town":"三田二丁目","koaza":"","lat":35.613218,"lng":139.546361,"version":"13.0b/18.0a"},{"town":"枡形二丁目","koaza":"","lat":35.618998,"lng":139.555398,"version":"13.0b/18.0a"},{"town":"生田二丁目","koaza":"","lat":35.623325,"lng":139.548632,"version":"13.0b/18.0a"},{"town":"生田八丁目","koaza":"","lat":35.617023,"lng":139.547482,"version":"13.0b/18.0a"},{"town":"生田七丁目","koaza":"","lat":35.616491,"lng":139.542084,"version":"13.0b/18.0a"},{"town":"栗谷三丁目","koaza":"","lat":35.6124,"lng":139.536476,"version":"13.0b/18.0a"},{"town":"三田一丁目","koaza":"","lat":35.612674,"lng":139.542398,"version":"13.0b/18.0a"},{"town":"栗谷一丁目","koaza":"","lat":35.612547,"lng":139.533323,"version":"13.0b/18.0a"},{"town":"枡形一丁目","koaza":"","lat":35.620012,"lng":139.550803,"version":"13.0b/18.0a"},{"town":"和泉","koaza":"","lat":35.629363,"lng":139.564793,"version":"13.0b/18.0a"},{"town":"菅馬場二丁目","koaza":"","lat":35.62627,"lng":139.537604,"version":"13.0b/18.0a"},{"town":"寺尾台二丁目","koaza":"","lat":35.62114,"lng":139.537177,"version":"13.0b/18.0a"},{"town":"菅北浦二丁目","koaza":"","lat":35.62966,"lng":139.535147,"version":"13.0b/18.0a"},{"town":"西生田二丁目","koaza":"","lat":35.616007,"lng":139.532511,"version":"13.0b/18.0a"},{"town":"生田六丁目","koaza":"","lat":35.617698,"lng":139.53714,"version":"13.0b/18.0a"},{"town":"寺尾台一丁目","koaza":"","lat":35.619634,"lng":139.534676,"version":"13.0b/18.0a"},{"town":"西生田三丁目","koaza":"","lat":35.611846,"lng":139.529219,"version":"13.0b/18.0a"},{"town":"西生田四丁目","koaza":"","lat":35.611718,"lng":139.525168,"version":"13.0b/18.0a"},{"town":"西生田一丁目","koaza":"","lat":35.616151,"lng":139.528324,"version":"13.0b/18.0a"},{"town":"菅馬場三丁目","koaza":"","lat":35.622958,"lng":139.533815,"version":"13.0b/18.0a"},{"town":"菅北浦五丁目","koaza":"","lat":35.627189,"lng":139.533957,"version":"13.0b/18.0a"},{"town":"菅馬場四丁目","koaza":"","lat":35.62054,"lng":139.529195,"version":"13.0b/18.0a"},{"town":"菅北浦四丁目","koaza":"","lat":35.626859,"lng":139.529372,"version":"13.0b/18.0a"},{"town":"菅仙谷二丁目","koaza":"","lat":35.628832,"lng":139.526553,"version":"13.0b/18.0a"},{"town":"菅仙谷三丁目","koaza":"","lat":35.62358,"lng":139.525224,"version":"13.0b/18.0a"},{"town":"西生田五丁目","koaza":"","lat":35.607389,"lng":139.525279,"version":"13.0b/18.0a"},{"town":"南生田一丁目","koaza":"","lat":35.608995,"lng":139.529897,"version":"13.0b/18.0a"},{"town":"菅四丁目","koaza":"","lat":35.63594,"lng":139.528574,"version":"13.0b/18.0a"},{"town":"登戸","koaza":"","lat":35.620766,"lng":139.563782,"version":"13.0b/18.0a"},{"town":"宿河原一丁目","koaza":"","lat":35.620331,"lng":139.575896,"version":"13.0b/18.0a"},{"town":"生田五丁目","koaza":"","lat":35.62094,"lng":139.540561,"version":"13.0b/18.0a"},{"town":"生田四丁目","koaza":"","lat":35.619788,"lng":139.544754,"version":"13.0b/18.0a"},{"town":"生田三丁目","koaza":"","lat":35.622124,"lng":139.546704,"version":"13.0b/18.0a"},{"town":"生田一丁目","koaza":"","lat":35.625082,"lng":139.542934,"version":"13.0b/18.0a"},{"town":"菅馬場一丁目","koaza":"","lat":35.630121,"lng":139.54282,"version":"13.0b/18.0a"},{"town":"菅稲田堤三丁目","koaza":"","lat":35.634919,"lng":139.542429,"version":"13.0b/18.0a"},{"town":"菅北浦三丁目","koaza":"","lat":35.630758,"lng":139.531231,"version":"13.0b/18.0a"},{"town":"菅北浦一丁目","koaza":"","lat":35.63081,"lng":139.538495,"version":"13.0b/18.0a"},{"town":"菅二丁目","koaza":"","lat":35.632991,"lng":139.530962,"version":"13.0b/18.0a"},{"town":"菅一丁目","koaza":"","lat":35.632313,"lng":139.537351,"version":"13.0b/18.0a"},{"town":"菅稲田堤一丁目","koaza":"","lat":35.635229,"lng":139.53543,"version":"13.0b/18.0a"},{"town":"菅仙谷四丁目","koaza":"","lat":35.626393,"lng":139.519225,"version":"13.0b/18.0a"},{"town":"菅仙谷一丁目","koaza":"","lat":35.629489,"lng":139.522437,"version":"13.0b/18.0a"},{"town":"菅五丁目","koaza":"","lat":35.637269,"lng":139.52976,"version":"13.0b/18.0a"},{"town":"菅稲田堤二丁目","koaza":"","lat":35.636803,"lng":139.539364,"version":"13.0b/18.0a"},{"town":"菅城下","koaza":"","lat":35.634521,"lng":139.524042,"version":"13.0b/18.0a"},{"town":"菅三丁目","koaza":"","lat":35.63608,"lng":139.525548,"version":"13.0b/18.0a"},{"town":"菅六丁目","koaza":"","lat":35.638857,"lng":139.525231,"version":"13.0b/18.0a"},{"town":"菅野戸呂","koaza":"","lat":35.63978,"lng":139.531517,"version":"13.0b/18.0a"},{"town":"中野島四丁目","koaza":"","lat":35.628776,"lng":139.558865,"version":"14.0b/19.0a"},{"town":"中野島二丁目","koaza":"","lat":35.626321,"lng":139.549433,"version":"14.0b/19.0a"},{"town":"中野島三丁目","koaza":"","lat":35.627851,"lng":139.553337,"version":"14.0b/19.0a"},{"town":"中野島六丁目","koaza":"","lat":35.631822,"lng":139.551584,"version":"14.0b/19.0a"},{"town":"布田","koaza":"","lat":35.634035,"lng":139.547462,"version":"14.0b/19.0a"},{"town":"中野島一丁目","koaza":"","lat":35.628443,"lng":139.546871,"version":"14.0b/19.0a"},{"town":"堰三丁目","koaza":"","lat":35.611939,"lng":139.595076,"version":"14.0b/19.0a"},{"town":"堰二丁目","koaza":"","lat":35.613098,"lng":139.595394,"version":"14.0b/19.0a"},{"town":"宿河原五丁目","koaza":"","lat":35.617655,"lng":139.584313,"version":"14.0b/19.0a"},{"town":"東三田三丁目","koaza":"","lat":35.608627,"lng":139.550502,"version":"14.0b/19.0a"},{"town":"長尾五丁目","koaza":"","lat":35.611144,"lng":139.58277,"version":"14.0b/19.0a"},{"town":"長尾七丁目","koaza":"","lat":35.607114,"lng":139.584933,"version":"14.0b/19.0a"},{"town":"長尾六丁目","koaza":"","lat":35.607289,"lng":139.579872,"version":"14.0b/19.0a"},{"town":"長尾三丁目","koaza":"","lat":35.608226,"lng":139.577033,"version":"14.0b/19.0a"},{"town":"長尾四丁目","koaza":"","lat":35.610841,"lng":139.578522,"version":"14.0b/19.0a"},{"town":"宿河原三丁目","koaza":"","lat":35.613988,"lng":139.579678,"version":"14.0b/19.0a"},{"town":"宿河原七丁目","koaza":"","lat":35.616753,"lng":139.588536,"version":"14.0b/19.0a"},{"town":"堰一丁目","koaza":"","lat":35.615934,"lng":139.59429,"version":"14.0b/19.0a"},{"town":"東生田四丁目","koaza":"","lat":35.604824,"lng":139.56503,"version":"14.0b/19.0a"},{"town":"長尾一丁目","koaza":"","lat":35.611517,"lng":139.573892,"version":"14.0b/19.0a"},{"town":"東生田三丁目","koaza":"","lat":35.606368,"lng":139.566426,"version":"14.0b/19.0a"},{"town":"長尾二丁目","koaza":"","lat":35.608698,"lng":139.571747,"version":"14.0b/19.0a"},{"town":"東三田二丁目","koaza":"","lat":35.609706,"lng":139.553456,"version":"14.0b/19.0a"},{"town":"長沢四丁目","koaza":"","lat":35.598453,"lng":139.535439,"version":"14.0b/19.0a"},{"town":"東三田一丁目","koaza":"","lat":35.612653,"lng":139.549014,"version":"14.0b/19.0a"},{"town":"長沢三丁目","koaza":"","lat":35.599901,"lng":139.541631,"version":"14.0b/19.0a"},{"town":"長沢一丁目","koaza":"","lat":35.603541,"lng":139.544964,"version":"14.0b/19.0a"},{"town":"南生田八丁目","koaza":"","lat":35.607585,"lng":139.537406,"version":"14.0b/19.0a"},{"town":"南生田五丁目","koaza":"","lat":35.602854,"lng":139.538988,"version":"14.0b/19.0a"},{"town":"南生田六丁目","koaza":"","lat":35.604456,"lng":139.538512,"version":"14.0b/19.0a"},{"town":"三田五丁目","koaza":"","lat":35.607256,"lng":139.54602,"version":"14.0b/19.0a"},{"town":"栗谷二丁目","koaza":"","lat":35.609318,"lng":139.534694,"version":"14.0b/19.0a"},{"town":"長沢二丁目","koaza":"","lat":35.601068,"lng":139.545353,"version":"14.0b/19.0a"},{"town":"南生田二丁目","koaza":"","lat":35.603908,"lng":139.529195,"version":"14.0b/19.0a"},{"town":"南生田四丁目","koaza":"","lat":35.600659,"lng":139.53421,"version":"14.0b/19.0a"},{"town":"南生田三丁目","koaza":"","lat":35.605112,"lng":139.53387,"version":"14.0b/19.0a"},{"town":"宿河原六丁目","koaza":"","lat":35.611016,"lng":139.588193,"version":"14.0b/19.0a"},{"town":"宿河原四丁目","koaza":"","lat":35.618086,"lng":139.580264,"version":"14.0b/19.0a"},{"town":"中野島","koaza":"","lat":35.627599,"lng":139.561988,"version":"14.0b/19.0a"},{"town":"登戸新町","koaza":"","lat":35.624304,"lng":139.564813,"version":"14.0b/19.0a"},{"town":"東生田二丁目","koaza":"","lat":35.610181,"lng":139.565234,"version":"14.0b/19.0a"},{"town":"宿河原二丁目","koaza":"","lat":35.613705,"lng":139.572656,"version":"14.0b/19.0a"},{"town":"東生田一丁目","koaza":"","lat":35.613408,"lng":139.566567,"version":"14.0b/19.0a"},{"town":"枡形五丁目","koaza":"","lat":35.613493,"lng":139.553267,"version":"14.0b/19.0a"},{"town":"中野島五丁目","koaza":"","lat":35.631348,"lng":139.558649,"version":"14.0b/19.0a"},{"town":"枡形三丁目","koaza":"","lat":35.616609,"lng":139.559119,"version":"14.0b/19.0a"},{"town":"枡形六丁目","koaza":"","lat":35.612494,"lng":139.559472,"version":"14.0b/19.0a"},{"town":"三田四丁目","koaza":"","lat":35.608601,"lng":139.54269,"version":"14.0b/19.0a"},{"town":"三田三丁目","koaza":"","lat":35.609581,"lng":139.546214,"version":"14.0b/19.0a"},{"town":"栗谷四丁目","koaza":"","lat":35.61118,"lng":139.538998,"version":"14.0b/19.0a"},{"town":"南生田七丁目","koaza":"","lat":35.608487,"lng":139.540045,"version":"14.0b/19.0a"},{"town":"枡形七丁目","koaza":"","lat":35.606517,"lng":139.556576,"version":"14.0b/19.0a"},{"town":"枡形四丁目","koaza":"","lat":35.617383,"lng":139.552885,"version":"14.0b/19.0a"},{"town":"三田二丁目","koaza":"","lat":35.613218,"lng":139.546361,"version":"14.0b/19.0a"},{"town":"枡形二丁目","koaza":"","lat":35.618998,"lng":139.555398,"version":"14.0b/19.0a"},{"town":"生田二丁目","koaza":"","lat":35.623325,"lng":139.548632,"version":"14.0b/19.0a"},{"town":"生田八丁目","koaza":"","lat":35.617023,"lng":139.547482,"version":"14.0b/19.0a"},{"town":"生田七丁目","koaza":"","lat":35.616491,"lng":139.542084,"version":"14.0b/19.0a"},{"town":"栗谷三丁目","koaza":"","lat":35.6124,"lng":139.536476,"version":"14.0b/19.0a"},{"town":"三田一丁目","koaza":"","lat":35.612674,"lng":139.542398,"version":"14.0b/19.0a"},{"town":"栗谷一丁目","koaza":"","lat":35.612547,"lng":139.533323,"version":"14.0b/19.0a"},{"town":"枡形一丁目","koaza":"","lat":35.620012,"lng":139.550803,"version":"14.0b/19.0a"},{"town":"和泉","koaza":"","lat":35.629363,"lng":139.564793,"version":"14.0b/19.0a"},{"town":"菅馬場二丁目","koaza":"","lat":35.62627,"lng":139.537604,"version":"14.0b/19.0a"},{"town":"寺尾台二丁目","koaza":"","lat":35.62114,"lng":139.537177,"version":"14.0b/19.0a"},{"town":"菅北浦二丁目","koaza":"","lat":35.62966,"lng":139.535147,"version":"14.0b/19.0a"},{"town":"西生田二丁目","koaza":"","lat":35.616007,"lng":139.532511,"version":"14.0b/19.0a"},{"town":"生田六丁目","koaza":"","lat":35.617698,"lng":139.53714,"version":"14.0b/19.0a"},{"town":"寺尾台一丁目","koaza":"","lat":35.619634,"lng":139.534676,"version":"14.0b/19.0a"},{"town":"西生田三丁目","koaza":"","lat":35.611846,"lng":139.529219,"version":"14.0b/19.0a"},{"town":"西生田四丁目","koaza":"","lat":35.611718,"lng":139.525168,"version":"14.0b/19.0a"},{"town":"西生田一丁目","koaza":"","lat":35.616151,"lng":139.528324,"version":"14.0b/19.0a"},{"town":"菅馬場三丁目","koaza":"","lat":35.622958,"lng":139.533815,"version":"14.0b/19.0a"},{"town":"菅北浦五丁目","koaza":"","lat":35.627189,"lng":139.533957,"version":"14.0b/19.0a"},{"town":"菅馬場四丁目","koaza":"","lat":35.62054,"lng":139.529195,"version":"14.0b/19.0a"},{"town":"菅北浦四丁目","koaza":"","lat":35.626859,"lng":139.529372,"version":"14.0b/19.0a"},{"town":"菅仙谷二丁目","koaza":"","lat":35.628832,"lng":139.526553,"version":"14.0b/19.0a"},{"town":"菅仙谷三丁目","koaza":"","lat":35.62358,"lng":139.525224,"version":"14.0b/19.0a"},{"town":"西生田五丁目","koaza":"","lat":35.607389,"lng":139.525279,"version":"14.0b/19.0a"},{"town":"南生田一丁目","koaza":"","lat":35.608995,"lng":139.529897,"version":"14.0b/19.0a"},{"town":"菅四丁目","koaza":"","lat":35.63594,"lng":139.528574,"version":"14.0b/19.0a"},{"town":"登戸","koaza":"","lat":35.620766,"lng":139.563782,"version":"14.0b/19.0a"},{"town":"宿河原一丁目","koaza":"","lat":35.620331,"lng":139.575896,"version":"14.0b/19.0a"},{"town":"生田五丁目","koaza":"","lat":35.62094,"lng":139.540561,"version":"14.0b/19.0a"},{"town":"生田四丁目","koaza":"","lat":35.619788,"lng":139.544754,"version":"14.0b/19.0a"},{"town":"生田三丁目","koaza":"","lat":35.622124,"lng":139.546704,"version":"14.0b/19.0a"},{"town":"生田一丁目","koaza":"","lat":35.625082,"lng":139.542934,"version":"14.0b/19.0a"},{"town":"菅馬場一丁目","koaza":"","lat":35.630121,"lng":139.54282,"version":"14.0b/19.0a"},{"town":"菅稲田堤三丁目","koaza":"","lat":35.634919,"lng":139.542429,"version":"14.0b/19.0a"},{"town":"菅北浦三丁目","koaza":"","lat":35.630758,"lng":139.531231,"version":"14.0b/19.0a"},{"town":"菅北浦一丁目","koaza":"","lat":35.63081,"lng":139.538495,"version":"14.0b/19.0a"},{"town":"菅二丁目","koaza":"","lat":35.632991,"lng":139.530962,"version":"14.0b/19.0a"},{"town":"菅一丁目","koaza":"","lat":35.632313,"lng":139.537351,"version":"14.0b/19.0a"},{"town":"菅稲田堤一丁目","koaza":"","lat":35.635229,"lng":139.53543,"version":"14.0b/19.0a"},{"town":"菅仙谷四丁目","koaza":"","lat":35.626393,"lng":139.519225,"version":"14.0b/19.0a"},{"town":"菅仙谷一丁目","koaza":"","lat":35.629489,"lng":139.522437,"version":"14.0b/19.0a"},{"town":"菅五丁目","koaza":"","lat":35.637269,"lng":139.52976,"version":"14.0b/19.0a"},{"town":"菅稲田堤二丁目","koaza":"","lat":35.636803,"lng":139.539364,"version":"14.0b/19.0a"},{"town":"菅城下","koaza":"","lat":35.634521,"lng":139.524042,"version":"14.0b/19.0a"},{"town":"菅三丁目","koaza":"","lat":35.63608,"lng":139.525548,"version":"14.0b/19.0a"},{"town":"菅六丁目","koaza":"","lat":35.638857,"lng":139.525231,"version":"14.0b/19.0a"},{"town":"菅野戸呂","koaza":"","lat":35.63978,"lng":139.531517,"version":"14.0b/19.0a"}]