[{"town":"若葉台三丁目","koaza":"","lat":35.503989,"lng":139.498487,"version":"13.0b/18.0a"},{"town":"上川井町","koaza":"","lat":35.492567,"lng":139.497545,"version":"13.0b/18.0a"},{"town":"上白根町","koaza":"","lat":35.49546,"lng":139.529903,"version":"13.0b/18.0a"},{"town":"若葉台一丁目","koaza":"","lat":35.504496,"lng":139.505145,"version":"13.0b/18.0a"},{"town":"若葉台二丁目","koaza":"","lat":35.505394,"lng":139.501695,"version":"13.0b/18.0a"},{"town":"若葉台四丁目","koaza":"","lat":35.505899,"lng":139.493581,"version":"13.0b/18.0a"},{"town":"鶴ケ峰本町二丁目","koaza":"","lat":35.479222,"lng":139.544312,"version":"13.0b/18.0a"},{"town":"今宿二丁目","koaza":"","lat":35.474205,"lng":139.518199,"version":"13.0b/18.0a"},{"town":"中沢二丁目","koaza":"","lat":35.472473,"lng":139.525386,"version":"13.0b/18.0a"},{"town":"中沢三丁目","koaza":"","lat":35.473023,"lng":139.522164,"version":"13.0b/18.0a"},{"town":"金が谷一丁目","koaza":"","lat":35.473396,"lng":139.511862,"version":"13.0b/18.0a"},{"town":"金が谷二丁目","koaza":"","lat":35.477486,"lng":139.512872,"version":"13.0b/18.0a"},{"town":"笹野台四丁目","koaza":"","lat":35.471274,"lng":139.5092,"version":"13.0b/18.0a"},{"town":"笹野台三丁目","koaza":"","lat":35.474917,"lng":139.506308,"version":"13.0b/18.0a"},{"town":"中白根二丁目","koaza":"","lat":35.490576,"lng":139.543662,"version":"13.0b/18.0a"},{"town":"上白根三丁目","koaza":"","lat":35.496819,"lng":139.539232,"version":"13.0b/18.0a"},{"town":"上白根二丁目","koaza":"","lat":35.49287,"lng":139.539261,"version":"13.0b/18.0a"},{"town":"白根三丁目","koaza":"","lat":35.481181,"lng":139.549285,"version":"13.0b/18.0a"},{"town":"白根七丁目","koaza":"","lat":35.485909,"lng":139.553644,"version":"13.0b/18.0a"},{"town":"白根四丁目","koaza":"","lat":35.481544,"lng":139.546062,"version":"13.0b/18.0a"},{"town":"中白根三丁目","koaza":"","lat":35.496191,"lng":139.544323,"version":"13.0b/18.0a"},{"town":"上白根一丁目","koaza":"","lat":35.488218,"lng":139.539891,"version":"13.0b/18.0a"},{"town":"白根八丁目","koaza":"","lat":35.490209,"lng":139.549864,"version":"13.0b/18.0a"},{"town":"桐が作","koaza":"","lat":35.456469,"lng":139.54733,"version":"13.0b/18.0a"},{"town":"笹野台一丁目","koaza":"","lat":35.470028,"lng":139.505689,"version":"13.0b/18.0a"},{"town":"今宿一丁目","koaza":"","lat":35.477664,"lng":139.520281,"version":"13.0b/18.0a"},{"town":"白根二丁目","koaza":"","lat":35.482321,"lng":139.553223,"version":"13.0b/18.0a"},{"town":"南希望が丘","koaza":"","lat":35.454723,"lng":139.514031,"version":"13.0b/18.0a"},{"town":"大池町","koaza":"","lat":35.448723,"lng":139.538258,"version":"13.0b/18.0a"},{"town":"万騎が原","koaza":"","lat":35.454805,"lng":139.533054,"version":"13.0b/18.0a"},{"town":"南本宿町","koaza":"","lat":35.456282,"lng":139.540553,"version":"13.0b/18.0a"},{"town":"東希望が丘","koaza":"","lat":35.464314,"lng":139.514326,"version":"13.0b/18.0a"},{"town":"二俣川二丁目","koaza":"","lat":35.461251,"lng":139.533833,"version":"13.0b/18.0a"},{"town":"本村町","koaza":"","lat":35.467558,"lng":139.535243,"version":"13.0b/18.0a"},{"town":"柏町","koaza":"","lat":35.451661,"lng":139.525662,"version":"13.0b/18.0a"},{"town":"善部町","koaza":"","lat":35.450133,"lng":139.51464,"version":"13.0b/18.0a"},{"town":"中希望が丘","koaza":"","lat":35.460687,"lng":139.508768,"version":"13.0b/18.0a"},{"town":"左近山","koaza":"","lat":35.460086,"lng":139.551005,"version":"13.0b/18.0a"},{"town":"小高町","koaza":"","lat":35.463727,"lng":139.554346,"version":"13.0b/18.0a"},{"town":"市沢町","koaza":"","lat":35.460429,"lng":139.561811,"version":"13.0b/18.0a"},{"town":"三反田町","koaza":"","lat":35.46573,"lng":139.552445,"version":"13.0b/18.0a"},{"town":"白根一丁目","koaza":"","lat":35.477512,"lng":139.551579,"version":"13.0b/18.0a"},{"town":"川島町","koaza":"","lat":35.467057,"lng":139.548972,"version":"13.0b/18.0a"},{"town":"本宿町","koaza":"","lat":35.465555,"lng":139.542138,"version":"13.0b/18.0a"},{"town":"鶴ケ峰一丁目","koaza":"","lat":35.471312,"lng":139.549205,"version":"13.0b/18.0a"},{"town":"西川島町","koaza":"","lat":35.474429,"lng":139.557269,"version":"13.0b/18.0a"},{"town":"鶴ケ峰二丁目","koaza":"","lat":35.475339,"lng":139.549581,"version":"13.0b/18.0a"},{"town":"さちが丘","koaza":"","lat":35.459023,"lng":139.52676,"version":"13.0b/18.0a"},{"town":"二俣川一丁目","koaza":"","lat":35.464925,"lng":139.528087,"version":"13.0b/18.0a"},{"town":"鶴ケ峰本町一丁目","koaza":"","lat":35.476682,"lng":139.541099,"version":"13.0b/18.0a"},{"town":"四季美台","koaza":"","lat":35.472002,"lng":139.538201,"version":"13.0b/18.0a"},{"town":"今川町","koaza":"","lat":35.475583,"lng":139.534746,"version":"13.0b/18.0a"},{"town":"今宿町","koaza":"","lat":35.471873,"lng":139.513469,"version":"13.0b/18.0a"},{"town":"中尾一丁目","koaza":"","lat":35.466531,"lng":139.521041,"version":"13.0b/18.0a"},{"town":"笹野台二丁目","koaza":"","lat":35.472033,"lng":139.502729,"version":"13.0b/18.0a"},{"town":"今宿南町","koaza":"","lat":35.479752,"lng":139.526317,"version":"13.0b/18.0a"},{"town":"中尾二丁目","koaza":"","lat":35.46901,"lng":139.52174,"version":"13.0b/18.0a"},{"town":"中沢一丁目","koaza":"","lat":35.471316,"lng":139.529404,"version":"13.0b/18.0a"},{"town":"今宿東町","koaza":"","lat":35.482728,"lng":139.536025,"version":"13.0b/18.0a"},{"town":"金が谷","koaza":"","lat":35.479343,"lng":139.514949,"version":"13.0b/18.0a"},{"town":"白根六丁目","koaza":"","lat":35.48545,"lng":139.548293,"version":"13.0b/18.0a"},{"town":"中白根一丁目","koaza":"","lat":35.489214,"lng":139.547032,"version":"13.0b/18.0a"},{"town":"矢指町","koaza":"","lat":35.479315,"lng":139.506208,"version":"13.0b/18.0a"},{"town":"鶴ケ峰本町三丁目","koaza":"","lat":35.480832,"lng":139.540712,"version":"13.0b/18.0a"},{"town":"白根五丁目","koaza":"","lat":35.484768,"lng":139.541965,"version":"13.0b/18.0a"},{"town":"中白根四丁目","koaza":"","lat":35.494757,"lng":139.548254,"version":"13.0b/18.0a"},{"town":"白根町","koaza":"","lat":35.497142,"lng":139.550502,"version":"13.0b/18.0a"},{"town":"下川井町","koaza":"","lat":35.486103,"lng":139.511298,"version":"13.0b/18.0a"},{"town":"今宿西町","koaza":"","lat":35.486142,"lng":139.527107,"version":"13.0b/18.0a"},{"town":"川井本町","koaza":"","lat":35.492884,"lng":139.511492,"version":"13.0b/18.0a"},{"town":"都岡町","koaza":"","lat":35.489971,"lng":139.522059,"version":"13.0b/18.0a"},{"town":"川井宿町","koaza":"","lat":35.495014,"lng":139.519227,"version":"13.0b/18.0a"},{"town":"若葉台三丁目","koaza":"","lat":35.503989,"lng":139.498487,"version":"14.0b/19.0a"},{"town":"上川井町","koaza":"","lat":35.492567,"lng":139.497545,"version":"14.0b/19.0a"},{"town":"上白根町","koaza":"","lat":35.49546,"lng":139.529903,"version":"14.0b/19.0a"},{"town":"若葉台一丁目","koaza":"","lat":35.504496,"lng":139.505145,"version":"14.0b/19.0a"},{"town":"若葉台二丁目","koaza":"","lat":35.505394,"lng":139.501695,"version":"14.0b/19.0a"},{"town":"若葉台四丁目","koaza":"","lat":35.505899,"lng":139.493581,"version":"14.0b/19.0a"},{"town":"鶴ケ峰本町二丁目","koaza":"","lat":35.479222,"lng":139.544312,"version":"14.0b/19.0a"},{"town":"今宿二丁目","koaza":"","lat":35.474205,"lng":139.518199,"version":"14.0b/19.0a"},{"town":"中沢二丁目","koaza":"","lat":35.472473,"lng":139.525386,"version":"14.0b/19.0a"},{"town":"中沢三丁目","koaza":"","lat":35.473023,"lng":139.522164,"version":"14.0b/19.0a"},{"town":"金が谷一丁目","koaza":"","lat":35.473396,"lng":139.511862,"version":"14.0b/19.0a"},{"town":"金が谷二丁目","koaza":"","lat":35.477486,"lng":139.512872,"version":"14.0b/19.0a"},{"town":"笹野台四丁目","koaza":"","lat":35.471274,"lng":139.5092,"version":"14.0b/19.0a"},{"town":"笹野台三丁目","koaza":"","lat":35.474917,"lng":139.506308,"version":"14.0b/19.0a"},{"town":"中白根二丁目","koaza":"","lat":35.490576,"lng":139.543662,"version":"14.0b/19.0a"},{"town":"上白根三丁目","koaza":"","lat":35.496819,"lng":139.539232,"version":"14.0b/19.0a"},{"town":"上白根二丁目","koaza":"","lat":35.49287,"lng":139.539261,"version":"14.0b/19.0a"},{"town":"白根三丁目","koaza":"","lat":35.481181,"lng":139.549285,"version":"14.0b/19.0a"},{"town":"白根七丁目","koaza":"","lat":35.485909,"lng":139.553644,"version":"14.0b/19.0a"},{"town":"白根四丁目","koaza":"","lat":35.481544,"lng":139.546062,"version":"14.0b/19.0a"},{"town":"中白根三丁目","koaza":"","lat":35.496191,"lng":139.544323,"version":"14.0b/19.0a"},{"town":"上白根一丁目","koaza":"","lat":35.488218,"lng":139.539891,"version":"14.0b/19.0a"},{"town":"白根八丁目","koaza":"","lat":35.490209,"lng":139.549864,"version":"14.0b/19.0a"},{"town":"桐が作","koaza":"","lat":35.456469,"lng":139.54733,"version":"14.0b/19.0a"},{"town":"笹野台一丁目","koaza":"","lat":35.470028,"lng":139.505689,"version":"14.0b/19.0a"},{"town":"今宿一丁目","koaza":"","lat":35.477664,"lng":139.520281,"version":"14.0b/19.0a"},{"town":"白根二丁目","koaza":"","lat":35.482321,"lng":139.553223,"version":"14.0b/19.0a"},{"town":"南希望が丘","koaza":"","lat":35.454723,"lng":139.514031,"version":"14.0b/19.0a"},{"town":"大池町","koaza":"","lat":35.448723,"lng":139.538258,"version":"14.0b/19.0a"},{"town":"万騎が原","koaza":"","lat":35.454805,"lng":139.533054,"version":"14.0b/19.0a"},{"town":"南本宿町","koaza":"","lat":35.456282,"lng":139.540553,"version":"14.0b/19.0a"},{"town":"東希望が丘","koaza":"","lat":35.464314,"lng":139.514326,"version":"14.0b/19.0a"},{"town":"二俣川二丁目","koaza":"","lat":35.461251,"lng":139.533833,"version":"14.0b/19.0a"},{"town":"本村町","koaza":"","lat":35.467558,"lng":139.535243,"version":"14.0b/19.0a"},{"town":"柏町","koaza":"","lat":35.451661,"lng":139.525662,"version":"14.0b/19.0a"},{"town":"善部町","koaza":"","lat":35.450133,"lng":139.51464,"version":"14.0b/19.0a"},{"town":"中希望が丘","koaza":"","lat":35.460687,"lng":139.508768,"version":"14.0b/19.0a"},{"town":"左近山","koaza":"","lat":35.460086,"lng":139.551005,"version":"14.0b/19.0a"},{"town":"小高町","koaza":"","lat":35.463727,"lng":139.554346,"version":"14.0b/19.0a"},{"town":"市沢町","koaza":"","lat":35.460429,"lng":139.561811,"version":"14.0b/19.0a"},{"town":"三反田町","koaza":"","lat":35.46573,"lng":139.552445,"version":"14.0b/19.0a"},{"town":"白根一丁目","koaza":"","lat":35.477512,"lng":139.551579,"version":"14.0b/19.0a"},{"town":"川島町","koaza":"","lat":35.467057,"lng":139.548972,"version":"14.0b/19.0a"},{"town":"本宿町","koaza":"","lat":35.465555,"lng":139.542138,"version":"14.0b/19.0a"},{"town":"鶴ケ峰一丁目","koaza":"","lat":35.471312,"lng":139.549205,"version":"14.0b/19.0a"},{"town":"西川島町","koaza":"","lat":35.474429,"lng":139.557269,"version":"14.0b/19.0a"},{"town":"鶴ケ峰二丁目","koaza":"","lat":35.475339,"lng":139.549581,"version":"14.0b/19.0a"},{"town":"さちが丘","koaza":"","lat":35.459023,"lng":139.52676,"version":"14.0b/19.0a"},{"town":"二俣川一丁目","koaza":"","lat":35.464925,"lng":139.528087,"version":"14.0b/19.0a"},{"town":"鶴ケ峰本町一丁目","koaza":"","lat":35.476682,"lng":139.541099,"version":"14.0b/19.0a"},{"town":"四季美台","koaza":"","lat":35.472002,"lng":139.538201,"version":"14.0b/19.0a"},{"town":"今川町","koaza":"","lat":35.475583,"lng":139.534746,"version":"14.0b/19.0a"},{"town":"今宿町","koaza":"","lat":35.471873,"lng":139.513469,"version":"14.0b/19.0a"},{"town":"中尾一丁目","koaza":"","lat":35.466531,"lng":139.521041,"version":"14.0b/19.0a"},{"town":"笹野台二丁目","koaza":"","lat":35.472033,"lng":139.502729,"version":"14.0b/19.0a"},{"town":"今宿南町","koaza":"","lat":35.479752,"lng":139.526317,"version":"14.0b/19.0a"},{"town":"中尾二丁目","koaza":"","lat":35.46901,"lng":139.52174,"version":"14.0b/19.0a"},{"town":"中沢一丁目","koaza":"","lat":35.471316,"lng":139.529404,"version":"14.0b/19.0a"},{"town":"今宿東町","koaza":"","lat":35.482728,"lng":139.536025,"version":"14.0b/19.0a"},{"town":"金が谷","koaza":"","lat":35.479343,"lng":139.514949,"version":"14.0b/19.0a"},{"town":"白根六丁目","koaza":"","lat":35.48545,"lng":139.548293,"version":"14.0b/19.0a"},{"town":"中白根一丁目","koaza":"","lat":35.489214,"lng":139.547032,"version":"14.0b/19.0a"},{"town":"矢指町","koaza":"","lat":35.479315,"lng":139.506208,"version":"14.0b/19.0a"},{"town":"鶴ケ峰本町三丁目","koaza":"","lat":35.480832,"lng":139.540712,"version":"14.0b/19.0a"},{"town":"白根五丁目","koaza":"","lat":35.484768,"lng":139.541965,"version":"14.0b/19.0a"},{"town":"中白根四丁目","koaza":"","lat":35.494757,"lng":139.548254,"version":"14.0b/19.0a"},{"town":"白根町","koaza":"","lat":35.497142,"lng":139.550502,"version":"14.0b/19.0a"},{"town":"下川井町","koaza":"","lat":35.486103,"lng":139.511298,"version":"14.0b/19.0a"},{"town":"今宿西町","koaza":"","lat":35.486142,"lng":139.527107,"version":"14.0b/19.0a"},{"town":"川井本町","koaza":"","lat":35.492884,"lng":139.511492,"version":"14.0b/19.0a"},{"town":"都岡町","koaza":"","lat":35.489971,"lng":139.522059,"version":"14.0b/19.0a"},{"town":"川井宿町","koaza":"","lat":35.495014,"lng":139.519227,"version":"14.0b/19.0a"}]