[{"town":"大野台三丁目","koaza":"","lat":35.55588,"lng":139.397116,"version":"13.0b/18.0a"},{"town":"小山","koaza":"","lat":35.584058,"lng":139.374856,"version":"13.0b/18.0a"},{"town":"上溝","koaza":"","lat":35.552598,"lng":139.366399,"version":"13.0b/18.0a"},{"town":"陽光台四丁目","koaza":"","lat":35.551478,"lng":139.374325,"version":"13.0b/18.0a"},{"town":"陽光台三丁目","koaza":"","lat":35.554161,"lng":139.373199,"version":"13.0b/18.0a"},{"town":"陽光台二丁目","koaza":"","lat":35.556662,"lng":139.372018,"version":"13.0b/18.0a"},{"town":"星が丘三丁目","koaza":"","lat":35.559305,"lng":139.371914,"version":"13.0b/18.0a"},{"town":"星が丘二丁目","koaza":"","lat":35.562266,"lng":139.372253,"version":"13.0b/18.0a"},{"town":"千代田二丁目","koaza":"","lat":35.564997,"lng":139.371893,"version":"13.0b/18.0a"},{"town":"千代田一丁目","koaza":"","lat":35.566672,"lng":139.373378,"version":"13.0b/18.0a"},{"town":"中央六丁目","koaza":"","lat":35.568705,"lng":139.369541,"version":"13.0b/18.0a"},{"town":"中央三丁目","koaza":"","lat":35.570419,"lng":139.371105,"version":"13.0b/18.0a"},{"town":"相模原六丁目","koaza":"","lat":35.574572,"lng":139.373983,"version":"13.0b/18.0a"},{"town":"中央二丁目","koaza":"","lat":35.572364,"lng":139.372375,"version":"13.0b/18.0a"},{"town":"相模原七丁目","koaza":"","lat":35.575895,"lng":139.370022,"version":"13.0b/18.0a"},{"town":"相模原三丁目","koaza":"","lat":35.578658,"lng":139.37096,"version":"13.0b/18.0a"},{"town":"相模原四丁目","koaza":"","lat":35.578792,"lng":139.37438,"version":"13.0b/18.0a"},{"town":"上矢部","koaza":"","lat":35.58271,"lng":139.385985,"version":"13.0b/18.0a"},{"town":"上矢部一丁目","koaza":"","lat":35.586826,"lng":139.38765,"version":"13.0b/18.0a"},{"town":"小山四丁目","koaza":"","lat":35.586959,"lng":139.354091,"version":"13.0b/18.0a"},{"town":"向陽町","koaza":"","lat":35.585595,"lng":139.36598,"version":"13.0b/18.0a"},{"town":"宮下一丁目","koaza":"","lat":35.588323,"lng":139.361666,"version":"13.0b/18.0a"},{"town":"すすきの町","koaza":"","lat":35.588963,"lng":139.368458,"version":"13.0b/18.0a"},{"town":"小山一丁目","koaza":"","lat":35.585798,"lng":139.360497,"version":"13.0b/18.0a"},{"town":"小山三丁目","koaza":"","lat":35.584548,"lng":139.356406,"version":"13.0b/18.0a"},{"town":"下九沢","koaza":"","lat":35.576253,"lng":139.34462,"version":"13.0b/18.0a"},{"town":"矢部新町","koaza":"","lat":35.574947,"lng":139.386259,"version":"13.0b/18.0a"},{"town":"陽光台七丁目","koaza":"","lat":35.544427,"lng":139.379361,"version":"13.0b/18.0a"},{"town":"東淵野辺三丁目","koaza":"","lat":35.56015,"lng":139.414446,"version":"13.0b/18.0a"},{"town":"東淵野辺二丁目","koaza":"","lat":35.563981,"lng":139.413986,"version":"13.0b/18.0a"},{"town":"東淵野辺一丁目","koaza":"","lat":35.562715,"lng":139.409596,"version":"13.0b/18.0a"},{"town":"東淵野辺四丁目","koaza":"","lat":35.557492,"lng":139.412103,"version":"13.0b/18.0a"},{"town":"由野台二丁目","koaza":"","lat":35.558439,"lng":139.399944,"version":"13.0b/18.0a"},{"town":"東淵野辺五丁目","koaza":"","lat":35.559529,"lng":139.406455,"version":"13.0b/18.0a"},{"town":"共和三丁目","koaza":"","lat":35.561534,"lng":139.400339,"version":"13.0b/18.0a"},{"town":"淵野辺五丁目","koaza":"","lat":35.566565,"lng":139.402432,"version":"13.0b/18.0a"},{"town":"青葉三丁目","koaza":"","lat":35.549034,"lng":139.390788,"version":"13.0b/18.0a"},{"town":"松が丘二丁目","koaza":"","lat":35.552372,"lng":139.394786,"version":"13.0b/18.0a"},{"town":"由野台三丁目","koaza":"","lat":35.557752,"lng":139.395618,"version":"13.0b/18.0a"},{"town":"青葉一丁目","koaza":"","lat":35.552539,"lng":139.386678,"version":"13.0b/18.0a"},{"town":"陽光台五丁目","koaza":"","lat":35.549309,"lng":139.375822,"version":"13.0b/18.0a"},{"town":"由野台一丁目","koaza":"","lat":35.559948,"lng":139.397752,"version":"13.0b/18.0a"},{"town":"共和二丁目","koaza":"","lat":35.562605,"lng":139.404059,"version":"13.0b/18.0a"},{"town":"高根一丁目","koaza":"","lat":35.562177,"lng":139.394498,"version":"13.0b/18.0a"},{"town":"高根三丁目","koaza":"","lat":35.560183,"lng":139.392653,"version":"13.0b/18.0a"},{"town":"緑が丘一丁目","koaza":"","lat":35.547469,"lng":139.382254,"version":"13.0b/18.0a"},{"town":"高根二丁目","koaza":"","lat":35.561956,"lng":139.390304,"version":"13.0b/18.0a"},{"town":"弥栄一丁目","koaza":"","lat":35.560366,"lng":139.387469,"version":"13.0b/18.0a"},{"town":"青葉二丁目","koaza":"","lat":35.55069,"lng":139.389072,"version":"13.0b/18.0a"},{"town":"並木三丁目","koaza":"","lat":35.555594,"lng":139.384717,"version":"13.0b/18.0a"},{"town":"弥栄三丁目","koaza":"","lat":35.55602,"lng":139.39028,"version":"13.0b/18.0a"},{"town":"陽光台六丁目","koaza":"","lat":35.547455,"lng":139.377411,"version":"13.0b/18.0a"},{"town":"光が丘三丁目","koaza":"","lat":35.552171,"lng":139.379898,"version":"13.0b/18.0a"},{"town":"緑が丘二丁目","koaza":"","lat":35.549678,"lng":139.385201,"version":"13.0b/18.0a"},{"town":"並木四丁目","koaza":"","lat":35.554165,"lng":139.382525,"version":"13.0b/18.0a"},{"town":"松が丘一丁目","koaza":"","lat":35.553279,"lng":139.393209,"version":"13.0b/18.0a"},{"town":"並木一丁目","koaza":"","lat":35.559053,"lng":139.381526,"version":"13.0b/18.0a"},{"town":"相生一丁目","koaza":"","lat":35.5652,"lng":139.386963,"version":"13.0b/18.0a"},{"town":"並木二丁目","koaza":"","lat":35.557274,"lng":139.381782,"version":"13.0b/18.0a"},{"town":"弥栄二丁目","koaza":"","lat":35.559215,"lng":139.385674,"version":"13.0b/18.0a"},{"town":"相生四丁目","koaza":"","lat":35.564022,"lng":139.383528,"version":"13.0b/18.0a"},{"town":"相生三丁目","koaza":"","lat":35.561999,"lng":139.384998,"version":"13.0b/18.0a"},{"town":"相生二丁目","koaza":"","lat":35.563706,"lng":139.388882,"version":"13.0b/18.0a"},{"town":"千代田七丁目","koaza":"","lat":35.561003,"lng":139.380482,"version":"13.0b/18.0a"},{"town":"千代田六丁目","koaza":"","lat":35.559963,"lng":139.376516,"version":"13.0b/18.0a"},{"town":"千代田五丁目","koaza":"","lat":35.562157,"lng":139.375858,"version":"13.0b/18.0a"},{"town":"千代田四丁目","koaza":"","lat":35.563023,"lng":139.379269,"version":"13.0b/18.0a"},{"town":"光が丘一丁目","koaza":"","lat":35.557928,"lng":139.377179,"version":"13.0b/18.0a"},{"town":"光が丘二丁目","koaza":"","lat":35.555214,"lng":139.378123,"version":"13.0b/18.0a"},{"town":"淵野辺本町五丁目","koaza":"","lat":35.569293,"lng":139.410378,"version":"13.0b/18.0a"},{"town":"共和四丁目","koaza":"","lat":35.563886,"lng":139.395307,"version":"13.0b/18.0a"},{"town":"共和一丁目","koaza":"","lat":35.564814,"lng":139.399304,"version":"13.0b/18.0a"},{"town":"鹿沼台二丁目","koaza":"","lat":35.566573,"lng":139.3913,"version":"13.0b/18.0a"},{"town":"鹿沼台一丁目","koaza":"","lat":35.568476,"lng":139.393205,"version":"13.0b/18.0a"},{"town":"淵野辺本町二丁目","koaza":"","lat":35.573268,"lng":139.402387,"version":"13.0b/18.0a"},{"town":"淵野辺三丁目","koaza":"","lat":35.570728,"lng":139.393387,"version":"13.0b/18.0a"},{"town":"淵野辺本町四丁目","koaza":"","lat":35.567184,"lng":139.407447,"version":"13.0b/18.0a"},{"town":"淵野辺本町三丁目","koaza":"","lat":35.572001,"lng":139.406199,"version":"13.0b/18.0a"},{"town":"上矢部五丁目","koaza":"","lat":35.583007,"lng":139.396334,"version":"13.0b/18.0a"},{"town":"上矢部三丁目","koaza":"","lat":35.582314,"lng":139.391514,"version":"13.0b/18.0a"},{"town":"上矢部二丁目","koaza":"","lat":35.584777,"lng":139.391636,"version":"13.0b/18.0a"},{"town":"矢部三丁目","koaza":"","lat":35.571009,"lng":139.385643,"version":"13.0b/18.0a"},{"town":"矢部二丁目","koaza":"","lat":35.572225,"lng":139.382004,"version":"13.0b/18.0a"},{"town":"富士見四丁目","koaza":"","lat":35.565398,"lng":139.381025,"version":"13.0b/18.0a"},{"town":"富士見三丁目","koaza":"","lat":35.567012,"lng":139.384018,"version":"13.0b/18.0a"},{"town":"矢部四丁目","koaza":"","lat":35.569346,"lng":139.387699,"version":"13.0b/18.0a"},{"town":"淵野辺本町一丁目","koaza":"","lat":35.577879,"lng":139.400113,"version":"13.0b/18.0a"},{"town":"富士見二丁目","koaza":"","lat":35.56882,"lng":139.379672,"version":"13.0b/18.0a"},{"town":"淵野辺四丁目","koaza":"","lat":35.570645,"lng":139.398807,"version":"13.0b/18.0a"},{"town":"淵野辺二丁目","koaza":"","lat":35.576834,"lng":139.395457,"version":"13.0b/18.0a"},{"town":"富士見六丁目","koaza":"","lat":35.568505,"lng":139.374673,"version":"13.0b/18.0a"},{"town":"富士見五丁目","koaza":"","lat":35.566723,"lng":139.378275,"version":"13.0b/18.0a"},{"town":"富士見一丁目","koaza":"","lat":35.570513,"lng":139.376104,"version":"13.0b/18.0a"},{"town":"千代田三丁目","koaza":"","lat":35.564087,"lng":139.375986,"version":"13.0b/18.0a"},{"town":"淵野辺一丁目","koaza":"","lat":35.57559,"lng":139.389859,"version":"13.0b/18.0a"},{"town":"上矢部四丁目","koaza":"","lat":35.581695,"lng":139.394557,"version":"13.0b/18.0a"},{"town":"矢部一丁目","koaza":"","lat":35.574057,"lng":139.378542,"version":"13.0b/18.0a"},{"town":"矢部新田","koaza":"","lat":35.576644,"lng":139.38294,"version":"13.0b/18.0a"},{"town":"相模原五丁目","koaza":"","lat":35.577553,"lng":139.373993,"version":"13.0b/18.0a"},{"town":"水郷田名二丁目","koaza":"","lat":35.54468,"lng":139.329422,"version":"13.0b/18.0a"},{"town":"水郷田名一丁目","koaza":"","lat":35.548271,"lng":139.327925,"version":"13.0b/18.0a"},{"town":"水郷田名四丁目","koaza":"","lat":35.543007,"lng":139.333574,"version":"13.0b/18.0a"},{"town":"水郷田名三丁目","koaza":"","lat":35.5458,"lng":139.332412,"version":"13.0b/18.0a"},{"town":"田名塩田三丁目","koaza":"","lat":35.531903,"lng":139.353823,"version":"13.0b/18.0a"},{"town":"田名塩田二丁目","koaza":"","lat":35.534707,"lng":139.355809,"version":"13.0b/18.0a"},{"town":"田名塩田四丁目","koaza":"","lat":35.536497,"lng":139.353241,"version":"13.0b/18.0a"},{"town":"田名塩田一丁目","koaza":"","lat":35.537711,"lng":139.359221,"version":"13.0b/18.0a"},{"town":"陽光台一丁目","koaza":"","lat":35.555541,"lng":139.36799,"version":"13.0b/18.0a"},{"town":"星が丘四丁目","koaza":"","lat":35.559854,"lng":139.367607,"version":"13.0b/18.0a"},{"town":"横山六丁目","koaza":"","lat":35.560882,"lng":139.365604,"version":"13.0b/18.0a"},{"town":"上溝六丁目","koaza":"","lat":35.554849,"lng":139.35687,"version":"13.0b/18.0a"},{"town":"上溝四丁目","koaza":"","lat":35.560851,"lng":139.355883,"version":"13.0b/18.0a"},{"town":"上溝三丁目","koaza":"","lat":35.55871,"lng":139.353332,"version":"13.0b/18.0a"},{"town":"横山五丁目","koaza":"","lat":35.56126,"lng":139.362052,"version":"13.0b/18.0a"},{"town":"星が丘一丁目","koaza":"","lat":35.562512,"lng":139.369679,"version":"13.0b/18.0a"},{"town":"中央四丁目","koaza":"","lat":35.572447,"lng":139.367098,"version":"13.0b/18.0a"},{"town":"横山三丁目","koaza":"","lat":35.564504,"lng":139.365822,"version":"13.0b/18.0a"},{"town":"横山二丁目","koaza":"","lat":35.567118,"lng":139.368374,"version":"13.0b/18.0a"},{"town":"中央一丁目","koaza":"","lat":35.574247,"lng":139.368488,"version":"13.0b/18.0a"},{"town":"相模原一丁目","koaza":"","lat":35.582013,"lng":139.367811,"version":"13.0b/18.0a"},{"town":"中央五丁目","koaza":"","lat":35.570691,"lng":139.365736,"version":"13.0b/18.0a"},{"town":"横山一丁目","koaza":"","lat":35.568898,"lng":139.364336,"version":"13.0b/18.0a"},{"town":"清新七丁目","koaza":"","lat":35.574701,"lng":139.363092,"version":"13.0b/18.0a"},{"town":"清新三丁目","koaza":"","lat":35.576691,"lng":139.363513,"version":"13.0b/18.0a"},{"town":"横山台二丁目","koaza":"","lat":35.564921,"lng":139.357597,"version":"13.0b/18.0a"},{"town":"相模原八丁目","koaza":"","lat":35.577934,"lng":139.365523,"version":"13.0b/18.0a"},{"town":"相模原二丁目","koaza":"","lat":35.579386,"lng":139.367703,"version":"13.0b/18.0a"},{"town":"清新二丁目","koaza":"","lat":35.580202,"lng":139.362942,"version":"13.0b/18.0a"},{"town":"清新一丁目","koaza":"","lat":35.580929,"lng":139.365416,"version":"13.0b/18.0a"},{"town":"氷川町","koaza":"","lat":35.583375,"lng":139.364523,"version":"13.0b/18.0a"},{"town":"南橋本四丁目","koaza":"","lat":35.573592,"lng":139.351918,"version":"13.0b/18.0a"},{"town":"南橋本一丁目","koaza":"","lat":35.579915,"lng":139.35364,"version":"13.0b/18.0a"},{"town":"小山二丁目","koaza":"","lat":35.584022,"lng":139.358945,"version":"13.0b/18.0a"},{"town":"小町通二丁目","koaza":"","lat":35.571692,"lng":139.356705,"version":"13.0b/18.0a"},{"town":"小町通一丁目","koaza":"","lat":35.571053,"lng":139.360244,"version":"13.0b/18.0a"},{"town":"横山台一丁目","koaza":"","lat":35.568566,"lng":139.356682,"version":"13.0b/18.0a"},{"town":"横山四丁目","koaza":"","lat":35.566435,"lng":139.362657,"version":"13.0b/18.0a"},{"town":"清新八丁目","koaza":"","lat":35.573604,"lng":139.358439,"version":"13.0b/18.0a"},{"town":"清新六丁目","koaza":"","lat":35.577002,"lng":139.3575,"version":"13.0b/18.0a"},{"town":"南橋本三丁目","koaza":"","lat":35.58106,"lng":139.3485,"version":"13.0b/18.0a"},{"town":"南橋本二丁目","koaza":"","lat":35.582146,"lng":139.351016,"version":"13.0b/18.0a"},{"town":"清新五丁目","koaza":"","lat":35.579761,"lng":139.357441,"version":"13.0b/18.0a"},{"town":"清新四丁目","koaza":"","lat":35.580873,"lng":139.359768,"version":"13.0b/18.0a"},{"town":"上溝二丁目","koaza":"","lat":35.562608,"lng":139.350852,"version":"13.0b/18.0a"},{"town":"上溝一丁目","koaza":"","lat":35.563957,"lng":139.352836,"version":"13.0b/18.0a"},{"town":"田名","koaza":"","lat":35.550772,"lng":139.341756,"version":"13.0b/18.0a"},{"town":"上溝五丁目","koaza":"","lat":35.55921,"lng":139.359604,"version":"13.0b/18.0a"},{"town":"上溝七丁目","koaza":"","lat":35.554181,"lng":139.361035,"version":"13.0b/18.0a"},{"town":"宮下本町一丁目","koaza":"","lat":35.591081,"lng":139.375535,"version":"13.0b/18.0a"},{"town":"宮下二丁目","koaza":"","lat":35.591077,"lng":139.365483,"version":"13.0b/18.0a"},{"town":"宮下三丁目","koaza":"","lat":35.592384,"lng":139.360499,"version":"13.0b/18.0a"},{"town":"宮下本町二丁目","koaza":"","lat":35.593204,"lng":139.36967,"version":"13.0b/18.0a"},{"town":"宮下本町三丁目","koaza":"","lat":35.596127,"lng":139.364052,"version":"13.0b/18.0a"},{"town":"大野台三丁目","koaza":"","lat":35.55588,"lng":139.397116,"version":"14.0b/19.0a"},{"town":"小山","koaza":"","lat":35.584058,"lng":139.374856,"version":"14.0b/19.0a"},{"town":"上溝","koaza":"","lat":35.552598,"lng":139.366399,"version":"14.0b/19.0a"},{"town":"陽光台四丁目","koaza":"","lat":35.551478,"lng":139.374325,"version":"14.0b/19.0a"},{"town":"陽光台三丁目","koaza":"","lat":35.554161,"lng":139.373199,"version":"14.0b/19.0a"},{"town":"陽光台二丁目","koaza":"","lat":35.556662,"lng":139.372018,"version":"14.0b/19.0a"},{"town":"星が丘三丁目","koaza":"","lat":35.559305,"lng":139.371914,"version":"14.0b/19.0a"},{"town":"星が丘二丁目","koaza":"","lat":35.562266,"lng":139.372253,"version":"14.0b/19.0a"},{"town":"千代田二丁目","koaza":"","lat":35.564997,"lng":139.371893,"version":"14.0b/19.0a"},{"town":"千代田一丁目","koaza":"","lat":35.566672,"lng":139.373378,"version":"14.0b/19.0a"},{"town":"中央六丁目","koaza":"","lat":35.568705,"lng":139.369541,"version":"14.0b/19.0a"},{"town":"中央三丁目","koaza":"","lat":35.570419,"lng":139.371105,"version":"14.0b/19.0a"},{"town":"相模原六丁目","koaza":"","lat":35.574572,"lng":139.373983,"version":"14.0b/19.0a"},{"town":"中央二丁目","koaza":"","lat":35.572364,"lng":139.372375,"version":"14.0b/19.0a"},{"town":"相模原七丁目","koaza":"","lat":35.575895,"lng":139.370022,"version":"14.0b/19.0a"},{"town":"相模原三丁目","koaza":"","lat":35.578658,"lng":139.37096,"version":"14.0b/19.0a"},{"town":"相模原四丁目","koaza":"","lat":35.578792,"lng":139.37438,"version":"14.0b/19.0a"},{"town":"上矢部","koaza":"","lat":35.58271,"lng":139.385985,"version":"14.0b/19.0a"},{"town":"上矢部一丁目","koaza":"","lat":35.586826,"lng":139.38765,"version":"14.0b/19.0a"},{"town":"小山四丁目","koaza":"","lat":35.586959,"lng":139.354091,"version":"14.0b/19.0a"},{"town":"向陽町","koaza":"","lat":35.585595,"lng":139.36598,"version":"14.0b/19.0a"},{"town":"宮下一丁目","koaza":"","lat":35.588323,"lng":139.361666,"version":"14.0b/19.0a"},{"town":"すすきの町","koaza":"","lat":35.588963,"lng":139.368458,"version":"14.0b/19.0a"},{"town":"小山一丁目","koaza":"","lat":35.585798,"lng":139.360497,"version":"14.0b/19.0a"},{"town":"小山三丁目","koaza":"","lat":35.584548,"lng":139.356406,"version":"14.0b/19.0a"},{"town":"下九沢","koaza":"","lat":35.576253,"lng":139.34462,"version":"14.0b/19.0a"},{"town":"矢部新町","koaza":"","lat":35.574947,"lng":139.386259,"version":"14.0b/19.0a"},{"town":"陽光台七丁目","koaza":"","lat":35.544427,"lng":139.379361,"version":"14.0b/19.0a"},{"town":"東淵野辺三丁目","koaza":"","lat":35.56015,"lng":139.414446,"version":"14.0b/19.0a"},{"town":"東淵野辺二丁目","koaza":"","lat":35.563981,"lng":139.413986,"version":"14.0b/19.0a"},{"town":"東淵野辺一丁目","koaza":"","lat":35.562715,"lng":139.409596,"version":"14.0b/19.0a"},{"town":"東淵野辺四丁目","koaza":"","lat":35.557492,"lng":139.412103,"version":"14.0b/19.0a"},{"town":"由野台二丁目","koaza":"","lat":35.558439,"lng":139.399944,"version":"14.0b/19.0a"},{"town":"東淵野辺五丁目","koaza":"","lat":35.559529,"lng":139.406455,"version":"14.0b/19.0a"},{"town":"共和三丁目","koaza":"","lat":35.561534,"lng":139.400339,"version":"14.0b/19.0a"},{"town":"淵野辺五丁目","koaza":"","lat":35.566565,"lng":139.402432,"version":"14.0b/19.0a"},{"town":"青葉三丁目","koaza":"","lat":35.549034,"lng":139.390788,"version":"14.0b/19.0a"},{"town":"松が丘二丁目","koaza":"","lat":35.552372,"lng":139.394786,"version":"14.0b/19.0a"},{"town":"由野台三丁目","koaza":"","lat":35.557752,"lng":139.395618,"version":"14.0b/19.0a"},{"town":"青葉一丁目","koaza":"","lat":35.552539,"lng":139.386678,"version":"14.0b/19.0a"},{"town":"陽光台五丁目","koaza":"","lat":35.549309,"lng":139.375822,"version":"14.0b/19.0a"},{"town":"由野台一丁目","koaza":"","lat":35.559948,"lng":139.397752,"version":"14.0b/19.0a"},{"town":"共和二丁目","koaza":"","lat":35.562605,"lng":139.404059,"version":"14.0b/19.0a"},{"town":"高根一丁目","koaza":"","lat":35.562177,"lng":139.394498,"version":"14.0b/19.0a"},{"town":"高根三丁目","koaza":"","lat":35.560183,"lng":139.392653,"version":"14.0b/19.0a"},{"town":"緑が丘一丁目","koaza":"","lat":35.547469,"lng":139.382254,"version":"14.0b/19.0a"},{"town":"高根二丁目","koaza":"","lat":35.561956,"lng":139.390304,"version":"14.0b/19.0a"},{"town":"弥栄一丁目","koaza":"","lat":35.560366,"lng":139.387469,"version":"14.0b/19.0a"},{"town":"青葉二丁目","koaza":"","lat":35.55069,"lng":139.389072,"version":"14.0b/19.0a"},{"town":"並木三丁目","koaza":"","lat":35.555594,"lng":139.384717,"version":"14.0b/19.0a"},{"town":"弥栄三丁目","koaza":"","lat":35.55602,"lng":139.39028,"version":"14.0b/19.0a"},{"town":"陽光台六丁目","koaza":"","lat":35.547455,"lng":139.377411,"version":"14.0b/19.0a"},{"town":"光が丘三丁目","koaza":"","lat":35.552171,"lng":139.379898,"version":"14.0b/19.0a"},{"town":"緑が丘二丁目","koaza":"","lat":35.549678,"lng":139.385201,"version":"14.0b/19.0a"},{"town":"並木四丁目","koaza":"","lat":35.554165,"lng":139.382525,"version":"14.0b/19.0a"},{"town":"松が丘一丁目","koaza":"","lat":35.553279,"lng":139.393209,"version":"14.0b/19.0a"},{"town":"並木一丁目","koaza":"","lat":35.559053,"lng":139.381526,"version":"14.0b/19.0a"},{"town":"相生一丁目","koaza":"","lat":35.5652,"lng":139.386963,"version":"14.0b/19.0a"},{"town":"並木二丁目","koaza":"","lat":35.557274,"lng":139.381782,"version":"14.0b/19.0a"},{"town":"弥栄二丁目","koaza":"","lat":35.559215,"lng":139.385674,"version":"14.0b/19.0a"},{"town":"相生四丁目","koaza":"","lat":35.564022,"lng":139.383528,"version":"14.0b/19.0a"},{"town":"相生三丁目","koaza":"","lat":35.561999,"lng":139.384998,"version":"14.0b/19.0a"},{"town":"相生二丁目","koaza":"","lat":35.563706,"lng":139.388882,"version":"14.0b/19.0a"},{"town":"千代田七丁目","koaza":"","lat":35.561003,"lng":139.380482,"version":"14.0b/19.0a"},{"town":"千代田六丁目","koaza":"","lat":35.559963,"lng":139.376516,"version":"14.0b/19.0a"},{"town":"千代田五丁目","koaza":"","lat":35.562157,"lng":139.375858,"version":"14.0b/19.0a"},{"town":"千代田四丁目","koaza":"","lat":35.563023,"lng":139.379269,"version":"14.0b/19.0a"},{"town":"光が丘一丁目","koaza":"","lat":35.557928,"lng":139.377179,"version":"14.0b/19.0a"},{"town":"光が丘二丁目","koaza":"","lat":35.555214,"lng":139.378123,"version":"14.0b/19.0a"},{"town":"淵野辺本町五丁目","koaza":"","lat":35.569293,"lng":139.410378,"version":"14.0b/19.0a"},{"town":"共和四丁目","koaza":"","lat":35.563886,"lng":139.395307,"version":"14.0b/19.0a"},{"town":"共和一丁目","koaza":"","lat":35.564814,"lng":139.399304,"version":"14.0b/19.0a"},{"town":"鹿沼台二丁目","koaza":"","lat":35.566573,"lng":139.3913,"version":"14.0b/19.0a"},{"town":"鹿沼台一丁目","koaza":"","lat":35.568476,"lng":139.393205,"version":"14.0b/19.0a"},{"town":"淵野辺本町二丁目","koaza":"","lat":35.573268,"lng":139.402387,"version":"14.0b/19.0a"},{"town":"淵野辺三丁目","koaza":"","lat":35.570728,"lng":139.393387,"version":"14.0b/19.0a"},{"town":"淵野辺本町四丁目","koaza":"","lat":35.567184,"lng":139.407447,"version":"14.0b/19.0a"},{"town":"淵野辺本町三丁目","koaza":"","lat":35.572001,"lng":139.406199,"version":"14.0b/19.0a"},{"town":"上矢部五丁目","koaza":"","lat":35.583007,"lng":139.396334,"version":"14.0b/19.0a"},{"town":"上矢部三丁目","koaza":"","lat":35.582314,"lng":139.391514,"version":"14.0b/19.0a"},{"town":"上矢部二丁目","koaza":"","lat":35.584777,"lng":139.391636,"version":"14.0b/19.0a"},{"town":"矢部三丁目","koaza":"","lat":35.571009,"lng":139.385643,"version":"14.0b/19.0a"},{"town":"矢部二丁目","koaza":"","lat":35.572225,"lng":139.382004,"version":"14.0b/19.0a"},{"town":"富士見四丁目","koaza":"","lat":35.565398,"lng":139.381025,"version":"14.0b/19.0a"},{"town":"富士見三丁目","koaza":"","lat":35.567012,"lng":139.384018,"version":"14.0b/19.0a"},{"town":"矢部四丁目","koaza":"","lat":35.569346,"lng":139.387699,"version":"14.0b/19.0a"},{"town":"淵野辺本町一丁目","koaza":"","lat":35.577879,"lng":139.400113,"version":"14.0b/19.0a"},{"town":"富士見二丁目","koaza":"","lat":35.56882,"lng":139.379672,"version":"14.0b/19.0a"},{"town":"淵野辺四丁目","koaza":"","lat":35.570645,"lng":139.398807,"version":"14.0b/19.0a"},{"town":"淵野辺二丁目","koaza":"","lat":35.576834,"lng":139.395457,"version":"14.0b/19.0a"},{"town":"富士見六丁目","koaza":"","lat":35.568505,"lng":139.374673,"version":"14.0b/19.0a"},{"town":"富士見五丁目","koaza":"","lat":35.566723,"lng":139.378275,"version":"14.0b/19.0a"},{"town":"富士見一丁目","koaza":"","lat":35.570513,"lng":139.376104,"version":"14.0b/19.0a"},{"town":"千代田三丁目","koaza":"","lat":35.564087,"lng":139.375986,"version":"14.0b/19.0a"},{"town":"淵野辺一丁目","koaza":"","lat":35.57559,"lng":139.389859,"version":"14.0b/19.0a"},{"town":"上矢部四丁目","koaza":"","lat":35.581695,"lng":139.394557,"version":"14.0b/19.0a"},{"town":"矢部一丁目","koaza":"","lat":35.574057,"lng":139.378542,"version":"14.0b/19.0a"},{"town":"矢部新田","koaza":"","lat":35.576644,"lng":139.38294,"version":"14.0b/19.0a"},{"town":"相模原五丁目","koaza":"","lat":35.577553,"lng":139.373993,"version":"14.0b/19.0a"},{"town":"水郷田名二丁目","koaza":"","lat":35.54468,"lng":139.329422,"version":"14.0b/19.0a"},{"town":"水郷田名一丁目","koaza":"","lat":35.548271,"lng":139.327925,"version":"14.0b/19.0a"},{"town":"水郷田名四丁目","koaza":"","lat":35.543007,"lng":139.333574,"version":"14.0b/19.0a"},{"town":"水郷田名三丁目","koaza":"","lat":35.5458,"lng":139.332412,"version":"14.0b/19.0a"},{"town":"田名塩田三丁目","koaza":"","lat":35.531903,"lng":139.353823,"version":"14.0b/19.0a"},{"town":"田名塩田二丁目","koaza":"","lat":35.534707,"lng":139.355809,"version":"14.0b/19.0a"},{"town":"田名塩田四丁目","koaza":"","lat":35.536497,"lng":139.353241,"version":"14.0b/19.0a"},{"town":"田名塩田一丁目","koaza":"","lat":35.537711,"lng":139.359221,"version":"14.0b/19.0a"},{"town":"陽光台一丁目","koaza":"","lat":35.555541,"lng":139.36799,"version":"14.0b/19.0a"},{"town":"星が丘四丁目","koaza":"","lat":35.559854,"lng":139.367607,"version":"14.0b/19.0a"},{"town":"横山六丁目","koaza":"","lat":35.560882,"lng":139.365604,"version":"14.0b/19.0a"},{"town":"上溝六丁目","koaza":"","lat":35.554849,"lng":139.35687,"version":"14.0b/19.0a"},{"town":"上溝四丁目","koaza":"","lat":35.560851,"lng":139.355883,"version":"14.0b/19.0a"},{"town":"上溝三丁目","koaza":"","lat":35.55871,"lng":139.353332,"version":"14.0b/19.0a"},{"town":"横山五丁目","koaza":"","lat":35.56126,"lng":139.362052,"version":"14.0b/19.0a"},{"town":"星が丘一丁目","koaza":"","lat":35.562512,"lng":139.369679,"version":"14.0b/19.0a"},{"town":"中央四丁目","koaza":"","lat":35.572447,"lng":139.367098,"version":"14.0b/19.0a"},{"town":"横山三丁目","koaza":"","lat":35.564504,"lng":139.365822,"version":"14.0b/19.0a"},{"town":"横山二丁目","koaza":"","lat":35.567118,"lng":139.368374,"version":"14.0b/19.0a"},{"town":"中央一丁目","koaza":"","lat":35.574247,"lng":139.368488,"version":"14.0b/19.0a"},{"town":"相模原一丁目","koaza":"","lat":35.582013,"lng":139.367811,"version":"14.0b/19.0a"},{"town":"中央五丁目","koaza":"","lat":35.570691,"lng":139.365736,"version":"14.0b/19.0a"},{"town":"横山一丁目","koaza":"","lat":35.568898,"lng":139.364336,"version":"14.0b/19.0a"},{"town":"清新七丁目","koaza":"","lat":35.574701,"lng":139.363092,"version":"14.0b/19.0a"},{"town":"清新三丁目","koaza":"","lat":35.576691,"lng":139.363513,"version":"14.0b/19.0a"},{"town":"横山台二丁目","koaza":"","lat":35.564921,"lng":139.357597,"version":"14.0b/19.0a"},{"town":"相模原八丁目","koaza":"","lat":35.577934,"lng":139.365523,"version":"14.0b/19.0a"},{"town":"相模原二丁目","koaza":"","lat":35.579386,"lng":139.367703,"version":"14.0b/19.0a"},{"town":"清新二丁目","koaza":"","lat":35.580202,"lng":139.362942,"version":"14.0b/19.0a"},{"town":"清新一丁目","koaza":"","lat":35.580929,"lng":139.365416,"version":"14.0b/19.0a"},{"town":"氷川町","koaza":"","lat":35.583375,"lng":139.364523,"version":"14.0b/19.0a"},{"town":"南橋本四丁目","koaza":"","lat":35.573592,"lng":139.351918,"version":"14.0b/19.0a"},{"town":"南橋本一丁目","koaza":"","lat":35.579915,"lng":139.35364,"version":"14.0b/19.0a"},{"town":"小山二丁目","koaza":"","lat":35.584022,"lng":139.358945,"version":"14.0b/19.0a"},{"town":"小町通二丁目","koaza":"","lat":35.571692,"lng":139.356705,"version":"14.0b/19.0a"},{"town":"小町通一丁目","koaza":"","lat":35.571053,"lng":139.360244,"version":"14.0b/19.0a"},{"town":"横山台一丁目","koaza":"","lat":35.568566,"lng":139.356682,"version":"14.0b/19.0a"},{"town":"横山四丁目","koaza":"","lat":35.566435,"lng":139.362657,"version":"14.0b/19.0a"},{"town":"清新八丁目","koaza":"","lat":35.573604,"lng":139.358439,"version":"14.0b/19.0a"},{"town":"清新六丁目","koaza":"","lat":35.577002,"lng":139.3575,"version":"14.0b/19.0a"},{"town":"南橋本三丁目","koaza":"","lat":35.58106,"lng":139.3485,"version":"14.0b/19.0a"},{"town":"南橋本二丁目","koaza":"","lat":35.582146,"lng":139.351016,"version":"14.0b/19.0a"},{"town":"清新五丁目","koaza":"","lat":35.579761,"lng":139.357441,"version":"14.0b/19.0a"},{"town":"清新四丁目","koaza":"","lat":35.580873,"lng":139.359768,"version":"14.0b/19.0a"},{"town":"上溝二丁目","koaza":"","lat":35.562608,"lng":139.350852,"version":"14.0b/19.0a"},{"town":"上溝一丁目","koaza":"","lat":35.563957,"lng":139.352836,"version":"14.0b/19.0a"},{"town":"田名","koaza":"","lat":35.550772,"lng":139.341756,"version":"14.0b/19.0a"},{"town":"上溝五丁目","koaza":"","lat":35.55921,"lng":139.359604,"version":"14.0b/19.0a"},{"town":"上溝七丁目","koaza":"","lat":35.554181,"lng":139.361035,"version":"14.0b/19.0a"},{"town":"宮下本町一丁目","koaza":"","lat":35.591081,"lng":139.375535,"version":"14.0b/19.0a"},{"town":"宮下二丁目","koaza":"","lat":35.591077,"lng":139.365483,"version":"14.0b/19.0a"},{"town":"宮下三丁目","koaza":"","lat":35.592384,"lng":139.360499,"version":"14.0b/19.0a"},{"town":"宮下本町二丁目","koaza":"","lat":35.593204,"lng":139.36967,"version":"14.0b/19.0a"},{"town":"宮下本町三丁目","koaza":"","lat":35.596127,"lng":139.364052,"version":"14.0b/19.0a"}]