[{"town":"青井谷","koaza":"","lat":36.676826,"lng":137.066661,"version":"13.0b/18.0a"},{"town":"あおば台一丁目","koaza":"","lat":36.718116,"lng":137.052174,"version":"13.0b/18.0a"},{"town":"あおば台二丁目","koaza":"","lat":36.717888,"lng":137.051587,"version":"13.0b/18.0a"},{"town":"赤井","koaza":"","lat":36.727352,"lng":137.068045,"version":"13.0b/18.0a"},{"town":"足洗新町一丁目","koaza":"","lat":36.758652,"lng":137.167643,"version":"13.0b/18.0a"},{"town":"荒町","koaza":"","lat":36.696008,"lng":137.049148,"version":"13.0b/18.0a"},{"town":"有磯一丁目","koaza":"","lat":36.762533,"lng":137.14247,"version":"13.0b/18.0a"},{"town":"有磯二丁目","koaza":"","lat":36.759086,"lng":137.149903,"version":"13.0b/18.0a"},{"town":"池多","koaza":"","lat":36.690105,"lng":137.103865,"version":"13.0b/18.0a"},{"town":"一条","koaza":"","lat":36.713093,"lng":137.088193,"version":"13.0b/18.0a"},{"town":"市井","koaza":"","lat":36.706284,"lng":137.055267,"version":"13.0b/18.0a"},{"town":"稲積","koaza":"","lat":36.739127,"lng":137.107162,"version":"13.0b/18.0a"},{"town":"今井","koaza":"","lat":36.737637,"lng":137.087833,"version":"13.0b/18.0a"},{"town":"今開発","koaza":"","lat":36.730724,"lng":137.091792,"version":"13.0b/18.0a"},{"town":"射水町一丁目","koaza":"","lat":36.768749,"lng":137.12375,"version":"13.0b/18.0a"},{"town":"射水町二丁目","koaza":"","lat":36.768737,"lng":137.127348,"version":"13.0b/18.0a"},{"town":"犬内","koaza":"","lat":36.738214,"lng":137.04698,"version":"13.0b/18.0a"},{"town":"梅木","koaza":"","lat":36.68338,"lng":137.044923,"version":"13.0b/18.0a"},{"town":"海老江","koaza":"","lat":36.766848,"lng":137.145785,"version":"13.0b/18.0a"},{"town":"海老江七軒","koaza":"","lat":36.757254,"lng":137.154986,"version":"13.0b/18.0a"},{"town":"海老江練合","koaza":"","lat":36.759703,"lng":137.159528,"version":"13.0b/18.0a"},{"town":"海老江浜開","koaza":"","lat":36.768148,"lng":137.138803,"version":"13.0b/18.0a"},{"town":"大江","koaza":"","lat":36.732103,"lng":137.114396,"version":"13.0b/18.0a"},{"town":"大島北野","koaza":"","lat":36.746076,"lng":137.049066,"version":"13.0b/18.0a"},{"town":"沖","koaza":"","lat":36.737598,"lng":137.096394,"version":"13.0b/18.0a"},{"town":"沖塚原","koaza":"","lat":36.750901,"lng":137.072663,"version":"13.0b/18.0a"},{"town":"海王町","koaza":"","lat":36.780804,"lng":137.105892,"version":"13.0b/18.0a"},{"town":"開口","koaza":"","lat":36.711592,"lng":137.056914,"version":"13.0b/18.0a"},{"town":"海竜新町","koaza":"","lat":36.771338,"lng":137.135544,"version":"13.0b/18.0a"},{"town":"海竜町","koaza":"","lat":36.774858,"lng":137.128098,"version":"13.0b/18.0a"},{"town":"鏡宮","koaza":"","lat":36.752385,"lng":137.083277,"version":"13.0b/18.0a"},{"town":"鏡宮弥生一丁目","koaza":"","lat":36.758725,"lng":137.084508,"version":"13.0b/18.0a"},{"town":"鏡宮弥生二丁目","koaza":"","lat":36.757089,"lng":137.083906,"version":"13.0b/18.0a"},{"town":"片口","koaza":"","lat":36.760898,"lng":137.116497,"version":"13.0b/18.0a"},{"town":"片口久々江","koaza":"","lat":36.744219,"lng":137.117932,"version":"13.0b/18.0a"},{"town":"片口高場","koaza":"","lat":36.75116,"lng":137.115245,"version":"13.0b/18.0a"},{"town":"加茂西部","koaza":"","lat":36.739848,"lng":137.139853,"version":"13.0b/18.0a"},{"town":"加茂中部","koaza":"","lat":36.742916,"lng":137.148912,"version":"13.0b/18.0a"},{"town":"加茂東部","koaza":"","lat":36.749711,"lng":137.152589,"version":"13.0b/18.0a"},{"town":"かもめ台","koaza":"","lat":36.757511,"lng":137.176093,"version":"13.0b/18.0a"},{"town":"北高木","koaza":"","lat":36.742105,"lng":137.070444,"version":"13.0b/18.0a"},{"town":"北野","koaza":"","lat":36.733155,"lng":137.054078,"version":"13.0b/18.0a"},{"town":"久々湊","koaza":"","lat":36.7568,"lng":137.098081,"version":"13.0b/18.0a"},{"town":"草岡町一丁目","koaza":"","lat":36.76855,"lng":137.130078,"version":"13.0b/18.0a"},{"town":"草岡町二丁目","koaza":"","lat":36.76779,"lng":137.133205,"version":"13.0b/18.0a"},{"town":"串田新","koaza":"","lat":36.683297,"lng":137.039203,"version":"13.0b/18.0a"},{"town":"倉垣小杉","koaza":"","lat":36.732967,"lng":137.144782,"version":"13.0b/18.0a"},{"town":"黒河","koaza":"","lat":36.707556,"lng":137.111581,"version":"13.0b/18.0a"},{"town":"黒河新","koaza":"","lat":36.697694,"lng":137.110176,"version":"13.0b/18.0a"},{"town":"下条","koaza":"","lat":36.717079,"lng":137.043611,"version":"13.0b/18.0a"},{"town":"下条新","koaza":"","lat":36.713402,"lng":137.078474,"version":"13.0b/18.0a"},{"town":"小泉","koaza":"","lat":36.703552,"lng":137.031588,"version":"13.0b/18.0a"},{"town":"越の潟町","koaza":"","lat":36.775783,"lng":137.10656,"version":"13.0b/18.0a"},{"town":"小島","koaza":"","lat":36.736278,"lng":137.060647,"version":"13.0b/18.0a"},{"town":"小杉北野","koaza":"","lat":36.685561,"lng":137.11834,"version":"13.0b/18.0a"},{"town":"小杉白石","koaza":"","lat":36.729051,"lng":137.129285,"version":"13.0b/18.0a"},{"town":"小林","koaza":"","lat":36.734881,"lng":137.070534,"version":"13.0b/18.0a"},{"town":"桜町","koaza":"","lat":36.777418,"lng":137.083124,"version":"13.0b/18.0a"},{"town":"三ケ","koaza":"","lat":36.723987,"lng":137.089547,"version":"13.0b/18.0a"},{"town":"椎土","koaza":"","lat":36.688149,"lng":137.119251,"version":"13.0b/18.0a"},{"town":"七美","koaza":"","lat":36.752044,"lng":137.137344,"version":"13.0b/18.0a"},{"town":"七美一丁目","koaza":"","lat":36.755278,"lng":137.133504,"version":"13.0b/18.0a"},{"town":"七美二丁目","koaza":"","lat":36.754878,"lng":137.142122,"version":"13.0b/18.0a"},{"town":"七美中野","koaza":"","lat":36.759988,"lng":137.136919,"version":"13.0b/18.0a"},{"town":"島","koaza":"","lat":36.712389,"lng":137.039014,"version":"13.0b/18.0a"},{"town":"下村三箇","koaza":"","lat":36.750116,"lng":137.163333,"version":"13.0b/18.0a"},{"town":"下若","koaza":"","lat":36.718272,"lng":137.077446,"version":"13.0b/18.0a"},{"town":"宿屋","koaza":"","lat":36.694501,"lng":137.073109,"version":"13.0b/18.0a"},{"town":"庄川本町","koaza":"","lat":36.784885,"lng":137.071407,"version":"13.0b/18.0a"},{"town":"生源寺","koaza":"","lat":36.698128,"lng":137.060217,"version":"13.0b/18.0a"},{"town":"庄西町一丁目","koaza":"","lat":36.790015,"lng":137.071091,"version":"13.0b/18.0a"},{"town":"庄西町二丁目","koaza":"","lat":36.788425,"lng":137.06326,"version":"13.0b/18.0a"},{"town":"浄土寺","koaza":"","lat":36.676452,"lng":137.087177,"version":"13.0b/18.0a"},{"town":"白石","koaza":"","lat":36.733461,"lng":137.136209,"version":"13.0b/18.0a"},{"town":"新開発","koaza":"","lat":36.730782,"lng":137.076351,"version":"13.0b/18.0a"},{"town":"新片町一丁目","koaza":"","lat":36.758861,"lng":137.11361,"version":"13.0b/18.0a"},{"town":"新片町二丁目","koaza":"","lat":36.759419,"lng":137.115603,"version":"13.0b/18.0a"},{"town":"新片町三丁目","koaza":"","lat":36.758396,"lng":137.119529,"version":"13.0b/18.0a"},{"town":"新片町四丁目","koaza":"","lat":36.757215,"lng":137.119281,"version":"13.0b/18.0a"},{"town":"新片町五丁目","koaza":"","lat":36.757857,"lng":137.115722,"version":"13.0b/18.0a"},{"town":"新堀","koaza":"","lat":36.754243,"lng":137.124571,"version":"13.0b/18.0a"},{"town":"摺出寺","koaza":"","lat":36.744337,"lng":137.133495,"version":"13.0b/18.0a"},{"town":"善光寺","koaza":"","lat":36.77615,"lng":137.077368,"version":"13.0b/18.0a"},{"town":"太閤町","koaza":"","lat":36.709864,"lng":137.097715,"version":"13.0b/18.0a"},{"town":"太閤山十丁目","koaza":"","lat":36.710709,"lng":137.092279,"version":"13.0b/18.0a"},{"town":"太閤山十一丁目","koaza":"","lat":36.709467,"lng":137.09054,"version":"13.0b/18.0a"},{"town":"太閤山一丁目","koaza":"","lat":36.709701,"lng":137.095284,"version":"13.0b/18.0a"},{"town":"太閤山二丁目","koaza":"","lat":36.706549,"lng":137.095006,"version":"13.0b/18.0a"},{"town":"太閤山三丁目","koaza":"","lat":36.70645,"lng":137.092875,"version":"13.0b/18.0a"},{"town":"太閤山四丁目","koaza":"","lat":36.705227,"lng":137.093783,"version":"13.0b/18.0a"},{"town":"太閤山五丁目","koaza":"","lat":36.704756,"lng":137.090393,"version":"13.0b/18.0a"},{"town":"太閤山六丁目","koaza":"","lat":36.704998,"lng":137.088068,"version":"13.0b/18.0a"},{"town":"太閤山七丁目","koaza":"","lat":36.706706,"lng":137.088399,"version":"13.0b/18.0a"},{"town":"太閤山八丁目","koaza":"","lat":36.70737,"lng":137.090773,"version":"13.0b/18.0a"},{"town":"太閤山九丁目","koaza":"","lat":36.708841,"lng":137.091732,"version":"13.0b/18.0a"},{"town":"大門","koaza":"","lat":36.734461,"lng":137.049116,"version":"13.0b/18.0a"},{"town":"大門島","koaza":"","lat":36.720344,"lng":137.051872,"version":"13.0b/18.0a"},{"town":"大門新","koaza":"","lat":36.735024,"lng":137.045662,"version":"13.0b/18.0a"},{"town":"大門本江","koaza":"","lat":36.715086,"lng":137.055691,"version":"13.0b/18.0a"},{"town":"高木","koaza":"","lat":36.743219,"lng":137.083199,"version":"13.0b/18.0a"},{"town":"高場新町一丁目","koaza":"","lat":36.756009,"lng":137.116944,"version":"13.0b/18.0a"},{"town":"高場新町二丁目","koaza":"","lat":36.755807,"lng":137.114827,"version":"13.0b/18.0a"},{"town":"高場新町三丁目","koaza":"","lat":36.753869,"lng":137.115374,"version":"13.0b/18.0a"},{"town":"高場新町四丁目","koaza":"","lat":36.75237,"lng":137.115566,"version":"13.0b/18.0a"},{"town":"竹鼻","koaza":"","lat":36.711843,"lng":137.062937,"version":"13.0b/18.0a"},{"town":"立町","koaza":"","lat":36.779855,"lng":137.088348,"version":"13.0b/18.0a"},{"town":"棚田","koaza":"","lat":36.718978,"lng":137.061446,"version":"13.0b/18.0a"},{"town":"中央町","koaza":"","lat":36.779452,"lng":137.084705,"version":"13.0b/18.0a"},{"town":"塚越","koaza":"","lat":36.698807,"lng":137.121174,"version":"13.0b/18.0a"},{"town":"津幡江","koaza":"","lat":36.749015,"lng":137.106769,"version":"13.0b/18.0a"},{"town":"円池","koaza":"","lat":36.699697,"lng":137.053175,"version":"13.0b/18.0a"},{"town":"手崎","koaza":"","lat":36.720942,"lng":137.116878,"version":"13.0b/18.0a"},{"town":"寺塚原","koaza":"","lat":36.752595,"lng":137.056792,"version":"13.0b/18.0a"},{"town":"東明七軒","koaza":"","lat":36.761457,"lng":137.153343,"version":"13.0b/18.0a"},{"town":"東明中町","koaza":"","lat":36.763662,"lng":137.147486,"version":"13.0b/18.0a"},{"town":"東明西町","koaza":"","lat":36.76531,"lng":137.143442,"version":"13.0b/18.0a"},{"town":"東明東町","koaza":"","lat":36.762444,"lng":137.150143,"version":"13.0b/18.0a"},{"town":"土代","koaza":"","lat":36.692531,"lng":137.116143,"version":"13.0b/18.0a"},{"town":"鳥取","koaza":"","lat":36.737001,"lng":137.077258,"version":"13.0b/18.0a"},{"town":"殿村","koaza":"","lat":36.74522,"lng":137.091512,"version":"13.0b/18.0a"},{"town":"中老田","koaza":"","lat":36.697183,"lng":137.119075,"version":"13.0b/18.0a"},{"town":"中老田新","koaza":"","lat":36.700929,"lng":137.116387,"version":"13.0b/18.0a"},{"town":"中新湊","koaza":"","lat":36.776873,"lng":137.08832,"version":"13.0b/18.0a"},{"town":"中太閤山十丁目","koaza":"","lat":36.701111,"lng":137.092912,"version":"13.0b/18.0a"},{"town":"中太閤山十一丁目","koaza":"","lat":36.701288,"lng":137.094978,"version":"13.0b/18.0a"},{"town":"中太閤山十二丁目","koaza":"","lat":36.702236,"lng":137.09641,"version":"13.0b/18.0a"},{"town":"中太閤山十三丁目","koaza":"","lat":36.700855,"lng":137.096125,"version":"13.0b/18.0a"},{"town":"中太閤山十四丁目","koaza":"","lat":36.701038,"lng":137.097438,"version":"13.0b/18.0a"},{"town":"中太閤山十五丁目","koaza":"","lat":36.703766,"lng":137.097999,"version":"13.0b/18.0a"},{"town":"中太閤山十六丁目","koaza":"","lat":36.701828,"lng":137.098942,"version":"13.0b/18.0a"},{"town":"中太閤山十七丁目","koaza":"","lat":36.699447,"lng":137.099908,"version":"13.0b/18.0a"},{"town":"中太閤山十八丁目","koaza":"","lat":36.699301,"lng":137.089717,"version":"13.0b/18.0a"},{"town":"中太閤山十九丁目","koaza":"","lat":36.700567,"lng":137.086356,"version":"13.0b/18.0a"},{"town":"中太閤山一丁目","koaza":"","lat":36.703789,"lng":137.095801,"version":"13.0b/18.0a"},{"town":"中太閤山二丁目","koaza":"","lat":36.703567,"lng":137.093087,"version":"13.0b/18.0a"},{"town":"中太閤山三丁目","koaza":"","lat":36.702001,"lng":137.093318,"version":"13.0b/18.0a"},{"town":"中太閤山四丁目","koaza":"","lat":36.702886,"lng":137.090498,"version":"13.0b/18.0a"},{"town":"中太閤山五丁目","koaza":"","lat":36.703574,"lng":137.088209,"version":"13.0b/18.0a"},{"town":"中太閤山六丁目","koaza":"","lat":36.703068,"lng":137.085928,"version":"13.0b/18.0a"},{"town":"中太閤山七丁目","koaza":"","lat":36.702095,"lng":137.088853,"version":"13.0b/18.0a"},{"town":"中太閤山八丁目","koaza":"","lat":36.700675,"lng":137.091007,"version":"13.0b/18.0a"},{"town":"中太閤山九丁目","koaza":"","lat":36.699995,"lng":137.092505,"version":"13.0b/18.0a"},{"town":"中野","koaza":"","lat":36.742225,"lng":137.059505,"version":"13.0b/18.0a"},{"town":"中村","koaza":"","lat":36.721949,"lng":137.054395,"version":"13.0b/18.0a"},{"town":"奈呉の江","koaza":"","lat":36.762551,"lng":137.10034,"version":"13.0b/18.0a"},{"town":"西新湊","koaza":"","lat":36.780411,"lng":137.076429,"version":"13.0b/18.0a"},{"town":"西高木","koaza":"","lat":36.742316,"lng":137.123593,"version":"13.0b/18.0a"},{"town":"西広上","koaza":"","lat":36.702018,"lng":137.015628,"version":"13.0b/18.0a"},{"town":"二の丸町","koaza":"","lat":36.77446,"lng":137.091971,"version":"13.0b/18.0a"},{"town":"布目","koaza":"","lat":36.746302,"lng":137.08019,"version":"13.0b/18.0a"},{"town":"布目沢","koaza":"","lat":36.702897,"lng":137.045855,"version":"13.0b/18.0a"},{"town":"野手","koaza":"","lat":36.665986,"lng":137.066943,"version":"13.0b/18.0a"},{"town":"野村","koaza":"","lat":36.750598,"lng":137.098501,"version":"13.0b/18.0a"},{"town":"橋下条","koaza":"","lat":36.707763,"lng":137.081548,"version":"13.0b/18.0a"},{"town":"八幡町一丁目","koaza":"","lat":36.78169,"lng":137.091582,"version":"13.0b/18.0a"},{"town":"八幡町二丁目","koaza":"","lat":36.779357,"lng":137.096656,"version":"13.0b/18.0a"},{"town":"八幡町三丁目","koaza":"","lat":36.776233,"lng":137.097511,"version":"13.0b/18.0a"},{"town":"八講","koaza":"","lat":36.742786,"lng":137.128123,"version":"13.0b/18.0a"},{"town":"浜開新町","koaza":"","lat":36.766833,"lng":137.138088,"version":"13.0b/18.0a"},{"town":"坂東","koaza":"","lat":36.755964,"lng":137.057095,"version":"13.0b/18.0a"},{"town":"東太閤山一丁目","koaza":"","lat":36.70014,"lng":137.117846,"version":"13.0b/18.0a"},{"town":"東太閤山二丁目","koaza":"","lat":36.699229,"lng":137.117613,"version":"13.0b/18.0a"},{"town":"東太閤山三丁目","koaza":"","lat":36.698119,"lng":137.117458,"version":"13.0b/18.0a"},{"town":"東太閤山四丁目","koaza":"","lat":36.698082,"lng":137.115376,"version":"13.0b/18.0a"},{"town":"日宮","koaza":"","lat":36.703985,"lng":137.085362,"version":"13.0b/18.0a"},{"town":"戸破","koaza":"","lat":36.721682,"lng":137.110661,"version":"13.0b/18.0a"},{"town":"平野","koaza":"","lat":36.689227,"lng":137.09638,"version":"13.0b/18.0a"},{"town":"広上","koaza":"","lat":36.703815,"lng":137.023792,"version":"13.0b/18.0a"},{"town":"枇杷首","koaza":"","lat":36.735323,"lng":137.041358,"version":"13.0b/18.0a"},{"town":"藤巻","koaza":"","lat":36.710142,"lng":137.052856,"version":"13.0b/18.0a"},{"town":"二口","koaza":"","lat":36.725469,"lng":137.056105,"version":"13.0b/18.0a"},{"town":"放生津町","koaza":"","lat":36.782602,"lng":137.085896,"version":"13.0b/18.0a"},{"town":"朴木","koaza":"","lat":36.757772,"lng":137.078532,"version":"13.0b/18.0a"},{"town":"堀江千石","koaza":"","lat":36.766351,"lng":137.125299,"version":"13.0b/18.0a"},{"town":"堀岡","koaza":"","lat":36.772064,"lng":137.124083,"version":"13.0b/18.0a"},{"town":"堀岡新明神","koaza":"","lat":36.775021,"lng":137.112067,"version":"13.0b/18.0a"},{"town":"堀岡古明神","koaza":"","lat":36.769167,"lng":137.134316,"version":"13.0b/18.0a"},{"town":"堀岡明神新","koaza":"","lat":36.773027,"lng":137.119822,"version":"13.0b/18.0a"},{"town":"堀内","koaza":"","lat":36.714425,"lng":137.050206,"version":"13.0b/18.0a"},{"town":"本開発","koaza":"","lat":36.728786,"lng":137.082865,"version":"13.0b/18.0a"},{"town":"本江","koaza":"","lat":36.758345,"lng":137.172965,"version":"13.0b/18.0a"},{"town":"本江北","koaza":"","lat":36.754113,"lng":137.17102,"version":"13.0b/18.0a"},{"town":"本江三箇","koaza":"","lat":36.75954,"lng":137.170521,"version":"13.0b/18.0a"},{"town":"本江利波","koaza":"","lat":36.746071,"lng":137.167106,"version":"13.0b/18.0a"},{"town":"本江中","koaza":"","lat":36.748231,"lng":137.169513,"version":"13.0b/18.0a"},{"town":"本江中新","koaza":"","lat":36.753929,"lng":137.168442,"version":"13.0b/18.0a"},{"town":"本江西","koaza":"","lat":36.753281,"lng":137.165793,"version":"13.0b/18.0a"},{"town":"本江針山","koaza":"","lat":36.756298,"lng":137.163023,"version":"13.0b/18.0a"},{"town":"本江針山新","koaza":"","lat":36.757694,"lng":137.160269,"version":"13.0b/18.0a"},{"town":"本江針山開","koaza":"","lat":36.759086,"lng":137.163545,"version":"13.0b/18.0a"},{"town":"本江東","koaza":"","lat":36.752193,"lng":137.178353,"version":"13.0b/18.0a"},{"town":"本江南","koaza":"","lat":36.745087,"lng":137.16723,"version":"13.0b/18.0a"},{"town":"本田","koaza":"","lat":36.718412,"lng":137.07183,"version":"13.0b/18.0a"},{"town":"本町一丁目","koaza":"","lat":36.783698,"lng":137.076426,"version":"13.0b/18.0a"},{"town":"本町二丁目","koaza":"","lat":36.783051,"lng":137.079598,"version":"13.0b/18.0a"},{"town":"本町三丁目","koaza":"","lat":36.781917,"lng":137.081947,"version":"13.0b/18.0a"},{"town":"松木","koaza":"","lat":36.761477,"lng":137.06992,"version":"13.0b/18.0a"},{"town":"三日曽根","koaza":"","lat":36.778922,"lng":137.079719,"version":"13.0b/18.0a"},{"town":"水戸田","koaza":"","lat":36.707442,"lng":137.071885,"version":"13.0b/18.0a"},{"town":"緑町","koaza":"","lat":36.775036,"lng":137.081535,"version":"13.0b/18.0a"},{"town":"港町","koaza":"","lat":36.786868,"lng":137.077598,"version":"13.0b/18.0a"},{"town":"南太閤山十丁目","koaza":"","lat":36.69686,"lng":137.092052,"version":"13.0b/18.0a"},{"town":"南太閤山十一丁目","koaza":"","lat":36.696985,"lng":137.094147,"version":"13.0b/18.0a"},{"town":"南太閤山十二丁目","koaza":"","lat":36.696973,"lng":137.096217,"version":"13.0b/18.0a"},{"town":"南太閤山十三丁目","koaza":"","lat":36.697609,"lng":137.097523,"version":"13.0b/18.0a"},{"town":"南太閤山十四丁目","koaza":"","lat":36.698289,"lng":137.098545,"version":"13.0b/18.0a"},{"town":"南太閤山十五丁目","koaza":"","lat":36.696397,"lng":137.099195,"version":"13.0b/18.0a"},{"town":"南太閤山十六丁目","koaza":"","lat":36.694417,"lng":137.097218,"version":"13.0b/18.0a"},{"town":"南太閤山十七丁目","koaza":"","lat":36.694845,"lng":137.09347,"version":"13.0b/18.0a"},{"town":"南太閤山十八丁目","koaza":"","lat":36.695695,"lng":137.088474,"version":"13.0b/18.0a"},{"town":"南太閤山十九丁目","koaza":"","lat":36.695566,"lng":137.084793,"version":"13.0b/18.0a"},{"town":"南太閤山一丁目","koaza":"","lat":36.699551,"lng":137.097164,"version":"13.0b/18.0a"},{"town":"南太閤山二丁目","koaza":"","lat":36.698841,"lng":137.093533,"version":"13.0b/18.0a"},{"town":"南太閤山三丁目","koaza":"","lat":36.69844,"lng":137.091362,"version":"13.0b/18.0a"},{"town":"南太閤山四丁目","koaza":"","lat":36.697593,"lng":137.090006,"version":"13.0b/18.0a"},{"town":"南太閤山五丁目","koaza":"","lat":36.697587,"lng":137.088304,"version":"13.0b/18.0a"},{"town":"南太閤山六丁目","koaza":"","lat":36.697781,"lng":137.086902,"version":"13.0b/18.0a"},{"town":"南太閤山七丁目","koaza":"","lat":36.699425,"lng":137.08257,"version":"13.0b/18.0a"},{"town":"南太閤山八丁目","koaza":"","lat":36.696241,"lng":137.088692,"version":"13.0b/18.0a"},{"town":"南太閤山九丁目","koaza":"","lat":36.69518,"lng":137.094803,"version":"13.0b/18.0a"},{"town":"南高木","koaza":"","lat":36.739202,"lng":137.07408,"version":"13.0b/18.0a"},{"town":"八島","koaza":"","lat":36.755582,"lng":137.149791,"version":"13.0b/18.0a"},{"town":"安吉","koaza":"","lat":36.721464,"lng":137.068272,"version":"13.0b/18.0a"},{"town":"八塚","koaza":"","lat":36.729236,"lng":137.059349,"version":"13.0b/18.0a"},{"town":"山本","koaza":"","lat":36.684059,"lng":137.104621,"version":"13.0b/18.0a"},{"town":"山本新","koaza":"","lat":36.687712,"lng":137.111993,"version":"13.0b/18.0a"},{"town":"山屋","koaza":"","lat":36.751203,"lng":137.160019,"version":"13.0b/18.0a"},{"town":"流通センター青井谷一丁目","koaza":"","lat":36.694464,"lng":137.065447,"version":"13.0b/18.0a"},{"town":"流通センター青井谷二丁目","koaza":"","lat":36.696185,"lng":137.070275,"version":"13.0b/18.0a"},{"town":"流通センター下条一丁目","koaza":"","lat":36.69844,"lng":137.071844,"version":"13.0b/18.0a"},{"town":"流通センター水戸田二丁目","koaza":"","lat":36.697954,"lng":137.066085,"version":"13.0b/18.0a"},{"town":"流通センター水戸田三丁目","koaza":"","lat":36.698831,"lng":137.069149,"version":"13.0b/18.0a"},{"town":"若杉","koaza":"","lat":36.744253,"lng":137.055577,"version":"13.0b/18.0a"},{"town":"若林","koaza":"","lat":36.710864,"lng":137.065199,"version":"13.0b/18.0a"},{"town":"鷲塚","koaza":"","lat":36.72133,"lng":137.125007,"version":"13.0b/18.0a"},{"town":"作道","koaza":"","lat":36.755717,"lng":137.09028,"version":"13.0b/18.0a"},{"town":"神楽町","koaza":"","lat":36.760913,"lng":137.083243,"version":"13.0b/18.0a"},{"town":"川口宮袋入会地","koaza":"","lat":36.765857,"lng":137.051499,"version":"13.0b/18.0a"},{"town":"串田","koaza":"","lat":36.691829,"lng":137.042553,"version":"13.0b/18.0a"},{"town":"生源寺新","koaza":"","lat":36.689406,"lng":137.045793,"version":"13.0b/18.0a"},{"town":"上野","koaza":"","lat":36.692531,"lng":137.084005,"version":"13.0b/18.0a"},{"town":"入会地","koaza":"","lat":36.675591,"lng":137.08325,"version":"13.0b/18.0a"},{"town":"上条","koaza":"","lat":36.712009,"lng":137.032286,"version":"13.0b/18.0a"},{"town":"土合","koaza":"","lat":36.722752,"lng":137.039161,"version":"13.0b/18.0a"},{"town":"本開発","koaza":"代官免","lat":36.730128,"lng":137.084455,"version":"13.0b/18.0a"},{"town":"戸破","koaza":"元町","lat":36.713394,"lng":137.097277,"version":"13.0b/18.0a"},{"town":"三ケ","koaza":"本中町","lat":36.722903,"lng":137.093978,"version":"13.0b/18.0a"},{"town":"戸破","koaza":"荒町","lat":36.722176,"lng":137.10128,"version":"13.0b/18.0a"},{"town":"本江","koaza":"後新","lat":36.757602,"lng":137.171904,"version":"13.0b/18.0a"},{"town":"橋下条","koaza":"二の井","lat":36.707863,"lng":137.082621,"version":"13.0b/18.0a"},{"town":"戸破","koaza":"若葉町","lat":36.718314,"lng":137.102458,"version":"13.0b/18.0a"},{"town":"青井谷","koaza":"","lat":36.676826,"lng":137.066661,"version":"14.0b/19.0a"},{"town":"あおば台一丁目","koaza":"","lat":36.718116,"lng":137.052174,"version":"14.0b/19.0a"},{"town":"あおば台二丁目","koaza":"","lat":36.717888,"lng":137.051587,"version":"14.0b/19.0a"},{"town":"赤井","koaza":"","lat":36.727352,"lng":137.068045,"version":"14.0b/19.0a"},{"town":"足洗新町一丁目","koaza":"","lat":36.758652,"lng":137.167643,"version":"14.0b/19.0a"},{"town":"荒町","koaza":"","lat":36.696008,"lng":137.049148,"version":"14.0b/19.0a"},{"town":"有磯一丁目","koaza":"","lat":36.762533,"lng":137.14247,"version":"14.0b/19.0a"},{"town":"有磯二丁目","koaza":"","lat":36.759086,"lng":137.149903,"version":"14.0b/19.0a"},{"town":"池多","koaza":"","lat":36.690105,"lng":137.103865,"version":"14.0b/19.0a"},{"town":"一条","koaza":"","lat":36.713093,"lng":137.088193,"version":"14.0b/19.0a"},{"town":"市井","koaza":"","lat":36.706284,"lng":137.055267,"version":"14.0b/19.0a"},{"town":"稲積","koaza":"","lat":36.739127,"lng":137.107162,"version":"14.0b/19.0a"},{"town":"今井","koaza":"","lat":36.737637,"lng":137.087833,"version":"14.0b/19.0a"},{"town":"今開発","koaza":"","lat":36.730724,"lng":137.091792,"version":"14.0b/19.0a"},{"town":"射水町一丁目","koaza":"","lat":36.768749,"lng":137.12375,"version":"14.0b/19.0a"},{"town":"射水町二丁目","koaza":"","lat":36.768737,"lng":137.127348,"version":"14.0b/19.0a"},{"town":"犬内","koaza":"","lat":36.738214,"lng":137.04698,"version":"14.0b/19.0a"},{"town":"梅木","koaza":"","lat":36.68338,"lng":137.044923,"version":"14.0b/19.0a"},{"town":"海老江","koaza":"","lat":36.766848,"lng":137.145785,"version":"14.0b/19.0a"},{"town":"海老江七軒","koaza":"","lat":36.757254,"lng":137.154986,"version":"14.0b/19.0a"},{"town":"海老江練合","koaza":"","lat":36.759703,"lng":137.159528,"version":"14.0b/19.0a"},{"town":"海老江浜開","koaza":"","lat":36.768148,"lng":137.138803,"version":"14.0b/19.0a"},{"town":"大江","koaza":"","lat":36.732103,"lng":137.114396,"version":"14.0b/19.0a"},{"town":"大島北野","koaza":"","lat":36.746076,"lng":137.049066,"version":"14.0b/19.0a"},{"town":"沖","koaza":"","lat":36.737598,"lng":137.096394,"version":"14.0b/19.0a"},{"town":"沖塚原","koaza":"","lat":36.750901,"lng":137.072663,"version":"14.0b/19.0a"},{"town":"海王町","koaza":"","lat":36.780804,"lng":137.105892,"version":"14.0b/19.0a"},{"town":"開口","koaza":"","lat":36.711592,"lng":137.056914,"version":"14.0b/19.0a"},{"town":"海竜新町","koaza":"","lat":36.771338,"lng":137.135544,"version":"14.0b/19.0a"},{"town":"海竜町","koaza":"","lat":36.774858,"lng":137.128098,"version":"14.0b/19.0a"},{"town":"鏡宮","koaza":"","lat":36.752385,"lng":137.083277,"version":"14.0b/19.0a"},{"town":"鏡宮弥生一丁目","koaza":"","lat":36.758725,"lng":137.084508,"version":"14.0b/19.0a"},{"town":"鏡宮弥生二丁目","koaza":"","lat":36.757089,"lng":137.083906,"version":"14.0b/19.0a"},{"town":"片口","koaza":"","lat":36.760898,"lng":137.116497,"version":"14.0b/19.0a"},{"town":"片口久々江","koaza":"","lat":36.744219,"lng":137.117932,"version":"14.0b/19.0a"},{"town":"片口高場","koaza":"","lat":36.75116,"lng":137.115245,"version":"14.0b/19.0a"},{"town":"加茂西部","koaza":"","lat":36.739848,"lng":137.139853,"version":"14.0b/19.0a"},{"town":"加茂中部","koaza":"","lat":36.742916,"lng":137.148912,"version":"14.0b/19.0a"},{"town":"加茂東部","koaza":"","lat":36.749711,"lng":137.152589,"version":"14.0b/19.0a"},{"town":"かもめ台","koaza":"","lat":36.757511,"lng":137.176093,"version":"14.0b/19.0a"},{"town":"北高木","koaza":"","lat":36.742105,"lng":137.070444,"version":"14.0b/19.0a"},{"town":"北野","koaza":"","lat":36.733155,"lng":137.054078,"version":"14.0b/19.0a"},{"town":"久々湊","koaza":"","lat":36.7568,"lng":137.098081,"version":"14.0b/19.0a"},{"town":"草岡町一丁目","koaza":"","lat":36.76855,"lng":137.130078,"version":"14.0b/19.0a"},{"town":"草岡町二丁目","koaza":"","lat":36.76779,"lng":137.133205,"version":"14.0b/19.0a"},{"town":"串田新","koaza":"","lat":36.683297,"lng":137.039203,"version":"14.0b/19.0a"},{"town":"倉垣小杉","koaza":"","lat":36.732967,"lng":137.144782,"version":"14.0b/19.0a"},{"town":"黒河","koaza":"","lat":36.707556,"lng":137.111581,"version":"14.0b/19.0a"},{"town":"黒河新","koaza":"","lat":36.697694,"lng":137.110176,"version":"14.0b/19.0a"},{"town":"下条","koaza":"","lat":36.717079,"lng":137.043611,"version":"14.0b/19.0a"},{"town":"下条新","koaza":"","lat":36.713402,"lng":137.078474,"version":"14.0b/19.0a"},{"town":"小泉","koaza":"","lat":36.703552,"lng":137.031588,"version":"14.0b/19.0a"},{"town":"越の潟町","koaza":"","lat":36.775783,"lng":137.10656,"version":"14.0b/19.0a"},{"town":"小島","koaza":"","lat":36.736278,"lng":137.060647,"version":"14.0b/19.0a"},{"town":"小杉北野","koaza":"","lat":36.685561,"lng":137.11834,"version":"14.0b/19.0a"},{"town":"小杉白石","koaza":"","lat":36.729051,"lng":137.129285,"version":"14.0b/19.0a"},{"town":"小林","koaza":"","lat":36.734881,"lng":137.070534,"version":"14.0b/19.0a"},{"town":"桜町","koaza":"","lat":36.777418,"lng":137.083124,"version":"14.0b/19.0a"},{"town":"三ケ","koaza":"","lat":36.723987,"lng":137.089547,"version":"14.0b/19.0a"},{"town":"椎土","koaza":"","lat":36.688149,"lng":137.119251,"version":"14.0b/19.0a"},{"town":"七美","koaza":"","lat":36.752044,"lng":137.137344,"version":"14.0b/19.0a"},{"town":"七美一丁目","koaza":"","lat":36.755278,"lng":137.133504,"version":"14.0b/19.0a"},{"town":"七美二丁目","koaza":"","lat":36.754878,"lng":137.142122,"version":"14.0b/19.0a"},{"town":"七美中野","koaza":"","lat":36.759988,"lng":137.136919,"version":"14.0b/19.0a"},{"town":"島","koaza":"","lat":36.712389,"lng":137.039014,"version":"14.0b/19.0a"},{"town":"下村三箇","koaza":"","lat":36.750116,"lng":137.163333,"version":"14.0b/19.0a"},{"town":"下若","koaza":"","lat":36.718272,"lng":137.077446,"version":"14.0b/19.0a"},{"town":"宿屋","koaza":"","lat":36.694501,"lng":137.073109,"version":"14.0b/19.0a"},{"town":"庄川本町","koaza":"","lat":36.784885,"lng":137.071407,"version":"14.0b/19.0a"},{"town":"生源寺","koaza":"","lat":36.698128,"lng":137.060217,"version":"14.0b/19.0a"},{"town":"庄西町一丁目","koaza":"","lat":36.790015,"lng":137.071091,"version":"14.0b/19.0a"},{"town":"庄西町二丁目","koaza":"","lat":36.788425,"lng":137.06326,"version":"14.0b/19.0a"},{"town":"浄土寺","koaza":"","lat":36.676452,"lng":137.087177,"version":"14.0b/19.0a"},{"town":"白石","koaza":"","lat":36.733461,"lng":137.136209,"version":"14.0b/19.0a"},{"town":"新開発","koaza":"","lat":36.730782,"lng":137.076351,"version":"14.0b/19.0a"},{"town":"新片町一丁目","koaza":"","lat":36.758861,"lng":137.11361,"version":"14.0b/19.0a"},{"town":"新片町二丁目","koaza":"","lat":36.759419,"lng":137.115603,"version":"14.0b/19.0a"},{"town":"新片町三丁目","koaza":"","lat":36.758396,"lng":137.119529,"version":"14.0b/19.0a"},{"town":"新片町四丁目","koaza":"","lat":36.757215,"lng":137.119281,"version":"14.0b/19.0a"},{"town":"新片町五丁目","koaza":"","lat":36.757857,"lng":137.115722,"version":"14.0b/19.0a"},{"town":"新堀","koaza":"","lat":36.754243,"lng":137.124571,"version":"14.0b/19.0a"},{"town":"摺出寺","koaza":"","lat":36.744337,"lng":137.133495,"version":"14.0b/19.0a"},{"town":"善光寺","koaza":"","lat":36.77615,"lng":137.077368,"version":"14.0b/19.0a"},{"town":"太閤町","koaza":"","lat":36.709864,"lng":137.097715,"version":"14.0b/19.0a"},{"town":"太閤山十丁目","koaza":"","lat":36.710709,"lng":137.092279,"version":"14.0b/19.0a"},{"town":"太閤山十一丁目","koaza":"","lat":36.709467,"lng":137.09054,"version":"14.0b/19.0a"},{"town":"太閤山一丁目","koaza":"","lat":36.709701,"lng":137.095284,"version":"14.0b/19.0a"},{"town":"太閤山二丁目","koaza":"","lat":36.706549,"lng":137.095006,"version":"14.0b/19.0a"},{"town":"太閤山三丁目","koaza":"","lat":36.70645,"lng":137.092875,"version":"14.0b/19.0a"},{"town":"太閤山四丁目","koaza":"","lat":36.705227,"lng":137.093783,"version":"14.0b/19.0a"},{"town":"太閤山五丁目","koaza":"","lat":36.704756,"lng":137.090393,"version":"14.0b/19.0a"},{"town":"太閤山六丁目","koaza":"","lat":36.704998,"lng":137.088068,"version":"14.0b/19.0a"},{"town":"太閤山七丁目","koaza":"","lat":36.706706,"lng":137.088399,"version":"14.0b/19.0a"},{"town":"太閤山八丁目","koaza":"","lat":36.70737,"lng":137.090773,"version":"14.0b/19.0a"},{"town":"太閤山九丁目","koaza":"","lat":36.708841,"lng":137.091732,"version":"14.0b/19.0a"},{"town":"大門","koaza":"","lat":36.734461,"lng":137.049116,"version":"14.0b/19.0a"},{"town":"大門島","koaza":"","lat":36.720344,"lng":137.051872,"version":"14.0b/19.0a"},{"town":"大門新","koaza":"","lat":36.735024,"lng":137.045662,"version":"14.0b/19.0a"},{"town":"大門本江","koaza":"","lat":36.715086,"lng":137.055691,"version":"14.0b/19.0a"},{"town":"高木","koaza":"","lat":36.743219,"lng":137.083199,"version":"14.0b/19.0a"},{"town":"高場新町一丁目","koaza":"","lat":36.756009,"lng":137.116944,"version":"14.0b/19.0a"},{"town":"高場新町二丁目","koaza":"","lat":36.755807,"lng":137.114827,"version":"14.0b/19.0a"},{"town":"高場新町三丁目","koaza":"","lat":36.753869,"lng":137.115374,"version":"14.0b/19.0a"},{"town":"高場新町四丁目","koaza":"","lat":36.75237,"lng":137.115566,"version":"14.0b/19.0a"},{"town":"竹鼻","koaza":"","lat":36.711843,"lng":137.062937,"version":"14.0b/19.0a"},{"town":"立町","koaza":"","lat":36.779855,"lng":137.088348,"version":"14.0b/19.0a"},{"town":"棚田","koaza":"","lat":36.718978,"lng":137.061446,"version":"14.0b/19.0a"},{"town":"中央町","koaza":"","lat":36.779452,"lng":137.084705,"version":"14.0b/19.0a"},{"town":"塚越","koaza":"","lat":36.698807,"lng":137.121174,"version":"14.0b/19.0a"},{"town":"津幡江","koaza":"","lat":36.749015,"lng":137.106769,"version":"14.0b/19.0a"},{"town":"円池","koaza":"","lat":36.699697,"lng":137.053175,"version":"14.0b/19.0a"},{"town":"手崎","koaza":"","lat":36.720942,"lng":137.116878,"version":"14.0b/19.0a"},{"town":"寺塚原","koaza":"","lat":36.752595,"lng":137.056792,"version":"14.0b/19.0a"},{"town":"東明七軒","koaza":"","lat":36.761457,"lng":137.153343,"version":"14.0b/19.0a"},{"town":"東明中町","koaza":"","lat":36.763662,"lng":137.147486,"version":"14.0b/19.0a"},{"town":"東明西町","koaza":"","lat":36.76531,"lng":137.143442,"version":"14.0b/19.0a"},{"town":"東明東町","koaza":"","lat":36.762444,"lng":137.150143,"version":"14.0b/19.0a"},{"town":"土代","koaza":"","lat":36.692531,"lng":137.116143,"version":"14.0b/19.0a"},{"town":"鳥取","koaza":"","lat":36.737001,"lng":137.077258,"version":"14.0b/19.0a"},{"town":"殿村","koaza":"","lat":36.74522,"lng":137.091512,"version":"14.0b/19.0a"},{"town":"中老田","koaza":"","lat":36.697183,"lng":137.119075,"version":"14.0b/19.0a"},{"town":"中老田新","koaza":"","lat":36.700929,"lng":137.116387,"version":"14.0b/19.0a"},{"town":"中新湊","koaza":"","lat":36.776873,"lng":137.08832,"version":"14.0b/19.0a"},{"town":"中太閤山十丁目","koaza":"","lat":36.701111,"lng":137.092912,"version":"14.0b/19.0a"},{"town":"中太閤山十一丁目","koaza":"","lat":36.701288,"lng":137.094978,"version":"14.0b/19.0a"},{"town":"中太閤山十二丁目","koaza":"","lat":36.702236,"lng":137.09641,"version":"14.0b/19.0a"},{"town":"中太閤山十三丁目","koaza":"","lat":36.700855,"lng":137.096125,"version":"14.0b/19.0a"},{"town":"中太閤山十四丁目","koaza":"","lat":36.701038,"lng":137.097438,"version":"14.0b/19.0a"},{"town":"中太閤山十五丁目","koaza":"","lat":36.703766,"lng":137.097999,"version":"14.0b/19.0a"},{"town":"中太閤山十六丁目","koaza":"","lat":36.701828,"lng":137.098942,"version":"14.0b/19.0a"},{"town":"中太閤山十七丁目","koaza":"","lat":36.699447,"lng":137.099908,"version":"14.0b/19.0a"},{"town":"中太閤山十八丁目","koaza":"","lat":36.699301,"lng":137.089717,"version":"14.0b/19.0a"},{"town":"中太閤山十九丁目","koaza":"","lat":36.700567,"lng":137.086356,"version":"14.0b/19.0a"},{"town":"中太閤山一丁目","koaza":"","lat":36.703789,"lng":137.095801,"version":"14.0b/19.0a"},{"town":"中太閤山二丁目","koaza":"","lat":36.703567,"lng":137.093087,"version":"14.0b/19.0a"},{"town":"中太閤山三丁目","koaza":"","lat":36.702001,"lng":137.093318,"version":"14.0b/19.0a"},{"town":"中太閤山四丁目","koaza":"","lat":36.702886,"lng":137.090498,"version":"14.0b/19.0a"},{"town":"中太閤山五丁目","koaza":"","lat":36.703574,"lng":137.088209,"version":"14.0b/19.0a"},{"town":"中太閤山六丁目","koaza":"","lat":36.703068,"lng":137.085928,"version":"14.0b/19.0a"},{"town":"中太閤山七丁目","koaza":"","lat":36.702095,"lng":137.088853,"version":"14.0b/19.0a"},{"town":"中太閤山八丁目","koaza":"","lat":36.700675,"lng":137.091007,"version":"14.0b/19.0a"},{"town":"中太閤山九丁目","koaza":"","lat":36.699995,"lng":137.092505,"version":"14.0b/19.0a"},{"town":"中野","koaza":"","lat":36.742225,"lng":137.059505,"version":"14.0b/19.0a"},{"town":"中村","koaza":"","lat":36.721949,"lng":137.054395,"version":"14.0b/19.0a"},{"town":"奈呉の江","koaza":"","lat":36.762551,"lng":137.10034,"version":"14.0b/19.0a"},{"town":"西新湊","koaza":"","lat":36.780411,"lng":137.076429,"version":"14.0b/19.0a"},{"town":"西高木","koaza":"","lat":36.742316,"lng":137.123593,"version":"14.0b/19.0a"},{"town":"西広上","koaza":"","lat":36.702018,"lng":137.015628,"version":"14.0b/19.0a"},{"town":"二の丸町","koaza":"","lat":36.77446,"lng":137.091971,"version":"14.0b/19.0a"},{"town":"布目","koaza":"","lat":36.746302,"lng":137.08019,"version":"14.0b/19.0a"},{"town":"布目沢","koaza":"","lat":36.702897,"lng":137.045855,"version":"14.0b/19.0a"},{"town":"野手","koaza":"","lat":36.665986,"lng":137.066943,"version":"14.0b/19.0a"},{"town":"野村","koaza":"","lat":36.750598,"lng":137.098501,"version":"14.0b/19.0a"},{"town":"橋下条","koaza":"","lat":36.707763,"lng":137.081548,"version":"14.0b/19.0a"},{"town":"八幡町一丁目","koaza":"","lat":36.78169,"lng":137.091582,"version":"14.0b/19.0a"},{"town":"八幡町二丁目","koaza":"","lat":36.779357,"lng":137.096656,"version":"14.0b/19.0a"},{"town":"八幡町三丁目","koaza":"","lat":36.776233,"lng":137.097511,"version":"14.0b/19.0a"},{"town":"八講","koaza":"","lat":36.742786,"lng":137.128123,"version":"14.0b/19.0a"},{"town":"浜開新町","koaza":"","lat":36.766833,"lng":137.138088,"version":"14.0b/19.0a"},{"town":"坂東","koaza":"","lat":36.755964,"lng":137.057095,"version":"14.0b/19.0a"},{"town":"東太閤山一丁目","koaza":"","lat":36.70014,"lng":137.117846,"version":"14.0b/19.0a"},{"town":"東太閤山二丁目","koaza":"","lat":36.699229,"lng":137.117613,"version":"14.0b/19.0a"},{"town":"東太閤山三丁目","koaza":"","lat":36.698119,"lng":137.117458,"version":"14.0b/19.0a"},{"town":"東太閤山四丁目","koaza":"","lat":36.698082,"lng":137.115376,"version":"14.0b/19.0a"},{"town":"日宮","koaza":"","lat":36.703985,"lng":137.085362,"version":"14.0b/19.0a"},{"town":"戸破","koaza":"","lat":36.721682,"lng":137.110661,"version":"14.0b/19.0a"},{"town":"平野","koaza":"","lat":36.689227,"lng":137.09638,"version":"14.0b/19.0a"},{"town":"広上","koaza":"","lat":36.703815,"lng":137.023792,"version":"14.0b/19.0a"},{"town":"枇杷首","koaza":"","lat":36.735323,"lng":137.041358,"version":"14.0b/19.0a"},{"town":"藤巻","koaza":"","lat":36.710142,"lng":137.052856,"version":"14.0b/19.0a"},{"town":"二口","koaza":"","lat":36.725469,"lng":137.056105,"version":"14.0b/19.0a"},{"town":"放生津町","koaza":"","lat":36.782602,"lng":137.085896,"version":"14.0b/19.0a"},{"town":"朴木","koaza":"","lat":36.757772,"lng":137.078532,"version":"14.0b/19.0a"},{"town":"堀江千石","koaza":"","lat":36.766351,"lng":137.125299,"version":"14.0b/19.0a"},{"town":"堀岡","koaza":"","lat":36.772064,"lng":137.124083,"version":"14.0b/19.0a"},{"town":"堀岡新明神","koaza":"","lat":36.775021,"lng":137.112067,"version":"14.0b/19.0a"},{"town":"堀岡古明神","koaza":"","lat":36.769167,"lng":137.134316,"version":"14.0b/19.0a"},{"town":"堀岡明神新","koaza":"","lat":36.773027,"lng":137.119822,"version":"14.0b/19.0a"},{"town":"堀内","koaza":"","lat":36.714425,"lng":137.050206,"version":"14.0b/19.0a"},{"town":"本開発","koaza":"","lat":36.728786,"lng":137.082865,"version":"14.0b/19.0a"},{"town":"本江","koaza":"","lat":36.758345,"lng":137.172965,"version":"14.0b/19.0a"},{"town":"本江北","koaza":"","lat":36.754113,"lng":137.17102,"version":"14.0b/19.0a"},{"town":"本江三箇","koaza":"","lat":36.75954,"lng":137.170521,"version":"14.0b/19.0a"},{"town":"本江利波","koaza":"","lat":36.746071,"lng":137.167106,"version":"14.0b/19.0a"},{"town":"本江中","koaza":"","lat":36.748231,"lng":137.169513,"version":"14.0b/19.0a"},{"town":"本江中新","koaza":"","lat":36.753929,"lng":137.168442,"version":"14.0b/19.0a"},{"town":"本江西","koaza":"","lat":36.753281,"lng":137.165793,"version":"14.0b/19.0a"},{"town":"本江針山","koaza":"","lat":36.756298,"lng":137.163023,"version":"14.0b/19.0a"},{"town":"本江針山新","koaza":"","lat":36.757694,"lng":137.160269,"version":"14.0b/19.0a"},{"town":"本江針山開","koaza":"","lat":36.759086,"lng":137.163545,"version":"14.0b/19.0a"},{"town":"本江東","koaza":"","lat":36.752193,"lng":137.178353,"version":"14.0b/19.0a"},{"town":"本江南","koaza":"","lat":36.745087,"lng":137.16723,"version":"14.0b/19.0a"},{"town":"本田","koaza":"","lat":36.718412,"lng":137.07183,"version":"14.0b/19.0a"},{"town":"本町一丁目","koaza":"","lat":36.783698,"lng":137.076426,"version":"14.0b/19.0a"},{"town":"本町二丁目","koaza":"","lat":36.783051,"lng":137.079598,"version":"14.0b/19.0a"},{"town":"本町三丁目","koaza":"","lat":36.781917,"lng":137.081947,"version":"14.0b/19.0a"},{"town":"松木","koaza":"","lat":36.761477,"lng":137.06992,"version":"14.0b/19.0a"},{"town":"三日曽根","koaza":"","lat":36.778922,"lng":137.079719,"version":"14.0b/19.0a"},{"town":"水戸田","koaza":"","lat":36.707442,"lng":137.071885,"version":"14.0b/19.0a"},{"town":"緑町","koaza":"","lat":36.775036,"lng":137.081535,"version":"14.0b/19.0a"},{"town":"港町","koaza":"","lat":36.786868,"lng":137.077598,"version":"14.0b/19.0a"},{"town":"南太閤山十丁目","koaza":"","lat":36.69686,"lng":137.092052,"version":"14.0b/19.0a"},{"town":"南太閤山十一丁目","koaza":"","lat":36.696985,"lng":137.094147,"version":"14.0b/19.0a"},{"town":"南太閤山十二丁目","koaza":"","lat":36.696973,"lng":137.096217,"version":"14.0b/19.0a"},{"town":"南太閤山十三丁目","koaza":"","lat":36.697609,"lng":137.097523,"version":"14.0b/19.0a"},{"town":"南太閤山十四丁目","koaza":"","lat":36.698289,"lng":137.098545,"version":"14.0b/19.0a"},{"town":"南太閤山十五丁目","koaza":"","lat":36.696397,"lng":137.099195,"version":"14.0b/19.0a"},{"town":"南太閤山十六丁目","koaza":"","lat":36.694417,"lng":137.097218,"version":"14.0b/19.0a"},{"town":"南太閤山十七丁目","koaza":"","lat":36.694845,"lng":137.09347,"version":"14.0b/19.0a"},{"town":"南太閤山十八丁目","koaza":"","lat":36.695695,"lng":137.088474,"version":"14.0b/19.0a"},{"town":"南太閤山十九丁目","koaza":"","lat":36.695566,"lng":137.084793,"version":"14.0b/19.0a"},{"town":"南太閤山一丁目","koaza":"","lat":36.699551,"lng":137.097164,"version":"14.0b/19.0a"},{"town":"南太閤山二丁目","koaza":"","lat":36.698841,"lng":137.093533,"version":"14.0b/19.0a"},{"town":"南太閤山三丁目","koaza":"","lat":36.69844,"lng":137.091362,"version":"14.0b/19.0a"},{"town":"南太閤山四丁目","koaza":"","lat":36.697593,"lng":137.090006,"version":"14.0b/19.0a"},{"town":"南太閤山五丁目","koaza":"","lat":36.697587,"lng":137.088304,"version":"14.0b/19.0a"},{"town":"南太閤山六丁目","koaza":"","lat":36.697781,"lng":137.086902,"version":"14.0b/19.0a"},{"town":"南太閤山七丁目","koaza":"","lat":36.699425,"lng":137.08257,"version":"14.0b/19.0a"},{"town":"南太閤山八丁目","koaza":"","lat":36.696241,"lng":137.088692,"version":"14.0b/19.0a"},{"town":"南太閤山九丁目","koaza":"","lat":36.69518,"lng":137.094803,"version":"14.0b/19.0a"},{"town":"南高木","koaza":"","lat":36.739202,"lng":137.07408,"version":"14.0b/19.0a"},{"town":"八島","koaza":"","lat":36.755582,"lng":137.149791,"version":"14.0b/19.0a"},{"town":"安吉","koaza":"","lat":36.721464,"lng":137.068272,"version":"14.0b/19.0a"},{"town":"八塚","koaza":"","lat":36.729236,"lng":137.059349,"version":"14.0b/19.0a"},{"town":"山本","koaza":"","lat":36.684059,"lng":137.104621,"version":"14.0b/19.0a"},{"town":"山本新","koaza":"","lat":36.687712,"lng":137.111993,"version":"14.0b/19.0a"},{"town":"山屋","koaza":"","lat":36.751203,"lng":137.160019,"version":"14.0b/19.0a"},{"town":"流通センター青井谷一丁目","koaza":"","lat":36.694464,"lng":137.065447,"version":"14.0b/19.0a"},{"town":"流通センター青井谷二丁目","koaza":"","lat":36.696185,"lng":137.070275,"version":"14.0b/19.0a"},{"town":"流通センター下条一丁目","koaza":"","lat":36.69844,"lng":137.071844,"version":"14.0b/19.0a"},{"town":"流通センター水戸田二丁目","koaza":"","lat":36.697954,"lng":137.066085,"version":"14.0b/19.0a"},{"town":"流通センター水戸田三丁目","koaza":"","lat":36.698831,"lng":137.069149,"version":"14.0b/19.0a"},{"town":"若杉","koaza":"","lat":36.744253,"lng":137.055577,"version":"14.0b/19.0a"},{"town":"若林","koaza":"","lat":36.710864,"lng":137.065199,"version":"14.0b/19.0a"},{"town":"鷲塚","koaza":"","lat":36.72133,"lng":137.125007,"version":"14.0b/19.0a"},{"town":"作道","koaza":"","lat":36.755717,"lng":137.09028,"version":"14.0b/19.0a"},{"town":"神楽町","koaza":"","lat":36.760913,"lng":137.083243,"version":"14.0b/19.0a"},{"town":"川口宮袋入会地","koaza":"","lat":36.765857,"lng":137.051499,"version":"14.0b/19.0a"},{"town":"串田","koaza":"","lat":36.691829,"lng":137.042553,"version":"14.0b/19.0a"},{"town":"生源寺新","koaza":"","lat":36.689406,"lng":137.045793,"version":"14.0b/19.0a"},{"town":"上野","koaza":"","lat":36.69324,"lng":137.083947,"version":"14.0b/19.0a"},{"town":"入会地","koaza":"","lat":36.675591,"lng":137.08325,"version":"14.0b/19.0a"},{"town":"上条","koaza":"","lat":36.712009,"lng":137.032286,"version":"14.0b/19.0a"},{"town":"土合","koaza":"","lat":36.722752,"lng":137.039161,"version":"14.0b/19.0a"},{"town":"本開発","koaza":"代官免","lat":36.730128,"lng":137.084455,"version":"14.0b/19.0a"},{"town":"戸破","koaza":"元町","lat":36.713394,"lng":137.097277,"version":"14.0b/19.0a"},{"town":"三ケ","koaza":"本中町","lat":36.722903,"lng":137.093978,"version":"14.0b/19.0a"},{"town":"戸破","koaza":"荒町","lat":36.722176,"lng":137.10128,"version":"14.0b/19.0a"},{"town":"本江","koaza":"後新","lat":36.757602,"lng":137.171904,"version":"14.0b/19.0a"},{"town":"橋下条","koaza":"二の井","lat":36.707863,"lng":137.082621,"version":"14.0b/19.0a"},{"town":"戸破","koaza":"若葉町","lat":36.718314,"lng":137.102458,"version":"14.0b/19.0a"}]