[{"town":"阿木","koaza":"","lat":35.401929,"lng":137.516414,"version":"13.0b/18.0a"},{"town":"飯沼","koaza":"","lat":35.42266,"lng":137.472622,"version":"13.0b/18.0a"},{"town":"上野","koaza":"","lat":35.600572,"lng":137.48267,"version":"13.0b/18.0a"},{"town":"えびす町","koaza":"","lat":35.495787,"lng":137.505988,"version":"13.0b/18.0a"},{"town":"太田町一丁目","koaza":"","lat":35.500783,"lng":137.506323,"version":"13.0b/18.0a"},{"town":"太田町二丁目","koaza":"","lat":35.499761,"lng":137.503849,"version":"13.0b/18.0a"},{"town":"太田町三丁目","koaza":"","lat":35.497792,"lng":137.502796,"version":"13.0b/18.0a"},{"town":"小川町","koaza":"","lat":35.500961,"lng":137.501102,"version":"13.0b/18.0a"},{"town":"落合","koaza":"","lat":35.497236,"lng":137.550542,"version":"13.0b/18.0a"},{"town":"加子母","koaza":"","lat":35.733716,"lng":137.401406,"version":"13.0b/18.0a"},{"town":"かやの木町","koaza":"","lat":35.486456,"lng":137.500888,"version":"13.0b/18.0a"},{"town":"川上","koaza":"","lat":35.636974,"lng":137.508192,"version":"13.0b/18.0a"},{"town":"北野町","koaza":"","lat":35.504147,"lng":137.501243,"version":"13.0b/18.0a"},{"town":"駒場","koaza":"","lat":35.494965,"lng":137.478459,"version":"13.0b/18.0a"},{"town":"駒場町","koaza":"","lat":35.491468,"lng":137.496712,"version":"13.0b/18.0a"},{"town":"栄町","koaza":"","lat":35.502482,"lng":137.504549,"version":"13.0b/18.0a"},{"town":"坂下","koaza":"","lat":35.574018,"lng":137.512804,"version":"13.0b/18.0a"},{"town":"下野","koaza":"","lat":35.586539,"lng":137.467015,"version":"13.0b/18.0a"},{"town":"昭和町","koaza":"","lat":35.492111,"lng":137.504849,"version":"13.0b/18.0a"},{"town":"新町","koaza":"","lat":35.497194,"lng":137.505093,"version":"13.0b/18.0a"},{"town":"瀬戸","koaza":"","lat":35.527499,"lng":137.520558,"version":"13.0b/18.0a"},{"town":"千旦林","koaza":"","lat":35.476103,"lng":137.46798,"version":"13.0b/18.0a"},{"town":"高山","koaza":"","lat":35.534692,"lng":137.431558,"version":"13.0b/18.0a"},{"town":"田瀬","koaza":"","lat":35.629438,"lng":137.473364,"version":"13.0b/18.0a"},{"town":"付知町","koaza":"","lat":35.664541,"lng":137.439574,"version":"13.0b/18.0a"},{"town":"津島町","koaza":"","lat":35.493449,"lng":137.494278,"version":"13.0b/18.0a"},{"town":"手賀野","koaza":"","lat":35.463705,"lng":137.501971,"version":"13.0b/18.0a"},{"town":"苗木","koaza":"","lat":35.531772,"lng":137.472815,"version":"13.0b/18.0a"},{"town":"中一色町","koaza":"","lat":35.491373,"lng":137.510108,"version":"13.0b/18.0a"},{"town":"中川町","koaza":"","lat":35.505808,"lng":137.504065,"version":"13.0b/18.0a"},{"town":"中津川","koaza":"","lat":35.455883,"lng":137.544713,"version":"13.0b/18.0a"},{"town":"茄子川","koaza":"","lat":35.465086,"lng":137.456551,"version":"13.0b/18.0a"},{"town":"西宮町","koaza":"","lat":35.493472,"lng":137.503109,"version":"13.0b/18.0a"},{"town":"八幡町","koaza":"","lat":35.490441,"lng":137.502528,"version":"13.0b/18.0a"},{"town":"花戸町","koaza":"","lat":35.494246,"lng":137.5071,"version":"13.0b/18.0a"},{"town":"東町","koaza":"","lat":35.498421,"lng":137.509427,"version":"13.0b/18.0a"},{"town":"東宮町","koaza":"","lat":35.496164,"lng":137.509702,"version":"13.0b/18.0a"},{"town":"日の出町","koaza":"","lat":35.492951,"lng":137.511342,"version":"13.0b/18.0a"},{"town":"蛭川","koaza":"","lat":35.523642,"lng":137.38301,"version":"13.0b/18.0a"},{"town":"福岡","koaza":"","lat":35.578346,"lng":137.427377,"version":"13.0b/18.0a"},{"town":"本町一丁目","koaza":"","lat":35.496632,"lng":137.501905,"version":"13.0b/18.0a"},{"town":"本町二丁目","koaza":"","lat":35.494919,"lng":137.502542,"version":"13.0b/18.0a"},{"town":"本町三丁目","koaza":"","lat":35.495221,"lng":137.499876,"version":"13.0b/18.0a"},{"town":"本町四丁目","koaza":"","lat":35.492306,"lng":137.50037,"version":"13.0b/18.0a"},{"town":"馬籠","koaza":"","lat":35.528394,"lng":137.56527,"version":"13.0b/18.0a"},{"town":"神坂","koaza":"","lat":35.489982,"lng":137.596985,"version":"13.0b/18.0a"},{"town":"宮前町","koaza":"","lat":35.505091,"lng":137.506531,"version":"13.0b/18.0a"},{"town":"桃山町","koaza":"","lat":35.498738,"lng":137.499577,"version":"13.0b/18.0a"},{"town":"柳町","koaza":"","lat":35.493845,"lng":137.497382,"version":"13.0b/18.0a"},{"town":"山口","koaza":"","lat":35.56018,"lng":137.552868,"version":"13.0b/18.0a"},{"town":"淀川町","koaza":"","lat":35.498236,"lng":137.507512,"version":"13.0b/18.0a"},{"town":"茄子川","koaza":"堤下","lat":35.460865,"lng":137.4454,"version":"13.0b/18.0a"},{"town":"茄子川","koaza":"青木","lat":35.461575,"lng":137.452366,"version":"13.0b/18.0a"},{"town":"茄子川","koaza":"中垣外","lat":35.464294,"lng":137.458223,"version":"13.0b/18.0a"},{"town":"苗木","koaza":"柳ノ木","lat":35.520267,"lng":137.476388,"version":"13.0b/18.0a"},{"town":"苗木","koaza":"那木","lat":35.513985,"lng":137.478694,"version":"13.0b/18.0a"},{"town":"駒場","koaza":"後洞","lat":35.481331,"lng":137.486329,"version":"13.0b/18.0a"},{"town":"手賀野","koaza":"上巾","lat":35.482389,"lng":137.499012,"version":"13.0b/18.0a"},{"town":"中津川","koaza":"新田","lat":35.496047,"lng":137.5133,"version":"13.0b/18.0a"},{"town":"駒場","koaza":"大岩","lat":35.503567,"lng":137.494035,"version":"13.0b/18.0a"},{"town":"阿木","koaza":"","lat":35.401929,"lng":137.516414,"version":"14.0b/19.0a"},{"town":"飯沼","koaza":"","lat":35.42266,"lng":137.472622,"version":"14.0b/19.0a"},{"town":"上野","koaza":"","lat":35.600572,"lng":137.48267,"version":"14.0b/19.0a"},{"town":"えびす町","koaza":"","lat":35.495787,"lng":137.505988,"version":"14.0b/19.0a"},{"town":"太田町一丁目","koaza":"","lat":35.500783,"lng":137.506323,"version":"14.0b/19.0a"},{"town":"太田町二丁目","koaza":"","lat":35.499761,"lng":137.503849,"version":"14.0b/19.0a"},{"town":"太田町三丁目","koaza":"","lat":35.497792,"lng":137.502796,"version":"14.0b/19.0a"},{"town":"小川町","koaza":"","lat":35.500961,"lng":137.501102,"version":"14.0b/19.0a"},{"town":"落合","koaza":"","lat":35.497236,"lng":137.550542,"version":"14.0b/19.0a"},{"town":"加子母","koaza":"","lat":35.733716,"lng":137.401406,"version":"14.0b/19.0a"},{"town":"かやの木町","koaza":"","lat":35.486456,"lng":137.500888,"version":"14.0b/19.0a"},{"town":"川上","koaza":"","lat":35.636974,"lng":137.508192,"version":"14.0b/19.0a"},{"town":"北野町","koaza":"","lat":35.504147,"lng":137.501243,"version":"14.0b/19.0a"},{"town":"駒場","koaza":"","lat":35.494965,"lng":137.478459,"version":"14.0b/19.0a"},{"town":"駒場町","koaza":"","lat":35.491468,"lng":137.496712,"version":"14.0b/19.0a"},{"town":"栄町","koaza":"","lat":35.502482,"lng":137.504549,"version":"14.0b/19.0a"},{"town":"坂下","koaza":"","lat":35.574018,"lng":137.512804,"version":"14.0b/19.0a"},{"town":"下野","koaza":"","lat":35.586539,"lng":137.467015,"version":"14.0b/19.0a"},{"town":"昭和町","koaza":"","lat":35.492111,"lng":137.504849,"version":"14.0b/19.0a"},{"town":"新町","koaza":"","lat":35.497194,"lng":137.505093,"version":"14.0b/19.0a"},{"town":"瀬戸","koaza":"","lat":35.527499,"lng":137.520558,"version":"14.0b/19.0a"},{"town":"千旦林","koaza":"","lat":35.476103,"lng":137.46798,"version":"14.0b/19.0a"},{"town":"高山","koaza":"","lat":35.534692,"lng":137.431558,"version":"14.0b/19.0a"},{"town":"田瀬","koaza":"","lat":35.629438,"lng":137.473364,"version":"14.0b/19.0a"},{"town":"付知町","koaza":"","lat":35.664541,"lng":137.439574,"version":"14.0b/19.0a"},{"town":"津島町","koaza":"","lat":35.493449,"lng":137.494278,"version":"14.0b/19.0a"},{"town":"手賀野","koaza":"","lat":35.463705,"lng":137.501971,"version":"14.0b/19.0a"},{"town":"苗木","koaza":"","lat":35.531772,"lng":137.472815,"version":"14.0b/19.0a"},{"town":"中一色町","koaza":"","lat":35.491373,"lng":137.510108,"version":"14.0b/19.0a"},{"town":"中川町","koaza":"","lat":35.505808,"lng":137.504065,"version":"14.0b/19.0a"},{"town":"中津川","koaza":"","lat":35.455883,"lng":137.544713,"version":"14.0b/19.0a"},{"town":"茄子川","koaza":"","lat":35.465086,"lng":137.456551,"version":"14.0b/19.0a"},{"town":"西宮町","koaza":"","lat":35.493472,"lng":137.503109,"version":"14.0b/19.0a"},{"town":"八幡町","koaza":"","lat":35.490441,"lng":137.502528,"version":"14.0b/19.0a"},{"town":"花戸町","koaza":"","lat":35.494246,"lng":137.5071,"version":"14.0b/19.0a"},{"town":"東町","koaza":"","lat":35.498421,"lng":137.509427,"version":"14.0b/19.0a"},{"town":"東宮町","koaza":"","lat":35.496164,"lng":137.509702,"version":"14.0b/19.0a"},{"town":"日の出町","koaza":"","lat":35.492951,"lng":137.511342,"version":"14.0b/19.0a"},{"town":"蛭川","koaza":"","lat":35.523642,"lng":137.38301,"version":"14.0b/19.0a"},{"town":"福岡","koaza":"","lat":35.578346,"lng":137.427377,"version":"14.0b/19.0a"},{"town":"本町一丁目","koaza":"","lat":35.496632,"lng":137.501905,"version":"14.0b/19.0a"},{"town":"本町二丁目","koaza":"","lat":35.494919,"lng":137.502542,"version":"14.0b/19.0a"},{"town":"本町三丁目","koaza":"","lat":35.495221,"lng":137.499876,"version":"14.0b/19.0a"},{"town":"本町四丁目","koaza":"","lat":35.492306,"lng":137.50037,"version":"14.0b/19.0a"},{"town":"馬籠","koaza":"","lat":35.528394,"lng":137.56527,"version":"14.0b/19.0a"},{"town":"神坂","koaza":"","lat":35.489982,"lng":137.596985,"version":"14.0b/19.0a"},{"town":"宮前町","koaza":"","lat":35.505091,"lng":137.506531,"version":"14.0b/19.0a"},{"town":"桃山町","koaza":"","lat":35.498738,"lng":137.499577,"version":"14.0b/19.0a"},{"town":"柳町","koaza":"","lat":35.493845,"lng":137.497382,"version":"14.0b/19.0a"},{"town":"山口","koaza":"","lat":35.56018,"lng":137.552868,"version":"14.0b/19.0a"},{"town":"淀川町","koaza":"","lat":35.498236,"lng":137.507512,"version":"14.0b/19.0a"},{"town":"茄子川","koaza":"堤下","lat":35.460865,"lng":137.4454,"version":"14.0b/19.0a"},{"town":"茄子川","koaza":"青木","lat":35.461575,"lng":137.452366,"version":"14.0b/19.0a"},{"town":"茄子川","koaza":"中垣外","lat":35.464294,"lng":137.458223,"version":"14.0b/19.0a"},{"town":"苗木","koaza":"柳ノ木","lat":35.520267,"lng":137.476388,"version":"14.0b/19.0a"},{"town":"苗木","koaza":"那木","lat":35.513985,"lng":137.478694,"version":"14.0b/19.0a"},{"town":"駒場","koaza":"後洞","lat":35.481331,"lng":137.486329,"version":"14.0b/19.0a"},{"town":"手賀野","koaza":"上巾","lat":35.482389,"lng":137.499012,"version":"14.0b/19.0a"},{"town":"中津川","koaza":"新田","lat":35.496047,"lng":137.5133,"version":"14.0b/19.0a"},{"town":"駒場","koaza":"大岩","lat":35.503567,"lng":137.494035,"version":"14.0b/19.0a"}]