[{"town":"相生町","koaza":"","lat":35.366834,"lng":136.764894,"version":"13.0b/18.0a"},{"town":"朝日町","koaza":"","lat":35.364506,"lng":136.759197,"version":"13.0b/18.0a"},{"town":"泉町","koaza":"","lat":35.364601,"lng":136.757699,"version":"13.0b/18.0a"},{"town":"江川","koaza":"","lat":35.375396,"lng":136.802107,"version":"13.0b/18.0a"},{"town":"円城寺","koaza":"","lat":35.375255,"lng":136.785144,"version":"13.0b/18.0a"},{"town":"大池町","koaza":"","lat":35.368123,"lng":136.756398,"version":"13.0b/18.0a"},{"town":"春日町","koaza":"","lat":35.374855,"lng":136.762213,"version":"13.0b/18.0a"},{"town":"門間","koaza":"","lat":35.353927,"lng":136.73874,"version":"13.0b/18.0a"},{"town":"上新町","koaza":"","lat":35.372369,"lng":136.761229,"version":"13.0b/18.0a"},{"town":"上本町","koaza":"","lat":35.367356,"lng":136.762015,"version":"13.0b/18.0a"},{"town":"上柳川町","koaza":"","lat":35.366813,"lng":136.759331,"version":"13.0b/18.0a"},{"town":"如月町","koaza":"","lat":35.372808,"lng":136.759468,"version":"13.0b/18.0a"},{"town":"北及","koaza":"","lat":35.352092,"lng":136.747455,"version":"13.0b/18.0a"},{"town":"清住町","koaza":"","lat":35.369663,"lng":136.757296,"version":"13.0b/18.0a"},{"town":"県町","koaza":"","lat":35.368252,"lng":136.764131,"version":"13.0b/18.0a"},{"town":"米野","koaza":"","lat":35.378516,"lng":136.811242,"version":"13.0b/18.0a"},{"town":"桜町","koaza":"","lat":35.372169,"lng":136.754661,"version":"13.0b/18.0a"},{"town":"下新町","koaza":"","lat":35.369975,"lng":136.76,"version":"13.0b/18.0a"},{"town":"下本町","koaza":"","lat":35.365545,"lng":136.76161,"version":"13.0b/18.0a"},{"town":"下柳川町","koaza":"","lat":35.365915,"lng":136.758484,"version":"13.0b/18.0a"},{"town":"松栄町","koaza":"","lat":35.377017,"lng":136.763718,"version":"13.0b/18.0a"},{"town":"新町","koaza":"","lat":35.368529,"lng":136.760836,"version":"13.0b/18.0a"},{"town":"司町","koaza":"","lat":35.366419,"lng":136.763094,"version":"13.0b/18.0a"},{"town":"月美町","koaza":"","lat":35.377609,"lng":136.760963,"version":"13.0b/18.0a"},{"town":"田代","koaza":"","lat":35.362054,"lng":136.753286,"version":"13.0b/18.0a"},{"town":"天王町","koaza":"","lat":35.368902,"lng":136.75854,"version":"13.0b/18.0a"},{"town":"東陽町","koaza":"","lat":35.37488,"lng":136.763457,"version":"13.0b/18.0a"},{"town":"常盤町","koaza":"","lat":35.374675,"lng":136.760749,"version":"13.0b/18.0a"},{"town":"長池","koaza":"","lat":35.356463,"lng":136.751935,"version":"13.0b/18.0a"},{"town":"中川町","koaza":"","lat":35.373829,"lng":136.757246,"version":"13.0b/18.0a"},{"town":"中新町","koaza":"","lat":35.371058,"lng":136.760442,"version":"13.0b/18.0a"},{"town":"中野","koaza":"","lat":35.373051,"lng":136.79379,"version":"13.0b/18.0a"},{"town":"奈良町","koaza":"","lat":35.372675,"lng":136.763522,"version":"13.0b/18.0a"},{"town":"西金池町","koaza":"","lat":35.374407,"lng":136.765837,"version":"13.0b/18.0a"},{"town":"西町","koaza":"","lat":35.36523,"lng":136.760226,"version":"13.0b/18.0a"},{"town":"西宮町","koaza":"","lat":35.367872,"lng":136.759932,"version":"13.0b/18.0a"},{"town":"羽衣町","koaza":"","lat":35.37551,"lng":136.756403,"version":"13.0b/18.0a"},{"town":"八幡町","koaza":"","lat":35.369608,"lng":136.763166,"version":"13.0b/18.0a"},{"town":"東金池町","koaza":"","lat":35.374755,"lng":136.768546,"version":"13.0b/18.0a"},{"town":"東宮町","koaza":"","lat":35.366343,"lng":136.760852,"version":"13.0b/18.0a"},{"town":"瓢町","koaza":"","lat":35.369506,"lng":136.754344,"version":"13.0b/18.0a"},{"town":"二見町","koaza":"","lat":35.371136,"lng":136.762864,"version":"13.0b/18.0a"},{"town":"美笠通一丁目","koaza":"","lat":35.374219,"lng":136.758865,"version":"13.0b/18.0a"},{"town":"美笠通二丁目","koaza":"","lat":35.371466,"lng":136.757118,"version":"13.0b/18.0a"},{"town":"美笠通三丁目","koaza":"","lat":35.368942,"lng":136.755569,"version":"13.0b/18.0a"},{"town":"緑町","koaza":"","lat":35.376638,"lng":136.760002,"version":"13.0b/18.0a"},{"town":"港町","koaza":"","lat":35.364623,"lng":136.762808,"version":"13.0b/18.0a"},{"town":"宮川町","koaza":"","lat":35.369861,"lng":136.762012,"version":"13.0b/18.0a"},{"town":"無動寺","koaza":"","lat":35.371101,"lng":136.798701,"version":"13.0b/18.0a"},{"town":"門前町","koaza":"","lat":35.367457,"lng":136.757866,"version":"13.0b/18.0a"},{"town":"柳原町","koaza":"","lat":35.363716,"lng":136.760532,"version":"13.0b/18.0a"},{"town":"弥生町","koaza":"","lat":35.371324,"lng":136.758365,"version":"13.0b/18.0a"},{"town":"友楽町","koaza":"","lat":35.371444,"lng":136.755615,"version":"13.0b/18.0a"},{"town":"若葉町","koaza":"","lat":35.370555,"lng":136.766965,"version":"13.0b/18.0a"},{"town":"米野","koaza":"村中","lat":35.380676,"lng":136.808709,"version":"13.0b/18.0a"},{"town":"相生町","koaza":"","lat":35.366834,"lng":136.764894,"version":"14.0b/19.0a"},{"town":"朝日町","koaza":"","lat":35.364506,"lng":136.759197,"version":"14.0b/19.0a"},{"town":"泉町","koaza":"","lat":35.364601,"lng":136.757699,"version":"14.0b/19.0a"},{"town":"江川","koaza":"","lat":35.375396,"lng":136.802107,"version":"14.0b/19.0a"},{"town":"円城寺","koaza":"","lat":35.375255,"lng":136.785144,"version":"14.0b/19.0a"},{"town":"大池町","koaza":"","lat":35.368123,"lng":136.756398,"version":"14.0b/19.0a"},{"town":"春日町","koaza":"","lat":35.374855,"lng":136.762213,"version":"14.0b/19.0a"},{"town":"門間","koaza":"","lat":35.353927,"lng":136.73874,"version":"14.0b/19.0a"},{"town":"上新町","koaza":"","lat":35.372369,"lng":136.761229,"version":"14.0b/19.0a"},{"town":"上本町","koaza":"","lat":35.367356,"lng":136.762015,"version":"14.0b/19.0a"},{"town":"上柳川町","koaza":"","lat":35.366813,"lng":136.759331,"version":"14.0b/19.0a"},{"town":"如月町","koaza":"","lat":35.372808,"lng":136.759468,"version":"14.0b/19.0a"},{"town":"北及","koaza":"","lat":35.352092,"lng":136.747455,"version":"14.0b/19.0a"},{"town":"清住町","koaza":"","lat":35.369663,"lng":136.757296,"version":"14.0b/19.0a"},{"town":"県町","koaza":"","lat":35.368252,"lng":136.764131,"version":"14.0b/19.0a"},{"town":"米野","koaza":"","lat":35.378516,"lng":136.811242,"version":"14.0b/19.0a"},{"town":"桜町","koaza":"","lat":35.372169,"lng":136.754661,"version":"14.0b/19.0a"},{"town":"下新町","koaza":"","lat":35.369975,"lng":136.76,"version":"14.0b/19.0a"},{"town":"下本町","koaza":"","lat":35.365545,"lng":136.76161,"version":"14.0b/19.0a"},{"town":"下柳川町","koaza":"","lat":35.365915,"lng":136.758484,"version":"14.0b/19.0a"},{"town":"松栄町","koaza":"","lat":35.377017,"lng":136.763718,"version":"14.0b/19.0a"},{"town":"新町","koaza":"","lat":35.368529,"lng":136.760836,"version":"14.0b/19.0a"},{"town":"司町","koaza":"","lat":35.366419,"lng":136.763094,"version":"14.0b/19.0a"},{"town":"月美町","koaza":"","lat":35.377609,"lng":136.760963,"version":"14.0b/19.0a"},{"town":"田代","koaza":"","lat":35.362054,"lng":136.753286,"version":"14.0b/19.0a"},{"town":"天王町","koaza":"","lat":35.368902,"lng":136.75854,"version":"14.0b/19.0a"},{"town":"東陽町","koaza":"","lat":35.37488,"lng":136.763457,"version":"14.0b/19.0a"},{"town":"常盤町","koaza":"","lat":35.374675,"lng":136.760749,"version":"14.0b/19.0a"},{"town":"長池","koaza":"","lat":35.356463,"lng":136.751935,"version":"14.0b/19.0a"},{"town":"中川町","koaza":"","lat":35.373829,"lng":136.757246,"version":"14.0b/19.0a"},{"town":"中新町","koaza":"","lat":35.371058,"lng":136.760442,"version":"14.0b/19.0a"},{"town":"中野","koaza":"","lat":35.373051,"lng":136.79379,"version":"14.0b/19.0a"},{"town":"奈良町","koaza":"","lat":35.372675,"lng":136.763522,"version":"14.0b/19.0a"},{"town":"西金池町","koaza":"","lat":35.374407,"lng":136.765837,"version":"14.0b/19.0a"},{"town":"西町","koaza":"","lat":35.36523,"lng":136.760226,"version":"14.0b/19.0a"},{"town":"西宮町","koaza":"","lat":35.367872,"lng":136.759932,"version":"14.0b/19.0a"},{"town":"羽衣町","koaza":"","lat":35.37551,"lng":136.756403,"version":"14.0b/19.0a"},{"town":"八幡町","koaza":"","lat":35.369608,"lng":136.763166,"version":"14.0b/19.0a"},{"town":"東金池町","koaza":"","lat":35.374755,"lng":136.768546,"version":"14.0b/19.0a"},{"town":"東宮町","koaza":"","lat":35.366343,"lng":136.760852,"version":"14.0b/19.0a"},{"town":"瓢町","koaza":"","lat":35.369506,"lng":136.754344,"version":"14.0b/19.0a"},{"town":"二見町","koaza":"","lat":35.371136,"lng":136.762864,"version":"14.0b/19.0a"},{"town":"美笠通一丁目","koaza":"","lat":35.374219,"lng":136.758865,"version":"14.0b/19.0a"},{"town":"美笠通二丁目","koaza":"","lat":35.371466,"lng":136.757118,"version":"14.0b/19.0a"},{"town":"美笠通三丁目","koaza":"","lat":35.368942,"lng":136.755569,"version":"14.0b/19.0a"},{"town":"緑町","koaza":"","lat":35.376638,"lng":136.760002,"version":"14.0b/19.0a"},{"town":"港町","koaza":"","lat":35.364623,"lng":136.762808,"version":"14.0b/19.0a"},{"town":"宮川町","koaza":"","lat":35.369861,"lng":136.762012,"version":"14.0b/19.0a"},{"town":"無動寺","koaza":"","lat":35.371101,"lng":136.798701,"version":"14.0b/19.0a"},{"town":"門前町","koaza":"","lat":35.367457,"lng":136.757866,"version":"14.0b/19.0a"},{"town":"柳原町","koaza":"","lat":35.363716,"lng":136.760532,"version":"14.0b/19.0a"},{"town":"弥生町","koaza":"","lat":35.371324,"lng":136.758365,"version":"14.0b/19.0a"},{"town":"友楽町","koaza":"","lat":35.371444,"lng":136.755615,"version":"14.0b/19.0a"},{"town":"若葉町","koaza":"","lat":35.370555,"lng":136.766965,"version":"14.0b/19.0a"},{"town":"米野","koaza":"村中","lat":35.380676,"lng":136.808709,"version":"14.0b/19.0a"}]