[{"town":"旭町","koaza":"","lat":34.474406,"lng":136.695607,"version":"13.0b/18.0a"},{"town":"朝熊町","koaza":"","lat":34.475959,"lng":136.779724,"version":"13.0b/18.0a"},{"town":"有滝町","koaza":"","lat":34.539991,"lng":136.698426,"version":"13.0b/18.0a"},{"town":"粟野町","koaza":"","lat":34.484636,"lng":136.665062,"version":"13.0b/18.0a"},{"town":"磯町","koaza":"","lat":34.517387,"lng":136.697449,"version":"13.0b/18.0a"},{"town":"一宇田町","koaza":"","lat":34.470123,"lng":136.752992,"version":"13.0b/18.0a"},{"town":"一志町","koaza":"","lat":34.49092,"lng":136.703791,"version":"13.0b/18.0a"},{"town":"一之木一丁目","koaza":"","lat":34.493243,"lng":136.704345,"version":"13.0b/18.0a"},{"town":"一之木二丁目","koaza":"","lat":34.494954,"lng":136.705451,"version":"13.0b/18.0a"},{"town":"一之木三丁目","koaza":"","lat":34.496612,"lng":136.706541,"version":"13.0b/18.0a"},{"town":"一之木四丁目","koaza":"","lat":34.501402,"lng":136.705749,"version":"13.0b/18.0a"},{"town":"一之木五丁目","koaza":"","lat":34.501482,"lng":136.708804,"version":"13.0b/18.0a"},{"town":"一色町","koaza":"","lat":34.506761,"lng":136.746528,"version":"13.0b/18.0a"},{"town":"岩渕一丁目","koaza":"","lat":34.48764,"lng":136.710309,"version":"13.0b/18.0a"},{"town":"岩渕二丁目","koaza":"","lat":34.487562,"lng":136.714595,"version":"13.0b/18.0a"},{"town":"岩渕三丁目","koaza":"","lat":34.48695,"lng":136.717564,"version":"13.0b/18.0a"},{"town":"岩渕町","koaza":"","lat":34.485795,"lng":136.719692,"version":"13.0b/18.0a"},{"town":"上地町","koaza":"","lat":34.492261,"lng":136.659692,"version":"13.0b/18.0a"},{"town":"上野町","koaza":"","lat":34.425861,"lng":136.666631,"version":"13.0b/18.0a"},{"town":"植山町","koaza":"","lat":34.532838,"lng":136.684769,"version":"13.0b/18.0a"},{"town":"宇治今在家町","koaza":"","lat":34.423472,"lng":136.729814,"version":"13.0b/18.0a"},{"town":"宇治浦田一丁目","koaza":"","lat":34.466638,"lng":136.724056,"version":"13.0b/18.0a"},{"town":"宇治浦田二丁目","koaza":"","lat":34.468004,"lng":136.719809,"version":"13.0b/18.0a"},{"town":"宇治浦田三丁目","koaza":"","lat":34.466998,"lng":136.716134,"version":"13.0b/18.0a"},{"town":"宇治浦田町","koaza":"","lat":34.462942,"lng":136.71743,"version":"13.0b/18.0a"},{"town":"宇治館町","koaza":"","lat":34.439827,"lng":136.762276,"version":"13.0b/18.0a"},{"town":"宇治中之切町","koaza":"","lat":34.462473,"lng":136.721516,"version":"13.0b/18.0a"},{"town":"浦口一丁目","koaza":"","lat":34.494564,"lng":136.692628,"version":"13.0b/18.0a"},{"town":"浦口二丁目","koaza":"","lat":34.492586,"lng":136.694513,"version":"13.0b/18.0a"},{"town":"浦口三丁目","koaza":"","lat":34.489049,"lng":136.693721,"version":"13.0b/18.0a"},{"town":"浦口四丁目","koaza":"","lat":34.485186,"lng":136.691636,"version":"13.0b/18.0a"},{"town":"浦口町","koaza":"","lat":34.478585,"lng":136.691112,"version":"13.0b/18.0a"},{"town":"円座町","koaza":"","lat":34.441523,"lng":136.64902,"version":"13.0b/18.0a"},{"town":"大倉町","koaza":"","lat":34.474726,"lng":136.67436,"version":"13.0b/18.0a"},{"town":"大世古一丁目","koaza":"","lat":34.492888,"lng":136.702604,"version":"13.0b/18.0a"},{"town":"大世古二丁目","koaza":"","lat":34.495655,"lng":136.703039,"version":"13.0b/18.0a"},{"town":"大世古三丁目","koaza":"","lat":34.497749,"lng":136.703041,"version":"13.0b/18.0a"},{"town":"大世古四丁目","koaza":"","lat":34.499609,"lng":136.703131,"version":"13.0b/18.0a"},{"town":"大湊町","koaza":"","lat":34.528614,"lng":136.73788,"version":"13.0b/18.0a"},{"town":"岡本一丁目","koaza":"","lat":34.484848,"lng":136.711499,"version":"13.0b/18.0a"},{"town":"岡本二丁目","koaza":"","lat":34.4828,"lng":136.713016,"version":"13.0b/18.0a"},{"town":"岡本三丁目","koaza":"","lat":34.482895,"lng":136.708156,"version":"13.0b/18.0a"},{"town":"尾上町","koaza":"","lat":34.484689,"lng":136.717382,"version":"13.0b/18.0a"},{"town":"小俣町明野","koaza":"","lat":34.527054,"lng":136.670853,"version":"13.0b/18.0a"},{"town":"小俣町新村","koaza":"","lat":34.517264,"lng":136.656229,"version":"13.0b/18.0a"},{"town":"小俣町相合","koaza":"","lat":34.511496,"lng":136.665704,"version":"13.0b/18.0a"},{"town":"小俣町本町","koaza":"","lat":34.501813,"lng":136.66712,"version":"13.0b/18.0a"},{"town":"小俣町宮前","koaza":"","lat":34.496636,"lng":136.67628,"version":"13.0b/18.0a"},{"town":"小俣町元町","koaza":"","lat":34.507769,"lng":136.679618,"version":"13.0b/18.0a"},{"town":"小俣町湯田","koaza":"","lat":34.505551,"lng":136.650676,"version":"13.0b/18.0a"},{"town":"柏町","koaza":"","lat":34.542924,"lng":136.653278,"version":"13.0b/18.0a"},{"town":"樫原町","koaza":"","lat":34.531318,"lng":136.722086,"version":"13.0b/18.0a"},{"town":"鹿海町","koaza":"","lat":34.490574,"lng":136.747353,"version":"13.0b/18.0a"},{"town":"神薗町","koaza":"","lat":34.431752,"lng":136.64187,"version":"13.0b/18.0a"},{"town":"神社港","koaza":"","lat":34.512693,"lng":136.734118,"version":"13.0b/18.0a"},{"town":"河崎一丁目","koaza":"","lat":34.494978,"lng":136.712503,"version":"13.0b/18.0a"},{"town":"河崎二丁目","koaza":"","lat":34.494919,"lng":136.714948,"version":"13.0b/18.0a"},{"town":"河崎三丁目","koaza":"","lat":34.494318,"lng":136.716674,"version":"13.0b/18.0a"},{"town":"川端町","koaza":"","lat":34.489299,"lng":136.681973,"version":"13.0b/18.0a"},{"town":"楠部町","koaza":"","lat":34.47766,"lng":136.738632,"version":"13.0b/18.0a"},{"town":"久世戸町","koaza":"","lat":34.480405,"lng":136.724619,"version":"13.0b/18.0a"},{"town":"黒瀬町","koaza":"","lat":34.493252,"lng":136.735395,"version":"13.0b/18.0a"},{"town":"小木町","koaza":"","lat":34.504903,"lng":136.725621,"version":"13.0b/18.0a"},{"town":"神田久志本町","koaza":"","lat":34.489397,"lng":136.726414,"version":"13.0b/18.0a"},{"town":"桜木町","koaza":"","lat":34.472875,"lng":136.716475,"version":"13.0b/18.0a"},{"town":"下野町","koaza":"","lat":34.516158,"lng":136.737762,"version":"13.0b/18.0a"},{"town":"神久一丁目","koaza":"","lat":34.490395,"lng":136.717838,"version":"13.0b/18.0a"},{"town":"神久二丁目","koaza":"","lat":34.491288,"lng":136.720223,"version":"13.0b/18.0a"},{"town":"神久三丁目","koaza":"","lat":34.494583,"lng":136.71898,"version":"13.0b/18.0a"},{"town":"神久四丁目","koaza":"","lat":34.495437,"lng":136.723333,"version":"13.0b/18.0a"},{"town":"神久五丁目","koaza":"","lat":34.497881,"lng":136.722748,"version":"13.0b/18.0a"},{"town":"神久六丁目","koaza":"","lat":34.495725,"lng":136.726996,"version":"13.0b/18.0a"},{"town":"勢田町","koaza":"","lat":34.47059,"lng":136.709939,"version":"13.0b/18.0a"},{"town":"佐八町","koaza":"","lat":34.459856,"lng":136.660912,"version":"13.0b/18.0a"},{"town":"曽祢一丁目","koaza":"","lat":34.49317,"lng":136.7018,"version":"13.0b/18.0a"},{"town":"曽祢二丁目","koaza":"","lat":34.4961,"lng":136.700398,"version":"13.0b/18.0a"},{"town":"竹ケ鼻町","koaza":"","lat":34.507639,"lng":136.730774,"version":"13.0b/18.0a"},{"town":"田尻町","koaza":"","lat":34.501048,"lng":136.73052,"version":"13.0b/18.0a"},{"town":"辻久留一丁目","koaza":"","lat":34.489461,"lng":136.689721,"version":"13.0b/18.0a"},{"town":"辻久留二丁目","koaza":"","lat":34.486238,"lng":136.685453,"version":"13.0b/18.0a"},{"town":"辻久留三丁目","koaza":"","lat":34.480359,"lng":136.684141,"version":"13.0b/18.0a"},{"town":"辻久留町","koaza":"","lat":34.474514,"lng":136.686945,"version":"13.0b/18.0a"},{"town":"津村町","koaza":"","lat":34.451768,"lng":136.660389,"version":"13.0b/18.0a"},{"town":"通町","koaza":"","lat":34.50039,"lng":136.74283,"version":"13.0b/18.0a"},{"town":"常磐一丁目","koaza":"","lat":34.495177,"lng":136.695055,"version":"13.0b/18.0a"},{"town":"常磐二丁目","koaza":"","lat":34.492641,"lng":136.697261,"version":"13.0b/18.0a"},{"town":"常磐三丁目","koaza":"","lat":34.489538,"lng":136.696742,"version":"13.0b/18.0a"},{"town":"常磐町","koaza":"","lat":34.484352,"lng":136.695653,"version":"13.0b/18.0a"},{"town":"豊川町","koaza":"","lat":34.483476,"lng":136.702303,"version":"13.0b/18.0a"},{"town":"中島一丁目","koaza":"","lat":34.494223,"lng":136.686914,"version":"13.0b/18.0a"},{"town":"中島二丁目","koaza":"","lat":34.490411,"lng":136.687008,"version":"13.0b/18.0a"},{"town":"中須町","koaza":"","lat":34.484841,"lng":136.677277,"version":"13.0b/18.0a"},{"town":"中之町","koaza":"","lat":34.476405,"lng":136.721133,"version":"13.0b/18.0a"},{"town":"中村町","koaza":"","lat":34.471347,"lng":136.728518,"version":"13.0b/18.0a"},{"town":"西豊浜町","koaza":"","lat":34.52758,"lng":136.689341,"version":"13.0b/18.0a"},{"town":"野村町","koaza":"","lat":34.525973,"lng":136.662256,"version":"13.0b/18.0a"},{"town":"東大淀町","koaza":"","lat":34.550648,"lng":136.667605,"version":"13.0b/18.0a"},{"town":"東豊浜町","koaza":"","lat":34.535477,"lng":136.713419,"version":"13.0b/18.0a"},{"town":"吹上一丁目","koaza":"","lat":34.490893,"lng":136.710633,"version":"13.0b/18.0a"},{"town":"吹上二丁目","koaza":"","lat":34.490746,"lng":136.714601,"version":"13.0b/18.0a"},{"town":"藤里町","koaza":"","lat":34.468148,"lng":136.700309,"version":"13.0b/18.0a"},{"town":"二俣一丁目","koaza":"","lat":34.491489,"lng":136.69155,"version":"13.0b/18.0a"},{"town":"二俣二丁目","koaza":"","lat":34.488454,"lng":136.69119,"version":"13.0b/18.0a"},{"town":"二俣三丁目","koaza":"","lat":34.48631,"lng":136.688688,"version":"13.0b/18.0a"},{"town":"二俣四丁目","koaza":"","lat":34.481837,"lng":136.689149,"version":"13.0b/18.0a"},{"town":"二俣町","koaza":"","lat":34.477956,"lng":136.685618,"version":"13.0b/18.0a"},{"town":"二見町今一色","koaza":"","lat":34.518979,"lng":136.750508,"version":"13.0b/18.0a"},{"town":"二見町江","koaza":"","lat":34.50264,"lng":136.789888,"version":"13.0b/18.0a"},{"town":"二見町荘","koaza":"","lat":34.508389,"lng":136.770664,"version":"13.0b/18.0a"},{"town":"二見町茶屋","koaza":"","lat":34.506152,"lng":136.781602,"version":"13.0b/18.0a"},{"town":"二見町西","koaza":"","lat":34.511839,"lng":136.759004,"version":"13.0b/18.0a"},{"town":"二見町光の街","koaza":"","lat":34.495667,"lng":136.762816,"version":"13.0b/18.0a"},{"town":"二見町松下","koaza":"","lat":34.496178,"lng":136.802936,"version":"13.0b/18.0a"},{"town":"二見町溝口","koaza":"","lat":34.502298,"lng":136.757109,"version":"13.0b/18.0a"},{"town":"二見町三津","koaza":"","lat":34.500154,"lng":136.776734,"version":"13.0b/18.0a"},{"town":"二見町山田原","koaza":"","lat":34.500533,"lng":136.765689,"version":"13.0b/18.0a"},{"town":"船江一丁目","koaza":"","lat":34.499808,"lng":136.71307,"version":"13.0b/18.0a"},{"town":"船江二丁目","koaza":"","lat":34.49993,"lng":136.722239,"version":"13.0b/18.0a"},{"town":"船江三丁目","koaza":"","lat":34.502438,"lng":136.718743,"version":"13.0b/18.0a"},{"town":"船江四丁目","koaza":"","lat":34.504719,"lng":136.714516,"version":"13.0b/18.0a"},{"town":"古市町","koaza":"","lat":34.481136,"lng":136.721964,"version":"13.0b/18.0a"},{"town":"本町","koaza":"","lat":34.489162,"lng":136.706362,"version":"13.0b/18.0a"},{"town":"前山町","koaza":"","lat":34.455435,"lng":136.692754,"version":"13.0b/18.0a"},{"town":"馬瀬町","koaza":"","lat":34.518642,"lng":136.72829,"version":"13.0b/18.0a"},{"town":"御薗町王中島","koaza":"","lat":34.511267,"lng":136.716913,"version":"13.0b/18.0a"},{"town":"御薗町小林","koaza":"","lat":34.521083,"lng":136.720692,"version":"13.0b/18.0a"},{"town":"御薗町上條","koaza":"","lat":34.520027,"lng":136.712901,"version":"13.0b/18.0a"},{"town":"御薗町新開","koaza":"","lat":34.51097,"lng":136.72267,"version":"13.0b/18.0a"},{"town":"御薗町高向","koaza":"","lat":34.504754,"lng":136.694936,"version":"13.0b/18.0a"},{"town":"御薗町長屋","koaza":"","lat":34.507831,"lng":136.70975,"version":"13.0b/18.0a"},{"town":"宮川一丁目","koaza":"","lat":34.496198,"lng":136.689152,"version":"13.0b/18.0a"},{"town":"宮川二丁目","koaza":"","lat":34.49783,"lng":136.686666,"version":"13.0b/18.0a"},{"town":"宮後一丁目","koaza":"","lat":34.491866,"lng":136.706987,"version":"13.0b/18.0a"},{"town":"宮後二丁目","koaza":"","lat":34.493691,"lng":136.709304,"version":"13.0b/18.0a"},{"town":"宮後三丁目","koaza":"","lat":34.497707,"lng":136.709424,"version":"13.0b/18.0a"},{"town":"宮町一丁目","koaza":"","lat":34.492586,"lng":136.699812,"version":"13.0b/18.0a"},{"town":"宮町二丁目","koaza":"","lat":34.495776,"lng":136.698163,"version":"13.0b/18.0a"},{"town":"村松町","koaza":"","lat":34.541167,"lng":136.677229,"version":"13.0b/18.0a"},{"town":"倭町","koaza":"","lat":34.485112,"lng":136.720598,"version":"13.0b/18.0a"},{"town":"矢持町","koaza":"","lat":34.405565,"lng":136.694839,"version":"13.0b/18.0a"},{"town":"八日市場町","koaza":"","lat":34.490538,"lng":136.700371,"version":"13.0b/18.0a"},{"town":"横輪町","koaza":"","lat":34.409002,"lng":136.66713,"version":"13.0b/18.0a"},{"town":"上地町","koaza":"芝切","lat":34.49278,"lng":136.659737,"version":"13.0b/18.0a"},{"town":"上地町","koaza":"下起","lat":34.500215,"lng":136.662225,"version":"13.0b/18.0a"},{"town":"御薗町長屋","koaza":"清水","lat":34.506897,"lng":136.70695,"version":"13.0b/18.0a"},{"town":"磯町","koaza":"尾立","lat":34.51459,"lng":136.71014,"version":"13.0b/18.0a"},{"town":"御薗町長屋","koaza":"桜本","lat":34.508592,"lng":136.713823,"version":"13.0b/18.0a"},{"town":"中村町","koaza":"桜が丘","lat":34.472149,"lng":136.72011,"version":"13.0b/18.0a"},{"town":"小木町","koaza":"曽祢","lat":34.506028,"lng":136.722552,"version":"13.0b/18.0a"},{"town":"神田久志本町","koaza":"牛場","lat":34.490764,"lng":136.72579,"version":"13.0b/18.0a"},{"town":"小木町","koaza":"須賀野","lat":34.507809,"lng":136.726354,"version":"13.0b/18.0a"},{"town":"小木町","koaza":"箕曲","lat":34.506172,"lng":136.729879,"version":"13.0b/18.0a"},{"town":"旭町","koaza":"","lat":34.474406,"lng":136.695607,"version":"14.0b/19.0a"},{"town":"朝熊町","koaza":"","lat":34.475959,"lng":136.779724,"version":"14.0b/19.0a"},{"town":"有滝町","koaza":"","lat":34.539991,"lng":136.698426,"version":"14.0b/19.0a"},{"town":"粟野町","koaza":"","lat":34.484636,"lng":136.665062,"version":"14.0b/19.0a"},{"town":"磯町","koaza":"","lat":34.517387,"lng":136.697449,"version":"14.0b/19.0a"},{"town":"一宇田町","koaza":"","lat":34.470123,"lng":136.752992,"version":"14.0b/19.0a"},{"town":"一志町","koaza":"","lat":34.49092,"lng":136.703791,"version":"14.0b/19.0a"},{"town":"一之木一丁目","koaza":"","lat":34.493243,"lng":136.704345,"version":"14.0b/19.0a"},{"town":"一之木二丁目","koaza":"","lat":34.494954,"lng":136.705451,"version":"14.0b/19.0a"},{"town":"一之木三丁目","koaza":"","lat":34.496612,"lng":136.706541,"version":"14.0b/19.0a"},{"town":"一之木四丁目","koaza":"","lat":34.501402,"lng":136.705749,"version":"14.0b/19.0a"},{"town":"一之木五丁目","koaza":"","lat":34.501482,"lng":136.708804,"version":"14.0b/19.0a"},{"town":"一色町","koaza":"","lat":34.506761,"lng":136.746528,"version":"14.0b/19.0a"},{"town":"岩渕一丁目","koaza":"","lat":34.48764,"lng":136.710309,"version":"14.0b/19.0a"},{"town":"岩渕二丁目","koaza":"","lat":34.487562,"lng":136.714595,"version":"14.0b/19.0a"},{"town":"岩渕三丁目","koaza":"","lat":34.48695,"lng":136.717564,"version":"14.0b/19.0a"},{"town":"岩渕町","koaza":"","lat":34.485795,"lng":136.719692,"version":"14.0b/19.0a"},{"town":"上地町","koaza":"","lat":34.492261,"lng":136.659692,"version":"14.0b/19.0a"},{"town":"上野町","koaza":"","lat":34.425861,"lng":136.666631,"version":"14.0b/19.0a"},{"town":"植山町","koaza":"","lat":34.532838,"lng":136.684769,"version":"14.0b/19.0a"},{"town":"宇治今在家町","koaza":"","lat":34.423472,"lng":136.729814,"version":"14.0b/19.0a"},{"town":"宇治浦田一丁目","koaza":"","lat":34.466638,"lng":136.724056,"version":"14.0b/19.0a"},{"town":"宇治浦田二丁目","koaza":"","lat":34.468004,"lng":136.719809,"version":"14.0b/19.0a"},{"town":"宇治浦田三丁目","koaza":"","lat":34.466998,"lng":136.716134,"version":"14.0b/19.0a"},{"town":"宇治浦田町","koaza":"","lat":34.462942,"lng":136.71743,"version":"14.0b/19.0a"},{"town":"宇治館町","koaza":"","lat":34.439827,"lng":136.762276,"version":"14.0b/19.0a"},{"town":"宇治中之切町","koaza":"","lat":34.462473,"lng":136.721516,"version":"14.0b/19.0a"},{"town":"浦口一丁目","koaza":"","lat":34.494564,"lng":136.692628,"version":"14.0b/19.0a"},{"town":"浦口二丁目","koaza":"","lat":34.492586,"lng":136.694513,"version":"14.0b/19.0a"},{"town":"浦口三丁目","koaza":"","lat":34.489049,"lng":136.693721,"version":"14.0b/19.0a"},{"town":"浦口四丁目","koaza":"","lat":34.485186,"lng":136.691636,"version":"14.0b/19.0a"},{"town":"浦口町","koaza":"","lat":34.478585,"lng":136.691112,"version":"14.0b/19.0a"},{"town":"円座町","koaza":"","lat":34.441523,"lng":136.64902,"version":"14.0b/19.0a"},{"town":"大倉町","koaza":"","lat":34.474726,"lng":136.67436,"version":"14.0b/19.0a"},{"town":"大世古一丁目","koaza":"","lat":34.492888,"lng":136.702604,"version":"14.0b/19.0a"},{"town":"大世古二丁目","koaza":"","lat":34.495655,"lng":136.703039,"version":"14.0b/19.0a"},{"town":"大世古三丁目","koaza":"","lat":34.497749,"lng":136.703041,"version":"14.0b/19.0a"},{"town":"大世古四丁目","koaza":"","lat":34.499609,"lng":136.703131,"version":"14.0b/19.0a"},{"town":"大湊町","koaza":"","lat":34.528614,"lng":136.73788,"version":"14.0b/19.0a"},{"town":"岡本一丁目","koaza":"","lat":34.484848,"lng":136.711499,"version":"14.0b/19.0a"},{"town":"岡本二丁目","koaza":"","lat":34.4828,"lng":136.713016,"version":"14.0b/19.0a"},{"town":"岡本三丁目","koaza":"","lat":34.482895,"lng":136.708156,"version":"14.0b/19.0a"},{"town":"尾上町","koaza":"","lat":34.484689,"lng":136.717382,"version":"14.0b/19.0a"},{"town":"小俣町明野","koaza":"","lat":34.527054,"lng":136.670853,"version":"14.0b/19.0a"},{"town":"小俣町新村","koaza":"","lat":34.517264,"lng":136.656229,"version":"14.0b/19.0a"},{"town":"小俣町相合","koaza":"","lat":34.511496,"lng":136.665704,"version":"14.0b/19.0a"},{"town":"小俣町本町","koaza":"","lat":34.501813,"lng":136.66712,"version":"14.0b/19.0a"},{"town":"小俣町宮前","koaza":"","lat":34.496636,"lng":136.67628,"version":"14.0b/19.0a"},{"town":"小俣町元町","koaza":"","lat":34.507769,"lng":136.679618,"version":"14.0b/19.0a"},{"town":"小俣町湯田","koaza":"","lat":34.505551,"lng":136.650676,"version":"14.0b/19.0a"},{"town":"柏町","koaza":"","lat":34.542924,"lng":136.653278,"version":"14.0b/19.0a"},{"town":"樫原町","koaza":"","lat":34.531318,"lng":136.722086,"version":"14.0b/19.0a"},{"town":"鹿海町","koaza":"","lat":34.490574,"lng":136.747353,"version":"14.0b/19.0a"},{"town":"神薗町","koaza":"","lat":34.431752,"lng":136.64187,"version":"14.0b/19.0a"},{"town":"神社港","koaza":"","lat":34.512693,"lng":136.734118,"version":"14.0b/19.0a"},{"town":"河崎一丁目","koaza":"","lat":34.494978,"lng":136.712503,"version":"14.0b/19.0a"},{"town":"河崎二丁目","koaza":"","lat":34.494919,"lng":136.714948,"version":"14.0b/19.0a"},{"town":"河崎三丁目","koaza":"","lat":34.494318,"lng":136.716674,"version":"14.0b/19.0a"},{"town":"川端町","koaza":"","lat":34.489299,"lng":136.681973,"version":"14.0b/19.0a"},{"town":"楠部町","koaza":"","lat":34.47766,"lng":136.738632,"version":"14.0b/19.0a"},{"town":"久世戸町","koaza":"","lat":34.480405,"lng":136.724619,"version":"14.0b/19.0a"},{"town":"黒瀬町","koaza":"","lat":34.493252,"lng":136.735395,"version":"14.0b/19.0a"},{"town":"小木町","koaza":"","lat":34.504903,"lng":136.725621,"version":"14.0b/19.0a"},{"town":"神田久志本町","koaza":"","lat":34.489397,"lng":136.726414,"version":"14.0b/19.0a"},{"town":"桜木町","koaza":"","lat":34.472875,"lng":136.716475,"version":"14.0b/19.0a"},{"town":"下野町","koaza":"","lat":34.516158,"lng":136.737762,"version":"14.0b/19.0a"},{"town":"神久一丁目","koaza":"","lat":34.490395,"lng":136.717838,"version":"14.0b/19.0a"},{"town":"神久二丁目","koaza":"","lat":34.491288,"lng":136.720223,"version":"14.0b/19.0a"},{"town":"神久三丁目","koaza":"","lat":34.494583,"lng":136.71898,"version":"14.0b/19.0a"},{"town":"神久四丁目","koaza":"","lat":34.495437,"lng":136.723333,"version":"14.0b/19.0a"},{"town":"神久五丁目","koaza":"","lat":34.497881,"lng":136.722748,"version":"14.0b/19.0a"},{"town":"神久六丁目","koaza":"","lat":34.495725,"lng":136.726996,"version":"14.0b/19.0a"},{"town":"勢田町","koaza":"","lat":34.47059,"lng":136.709939,"version":"14.0b/19.0a"},{"town":"佐八町","koaza":"","lat":34.459856,"lng":136.660912,"version":"14.0b/19.0a"},{"town":"曽祢一丁目","koaza":"","lat":34.49317,"lng":136.7018,"version":"14.0b/19.0a"},{"town":"曽祢二丁目","koaza":"","lat":34.4961,"lng":136.700398,"version":"14.0b/19.0a"},{"town":"竹ケ鼻町","koaza":"","lat":34.507639,"lng":136.730774,"version":"14.0b/19.0a"},{"town":"田尻町","koaza":"","lat":34.501048,"lng":136.73052,"version":"14.0b/19.0a"},{"town":"辻久留一丁目","koaza":"","lat":34.489461,"lng":136.689721,"version":"14.0b/19.0a"},{"town":"辻久留二丁目","koaza":"","lat":34.486238,"lng":136.685453,"version":"14.0b/19.0a"},{"town":"辻久留三丁目","koaza":"","lat":34.480359,"lng":136.684141,"version":"14.0b/19.0a"},{"town":"辻久留町","koaza":"","lat":34.474514,"lng":136.686945,"version":"14.0b/19.0a"},{"town":"津村町","koaza":"","lat":34.451768,"lng":136.660389,"version":"14.0b/19.0a"},{"town":"通町","koaza":"","lat":34.50039,"lng":136.74283,"version":"14.0b/19.0a"},{"town":"常磐一丁目","koaza":"","lat":34.495177,"lng":136.695055,"version":"14.0b/19.0a"},{"town":"常磐二丁目","koaza":"","lat":34.492641,"lng":136.697261,"version":"14.0b/19.0a"},{"town":"常磐三丁目","koaza":"","lat":34.489538,"lng":136.696742,"version":"14.0b/19.0a"},{"town":"常磐町","koaza":"","lat":34.484352,"lng":136.695653,"version":"14.0b/19.0a"},{"town":"豊川町","koaza":"","lat":34.483476,"lng":136.702303,"version":"14.0b/19.0a"},{"town":"中島一丁目","koaza":"","lat":34.494223,"lng":136.686914,"version":"14.0b/19.0a"},{"town":"中島二丁目","koaza":"","lat":34.490411,"lng":136.687008,"version":"14.0b/19.0a"},{"town":"中須町","koaza":"","lat":34.484841,"lng":136.677277,"version":"14.0b/19.0a"},{"town":"中之町","koaza":"","lat":34.476405,"lng":136.721133,"version":"14.0b/19.0a"},{"town":"中村町","koaza":"","lat":34.471347,"lng":136.728518,"version":"14.0b/19.0a"},{"town":"西豊浜町","koaza":"","lat":34.52758,"lng":136.689341,"version":"14.0b/19.0a"},{"town":"野村町","koaza":"","lat":34.525973,"lng":136.662256,"version":"14.0b/19.0a"},{"town":"東大淀町","koaza":"","lat":34.550648,"lng":136.667605,"version":"14.0b/19.0a"},{"town":"東豊浜町","koaza":"","lat":34.535477,"lng":136.713419,"version":"14.0b/19.0a"},{"town":"吹上一丁目","koaza":"","lat":34.490893,"lng":136.710633,"version":"14.0b/19.0a"},{"town":"吹上二丁目","koaza":"","lat":34.490746,"lng":136.714601,"version":"14.0b/19.0a"},{"town":"藤里町","koaza":"","lat":34.468148,"lng":136.700309,"version":"14.0b/19.0a"},{"town":"二俣一丁目","koaza":"","lat":34.491489,"lng":136.69155,"version":"14.0b/19.0a"},{"town":"二俣二丁目","koaza":"","lat":34.488454,"lng":136.69119,"version":"14.0b/19.0a"},{"town":"二俣三丁目","koaza":"","lat":34.48631,"lng":136.688688,"version":"14.0b/19.0a"},{"town":"二俣四丁目","koaza":"","lat":34.481837,"lng":136.689149,"version":"14.0b/19.0a"},{"town":"二俣町","koaza":"","lat":34.477956,"lng":136.685618,"version":"14.0b/19.0a"},{"town":"二見町今一色","koaza":"","lat":34.518979,"lng":136.750508,"version":"14.0b/19.0a"},{"town":"二見町江","koaza":"","lat":34.50264,"lng":136.789888,"version":"14.0b/19.0a"},{"town":"二見町荘","koaza":"","lat":34.508389,"lng":136.770664,"version":"14.0b/19.0a"},{"town":"二見町茶屋","koaza":"","lat":34.506152,"lng":136.781602,"version":"14.0b/19.0a"},{"town":"二見町西","koaza":"","lat":34.511839,"lng":136.759004,"version":"14.0b/19.0a"},{"town":"二見町光の街","koaza":"","lat":34.495667,"lng":136.762816,"version":"14.0b/19.0a"},{"town":"二見町松下","koaza":"","lat":34.496178,"lng":136.802936,"version":"14.0b/19.0a"},{"town":"二見町溝口","koaza":"","lat":34.502298,"lng":136.757109,"version":"14.0b/19.0a"},{"town":"二見町三津","koaza":"","lat":34.500154,"lng":136.776734,"version":"14.0b/19.0a"},{"town":"二見町山田原","koaza":"","lat":34.500533,"lng":136.765689,"version":"14.0b/19.0a"},{"town":"船江一丁目","koaza":"","lat":34.499808,"lng":136.71307,"version":"14.0b/19.0a"},{"town":"船江二丁目","koaza":"","lat":34.49993,"lng":136.722239,"version":"14.0b/19.0a"},{"town":"船江三丁目","koaza":"","lat":34.502438,"lng":136.718743,"version":"14.0b/19.0a"},{"town":"船江四丁目","koaza":"","lat":34.504719,"lng":136.714516,"version":"14.0b/19.0a"},{"town":"古市町","koaza":"","lat":34.481136,"lng":136.721964,"version":"14.0b/19.0a"},{"town":"本町","koaza":"","lat":34.489162,"lng":136.706362,"version":"14.0b/19.0a"},{"town":"前山町","koaza":"","lat":34.455435,"lng":136.692754,"version":"14.0b/19.0a"},{"town":"馬瀬町","koaza":"","lat":34.518642,"lng":136.72829,"version":"14.0b/19.0a"},{"town":"御薗町王中島","koaza":"","lat":34.511267,"lng":136.716913,"version":"14.0b/19.0a"},{"town":"御薗町小林","koaza":"","lat":34.521083,"lng":136.720692,"version":"14.0b/19.0a"},{"town":"御薗町上條","koaza":"","lat":34.520027,"lng":136.712901,"version":"14.0b/19.0a"},{"town":"御薗町新開","koaza":"","lat":34.51097,"lng":136.72267,"version":"14.0b/19.0a"},{"town":"御薗町高向","koaza":"","lat":34.504754,"lng":136.694936,"version":"14.0b/19.0a"},{"town":"御薗町長屋","koaza":"","lat":34.507831,"lng":136.70975,"version":"14.0b/19.0a"},{"town":"宮川一丁目","koaza":"","lat":34.496198,"lng":136.689152,"version":"14.0b/19.0a"},{"town":"宮川二丁目","koaza":"","lat":34.49783,"lng":136.686666,"version":"14.0b/19.0a"},{"town":"宮後一丁目","koaza":"","lat":34.491866,"lng":136.706987,"version":"14.0b/19.0a"},{"town":"宮後二丁目","koaza":"","lat":34.493691,"lng":136.709304,"version":"14.0b/19.0a"},{"town":"宮後三丁目","koaza":"","lat":34.497707,"lng":136.709424,"version":"14.0b/19.0a"},{"town":"宮町一丁目","koaza":"","lat":34.492586,"lng":136.699812,"version":"14.0b/19.0a"},{"town":"宮町二丁目","koaza":"","lat":34.495776,"lng":136.698163,"version":"14.0b/19.0a"},{"town":"村松町","koaza":"","lat":34.541167,"lng":136.677229,"version":"14.0b/19.0a"},{"town":"倭町","koaza":"","lat":34.485112,"lng":136.720598,"version":"14.0b/19.0a"},{"town":"矢持町","koaza":"","lat":34.405565,"lng":136.694839,"version":"14.0b/19.0a"},{"town":"八日市場町","koaza":"","lat":34.490538,"lng":136.700371,"version":"14.0b/19.0a"},{"town":"横輪町","koaza":"","lat":34.409002,"lng":136.66713,"version":"14.0b/19.0a"},{"town":"上地町","koaza":"芝切","lat":34.49278,"lng":136.659737,"version":"14.0b/19.0a"},{"town":"上地町","koaza":"下起","lat":34.500215,"lng":136.662225,"version":"14.0b/19.0a"},{"town":"御薗町長屋","koaza":"清水","lat":34.506897,"lng":136.70695,"version":"14.0b/19.0a"},{"town":"磯町","koaza":"尾立","lat":34.51459,"lng":136.71014,"version":"14.0b/19.0a"},{"town":"御薗町長屋","koaza":"桜本","lat":34.508592,"lng":136.713823,"version":"14.0b/19.0a"},{"town":"中村町","koaza":"桜が丘","lat":34.472149,"lng":136.72011,"version":"14.0b/19.0a"},{"town":"小木町","koaza":"曽祢","lat":34.506028,"lng":136.722552,"version":"14.0b/19.0a"},{"town":"神田久志本町","koaza":"牛場","lat":34.490764,"lng":136.72579,"version":"14.0b/19.0a"},{"town":"小木町","koaza":"須賀野","lat":34.507809,"lng":136.726354,"version":"14.0b/19.0a"},{"town":"小木町","koaza":"箕曲","lat":34.506172,"lng":136.729879,"version":"14.0b/19.0a"}]