[{"town":"畔蛸町","koaza":"","lat":34.39425,"lng":136.88994,"version":"13.0b/18.0a"},{"town":"安楽島町","koaza":"","lat":34.463592,"lng":136.865802,"version":"13.0b/18.0a"},{"town":"池上町","koaza":"","lat":34.480798,"lng":136.829623,"version":"13.0b/18.0a"},{"town":"石鏡町","koaza":"","lat":34.441433,"lng":136.917741,"version":"13.0b/18.0a"},{"town":"岩倉町","koaza":"","lat":34.444072,"lng":136.85531,"version":"13.0b/18.0a"},{"town":"浦村町","koaza":"","lat":34.433197,"lng":136.901249,"version":"13.0b/18.0a"},{"town":"大明西町","koaza":"","lat":34.467834,"lng":136.846204,"version":"13.0b/18.0a"},{"town":"大明東町","koaza":"","lat":34.469298,"lng":136.851274,"version":"13.0b/18.0a"},{"town":"相差町","koaza":"","lat":34.394882,"lng":136.901629,"version":"13.0b/18.0a"},{"town":"小浜町","koaza":"","lat":34.49671,"lng":136.831265,"version":"13.0b/18.0a"},{"town":"堅神町","koaza":"","lat":34.472593,"lng":136.817687,"version":"13.0b/18.0a"},{"town":"堅子町","koaza":"","lat":34.390327,"lng":136.871376,"version":"13.0b/18.0a"},{"town":"神島町","koaza":"","lat":34.545666,"lng":136.981915,"version":"13.0b/18.0a"},{"town":"国崎町","koaza":"","lat":34.416224,"lng":136.915252,"version":"13.0b/18.0a"},{"town":"河内町","koaza":"","lat":34.440669,"lng":136.808523,"version":"13.0b/18.0a"},{"town":"坂手町","koaza":"","lat":34.486496,"lng":136.858203,"version":"13.0b/18.0a"},{"town":"幸丘","koaza":"","lat":34.457843,"lng":136.84476,"version":"13.0b/18.0a"},{"town":"白木町","koaza":"","lat":34.420992,"lng":136.815645,"version":"13.0b/18.0a"},{"town":"菅島町","koaza":"","lat":34.489938,"lng":136.888162,"version":"13.0b/18.0a"},{"town":"千賀町","koaza":"","lat":34.391336,"lng":136.880175,"version":"13.0b/18.0a"},{"town":"高丘町","koaza":"","lat":34.462882,"lng":136.857835,"version":"13.0b/18.0a"},{"town":"答志町","koaza":"","lat":34.524463,"lng":136.891855,"version":"13.0b/18.0a"},{"town":"鳥羽一丁目","koaza":"","lat":34.487879,"lng":136.840414,"version":"13.0b/18.0a"},{"town":"鳥羽二丁目","koaza":"","lat":34.481565,"lng":136.83898,"version":"13.0b/18.0a"},{"town":"鳥羽三丁目","koaza":"","lat":34.480488,"lng":136.843988,"version":"13.0b/18.0a"},{"town":"鳥羽四丁目","koaza":"","lat":34.474656,"lng":136.845378,"version":"13.0b/18.0a"},{"town":"鳥羽五丁目","koaza":"","lat":34.469265,"lng":136.841629,"version":"13.0b/18.0a"},{"town":"鳥羽町","koaza":"","lat":34.476952,"lng":136.836214,"version":"13.0b/18.0a"},{"town":"船津町","koaza":"","lat":34.463553,"lng":136.837264,"version":"13.0b/18.0a"},{"town":"松尾町","koaza":"","lat":34.422091,"lng":136.842096,"version":"13.0b/18.0a"},{"town":"桃取町","koaza":"","lat":34.517914,"lng":136.874594,"version":"13.0b/18.0a"},{"town":"屋内町","koaza":"","lat":34.47864,"lng":136.824896,"version":"13.0b/18.0a"},{"town":"若杉町","koaza":"","lat":34.452693,"lng":136.841702,"version":"13.0b/18.0a"},{"town":"船津町","koaza":"石代","lat":34.463475,"lng":136.841027,"version":"13.0b/18.0a"},{"town":"畔蛸町","koaza":"","lat":34.39425,"lng":136.88994,"version":"14.0b/19.0a"},{"town":"安楽島町","koaza":"","lat":34.463592,"lng":136.865802,"version":"14.0b/19.0a"},{"town":"池上町","koaza":"","lat":34.480798,"lng":136.829623,"version":"14.0b/19.0a"},{"town":"石鏡町","koaza":"","lat":34.441433,"lng":136.917741,"version":"14.0b/19.0a"},{"town":"岩倉町","koaza":"","lat":34.444072,"lng":136.85531,"version":"14.0b/19.0a"},{"town":"浦村町","koaza":"","lat":34.433197,"lng":136.901249,"version":"14.0b/19.0a"},{"town":"大明西町","koaza":"","lat":34.467834,"lng":136.846204,"version":"14.0b/19.0a"},{"town":"大明東町","koaza":"","lat":34.469298,"lng":136.851274,"version":"14.0b/19.0a"},{"town":"相差町","koaza":"","lat":34.394882,"lng":136.901629,"version":"14.0b/19.0a"},{"town":"小浜町","koaza":"","lat":34.49671,"lng":136.831265,"version":"14.0b/19.0a"},{"town":"堅神町","koaza":"","lat":34.472593,"lng":136.817687,"version":"14.0b/19.0a"},{"town":"堅子町","koaza":"","lat":34.390327,"lng":136.871376,"version":"14.0b/19.0a"},{"town":"神島町","koaza":"","lat":34.545666,"lng":136.981915,"version":"14.0b/19.0a"},{"town":"国崎町","koaza":"","lat":34.416224,"lng":136.915252,"version":"14.0b/19.0a"},{"town":"河内町","koaza":"","lat":34.440669,"lng":136.808523,"version":"14.0b/19.0a"},{"town":"坂手町","koaza":"","lat":34.486496,"lng":136.858203,"version":"14.0b/19.0a"},{"town":"幸丘","koaza":"","lat":34.457843,"lng":136.84476,"version":"14.0b/19.0a"},{"town":"白木町","koaza":"","lat":34.420992,"lng":136.815645,"version":"14.0b/19.0a"},{"town":"菅島町","koaza":"","lat":34.489938,"lng":136.888162,"version":"14.0b/19.0a"},{"town":"千賀町","koaza":"","lat":34.391336,"lng":136.880175,"version":"14.0b/19.0a"},{"town":"高丘町","koaza":"","lat":34.462882,"lng":136.857835,"version":"14.0b/19.0a"},{"town":"答志町","koaza":"","lat":34.524463,"lng":136.891855,"version":"14.0b/19.0a"},{"town":"鳥羽一丁目","koaza":"","lat":34.487879,"lng":136.840414,"version":"14.0b/19.0a"},{"town":"鳥羽二丁目","koaza":"","lat":34.481565,"lng":136.83898,"version":"14.0b/19.0a"},{"town":"鳥羽三丁目","koaza":"","lat":34.480488,"lng":136.843988,"version":"14.0b/19.0a"},{"town":"鳥羽四丁目","koaza":"","lat":34.474656,"lng":136.845378,"version":"14.0b/19.0a"},{"town":"鳥羽五丁目","koaza":"","lat":34.469265,"lng":136.841629,"version":"14.0b/19.0a"},{"town":"鳥羽町","koaza":"","lat":34.476952,"lng":136.836214,"version":"14.0b/19.0a"},{"town":"船津町","koaza":"","lat":34.463553,"lng":136.837264,"version":"14.0b/19.0a"},{"town":"松尾町","koaza":"","lat":34.422091,"lng":136.842096,"version":"14.0b/19.0a"},{"town":"桃取町","koaza":"","lat":34.517914,"lng":136.874594,"version":"14.0b/19.0a"},{"town":"屋内町","koaza":"","lat":34.47864,"lng":136.824896,"version":"14.0b/19.0a"},{"town":"若杉町","koaza":"","lat":34.452693,"lng":136.841702,"version":"14.0b/19.0a"},{"town":"船津町","koaza":"石代","lat":34.463475,"lng":136.841027,"version":"14.0b/19.0a"}]