[{"town":"間之町","koaza":"","lat":35.13905,"lng":136.092612,"version":"13.0b/18.0a"},{"town":"赤尾町","koaza":"","lat":35.117965,"lng":136.079413,"version":"13.0b/18.0a"},{"town":"浅小井町","koaza":"","lat":35.146024,"lng":136.110698,"version":"13.0b/18.0a"},{"town":"安土町石寺","koaza":"","lat":35.137733,"lng":136.163642,"version":"13.0b/18.0a"},{"town":"安土町内野","koaza":"","lat":35.112786,"lng":136.160838,"version":"13.0b/18.0a"},{"town":"安土町上出","koaza":"","lat":35.132408,"lng":136.152406,"version":"13.0b/18.0a"},{"town":"安土町上豊浦","koaza":"","lat":35.139342,"lng":136.145875,"version":"13.0b/18.0a"},{"town":"安土町桑実寺","koaza":"","lat":35.143758,"lng":136.153854,"version":"13.0b/18.0a"},{"town":"安土町小中","koaza":"","lat":35.136717,"lng":136.136818,"version":"13.0b/18.0a"},{"town":"安土町香庄","koaza":"","lat":35.141753,"lng":136.123241,"version":"13.0b/18.0a"},{"town":"安土町慈恩寺","koaza":"","lat":35.136108,"lng":136.1295,"version":"13.0b/18.0a"},{"town":"安土町下豊浦","koaza":"","lat":35.154993,"lng":136.13501,"version":"13.0b/18.0a"},{"town":"安土町常楽寺","koaza":"","lat":35.15069,"lng":136.120146,"version":"13.0b/18.0a"},{"town":"安土町大中","koaza":"","lat":35.175415,"lng":136.120685,"version":"13.0b/18.0a"},{"town":"安土町中屋","koaza":"","lat":35.130424,"lng":136.135274,"version":"13.0b/18.0a"},{"town":"安土町西老蘇","koaza":"","lat":35.123283,"lng":136.153979,"version":"13.0b/18.0a"},{"town":"安土町東老蘇","koaza":"","lat":35.125455,"lng":136.169773,"version":"13.0b/18.0a"},{"town":"安土町宮津","koaza":"","lat":35.142521,"lng":136.14955,"version":"13.0b/18.0a"},{"town":"安養寺町","koaza":"","lat":35.098435,"lng":136.081043,"version":"13.0b/18.0a"},{"town":"生須町","koaza":"","lat":35.142579,"lng":136.093818,"version":"13.0b/18.0a"},{"town":"池田本町","koaza":"","lat":35.104959,"lng":136.083468,"version":"13.0b/18.0a"},{"town":"池田町一丁目","koaza":"","lat":35.13891,"lng":136.085112,"version":"13.0b/18.0a"},{"town":"池田町二丁目","koaza":"","lat":35.137985,"lng":136.085863,"version":"13.0b/18.0a"},{"town":"池田町三丁目","koaza":"","lat":35.137017,"lng":136.086672,"version":"13.0b/18.0a"},{"town":"池田町四丁目","koaza":"","lat":35.136054,"lng":136.087428,"version":"13.0b/18.0a"},{"town":"池田町五丁目","koaza":"","lat":35.134887,"lng":136.088371,"version":"13.0b/18.0a"},{"town":"為心町上","koaza":"","lat":35.136984,"lng":136.092498,"version":"13.0b/18.0a"},{"town":"為心町中","koaza":"","lat":35.138128,"lng":136.091514,"version":"13.0b/18.0a"},{"town":"為心町元","koaza":"","lat":35.139068,"lng":136.090813,"version":"13.0b/18.0a"},{"town":"板屋町","koaza":"","lat":35.133759,"lng":136.087482,"version":"13.0b/18.0a"},{"town":"市井町","koaza":"","lat":35.138314,"lng":136.099075,"version":"13.0b/18.0a"},{"town":"上田町","koaza":"","lat":35.113478,"lng":136.113587,"version":"13.0b/18.0a"},{"town":"上野町","koaza":"","lat":35.10078,"lng":136.072183,"version":"13.0b/18.0a"},{"town":"上畑町","koaza":"","lat":35.090946,"lng":136.114795,"version":"13.0b/18.0a"},{"town":"宇津呂町","koaza":"","lat":35.135245,"lng":136.092645,"version":"13.0b/18.0a"},{"town":"魚屋町上","koaza":"","lat":35.136619,"lng":136.091636,"version":"13.0b/18.0a"},{"town":"魚屋町中","koaza":"","lat":35.137784,"lng":136.090738,"version":"13.0b/18.0a"},{"town":"魚屋町元","koaza":"","lat":35.138687,"lng":136.090113,"version":"13.0b/18.0a"},{"town":"江頭町","koaza":"","lat":35.115491,"lng":136.05591,"version":"13.0b/18.0a"},{"town":"江南町","koaza":"","lat":35.140093,"lng":136.093389,"version":"13.0b/18.0a"},{"town":"大杉町","koaza":"","lat":35.139762,"lng":136.090708,"version":"13.0b/18.0a"},{"town":"大房町","koaza":"","lat":35.132556,"lng":136.073575,"version":"13.0b/18.0a"},{"town":"大森町","koaza":"","lat":35.111594,"lng":136.088853,"version":"13.0b/18.0a"},{"town":"沖島町","koaza":"","lat":35.184077,"lng":136.07947,"version":"13.0b/18.0a"},{"town":"長田町","koaza":"","lat":35.13218,"lng":136.121987,"version":"13.0b/18.0a"},{"town":"小田町","koaza":"","lat":35.117799,"lng":136.043435,"version":"13.0b/18.0a"},{"town":"音羽町","koaza":"","lat":35.134985,"lng":136.103266,"version":"13.0b/18.0a"},{"town":"小幡町上","koaza":"","lat":35.135792,"lng":136.089966,"version":"13.0b/18.0a"},{"town":"小幡町中","koaza":"","lat":35.136942,"lng":136.089067,"version":"13.0b/18.0a"},{"town":"鍵之手町","koaza":"","lat":35.138384,"lng":136.096573,"version":"13.0b/18.0a"},{"town":"鍛治屋町","koaza":"","lat":35.140481,"lng":136.094062,"version":"13.0b/18.0a"},{"town":"加茂町","koaza":"","lat":35.124706,"lng":136.066933,"version":"13.0b/18.0a"},{"town":"川原町一丁目","koaza":"","lat":35.104365,"lng":136.078372,"version":"13.0b/18.0a"},{"town":"川原町二丁目","koaza":"","lat":35.104982,"lng":136.079505,"version":"13.0b/18.0a"},{"town":"北末町","koaza":"","lat":35.134673,"lng":136.087419,"version":"13.0b/18.0a"},{"town":"北津田町","koaza":"","lat":35.166041,"lng":136.080752,"version":"13.0b/18.0a"},{"town":"北之庄町","koaza":"","lat":35.149416,"lng":136.094877,"version":"13.0b/18.0a"},{"town":"北元町","koaza":"","lat":35.136003,"lng":136.086361,"version":"13.0b/18.0a"},{"town":"倉橋部町","koaza":"","lat":35.093151,"lng":136.123475,"version":"13.0b/18.0a"},{"town":"御所内町","koaza":"","lat":35.123528,"lng":136.128808,"version":"13.0b/18.0a"},{"town":"小船木町","koaza":"","lat":35.129698,"lng":136.079516,"version":"13.0b/18.0a"},{"town":"金剛寺町","koaza":"","lat":35.124866,"lng":136.117268,"version":"13.0b/18.0a"},{"town":"佐久間町","koaza":"","lat":35.138559,"lng":136.084309,"version":"13.0b/18.0a"},{"town":"桜宮町","koaza":"","lat":35.129809,"lng":136.095428,"version":"13.0b/18.0a"},{"town":"佐波江町","koaza":"","lat":35.143129,"lng":136.022375,"version":"13.0b/18.0a"},{"town":"慈恩寺町上","koaza":"","lat":35.13807,"lng":136.095859,"version":"13.0b/18.0a"},{"town":"慈恩寺町中","koaza":"","lat":35.138731,"lng":136.095388,"version":"13.0b/18.0a"},{"town":"慈恩寺町元","koaza":"","lat":35.139516,"lng":136.094847,"version":"13.0b/18.0a"},{"town":"篠原町一丁目","koaza":"","lat":35.099155,"lng":136.075778,"version":"13.0b/18.0a"},{"town":"篠原町二丁目","koaza":"","lat":35.09997,"lng":136.076767,"version":"13.0b/18.0a"},{"town":"篠原町三丁目","koaza":"","lat":35.100543,"lng":136.077721,"version":"13.0b/18.0a"},{"town":"島町","koaza":"","lat":35.17438,"lng":136.082058,"version":"13.0b/18.0a"},{"town":"十王町","koaza":"","lat":35.109968,"lng":136.05259,"version":"13.0b/18.0a"},{"town":"正神町","koaza":"","lat":35.137899,"lng":136.088326,"version":"13.0b/18.0a"},{"town":"浄土寺町","koaza":"","lat":35.087512,"lng":136.132284,"version":"13.0b/18.0a"},{"town":"白王町","koaza":"","lat":35.184578,"lng":136.093312,"version":"13.0b/18.0a"},{"town":"白鳥町","koaza":"","lat":35.121297,"lng":136.096603,"version":"13.0b/18.0a"},{"town":"新左衛門町","koaza":"","lat":35.141083,"lng":136.093626,"version":"13.0b/18.0a"},{"town":"新栄町","koaza":"","lat":35.13398,"lng":136.085736,"version":"13.0b/18.0a"},{"town":"新巻町","koaza":"","lat":35.079032,"lng":136.138444,"version":"13.0b/18.0a"},{"town":"新町一丁目","koaza":"","lat":35.139455,"lng":136.088215,"version":"13.0b/18.0a"},{"town":"新町二丁目","koaza":"","lat":35.138367,"lng":136.089105,"version":"13.0b/18.0a"},{"town":"新町三丁目","koaza":"","lat":35.13738,"lng":136.089901,"version":"13.0b/18.0a"},{"town":"新町四丁目","koaza":"","lat":35.136245,"lng":136.090779,"version":"13.0b/18.0a"},{"town":"水茎町","koaza":"","lat":35.131558,"lng":136.040765,"version":"13.0b/18.0a"},{"town":"末広町","koaza":"","lat":35.111301,"lng":136.150462,"version":"13.0b/18.0a"},{"town":"杉森町","koaza":"","lat":35.127747,"lng":136.121425,"version":"13.0b/18.0a"},{"town":"仲屋町上","koaza":"","lat":35.137375,"lng":136.093333,"version":"13.0b/18.0a"},{"town":"仲屋町中","koaza":"","lat":35.138502,"lng":136.092356,"version":"13.0b/18.0a"},{"town":"仲屋町元","koaza":"","lat":35.13939,"lng":136.091761,"version":"13.0b/18.0a"},{"town":"千僧供町","koaza":"","lat":35.106145,"lng":136.115294,"version":"13.0b/18.0a"},{"town":"大工町","koaza":"","lat":35.141351,"lng":136.092765,"version":"13.0b/18.0a"},{"town":"大中町","koaza":"","lat":35.182471,"lng":136.107777,"version":"13.0b/18.0a"},{"town":"鷹飼町","koaza":"","lat":35.118141,"lng":136.105084,"version":"13.0b/18.0a"},{"town":"鷹飼町北一丁目","koaza":"","lat":35.128569,"lng":136.107759,"version":"13.0b/18.0a"},{"town":"鷹飼町北二丁目","koaza":"","lat":35.126652,"lng":136.1057,"version":"13.0b/18.0a"},{"town":"鷹飼町北三丁目","koaza":"","lat":35.130563,"lng":136.105366,"version":"13.0b/18.0a"},{"town":"鷹飼町北四丁目","koaza":"","lat":35.127605,"lng":136.103539,"version":"13.0b/18.0a"},{"town":"鷹飼町東一丁目","koaza":"","lat":35.125531,"lng":136.108471,"version":"13.0b/18.0a"},{"town":"鷹飼町東二丁目","koaza":"","lat":35.124742,"lng":136.105829,"version":"13.0b/18.0a"},{"town":"鷹飼町南一丁目","koaza":"","lat":35.120084,"lng":136.107201,"version":"13.0b/18.0a"},{"town":"鷹飼町南三丁目","koaza":"","lat":35.121863,"lng":136.103323,"version":"13.0b/18.0a"},{"town":"鷹飼町南四丁目","koaza":"","lat":35.120487,"lng":136.101135,"version":"13.0b/18.0a"},{"town":"多賀町","koaza":"","lat":35.142291,"lng":136.098309,"version":"13.0b/18.0a"},{"town":"竹町","koaza":"","lat":35.101535,"lng":136.09278,"version":"13.0b/18.0a"},{"town":"田中江町","koaza":"","lat":35.119577,"lng":136.059386,"version":"13.0b/18.0a"},{"town":"玉木町一丁目","koaza":"","lat":35.139718,"lng":136.086838,"version":"13.0b/18.0a"},{"town":"玉木町二丁目","koaza":"","lat":35.138852,"lng":136.087514,"version":"13.0b/18.0a"},{"town":"玉屋町","koaza":"","lat":35.140307,"lng":136.09247,"version":"13.0b/18.0a"},{"town":"長光寺町","koaza":"","lat":35.109684,"lng":136.1326,"version":"13.0b/18.0a"},{"town":"長福寺町","koaza":"","lat":35.107717,"lng":136.125043,"version":"13.0b/18.0a"},{"town":"長命寺町","koaza":"","lat":35.163799,"lng":136.06227,"version":"13.0b/18.0a"},{"town":"津田町","koaza":"","lat":35.155642,"lng":136.072785,"version":"13.0b/18.0a"},{"town":"土田町","koaza":"","lat":35.126925,"lng":136.088486,"version":"13.0b/18.0a"},{"town":"鉄炮町","koaza":"","lat":35.142854,"lng":136.093101,"version":"13.0b/18.0a"},{"town":"出町","koaza":"","lat":35.131825,"lng":136.09938,"version":"13.0b/18.0a"},{"town":"友定町","koaza":"","lat":35.119224,"lng":136.131294,"version":"13.0b/18.0a"},{"town":"中小森町","koaza":"","lat":35.113821,"lng":136.084745,"version":"13.0b/18.0a"},{"town":"中之庄町","koaza":"","lat":35.164445,"lng":136.072337,"version":"13.0b/18.0a"},{"town":"永原町上","koaza":"","lat":35.137723,"lng":136.094097,"version":"13.0b/18.0a"},{"town":"永原町中","koaza":"","lat":35.138814,"lng":136.093465,"version":"13.0b/18.0a"},{"town":"永原町元","koaza":"","lat":35.139756,"lng":136.092532,"version":"13.0b/18.0a"},{"town":"中村町","koaza":"","lat":35.128215,"lng":136.093711,"version":"13.0b/18.0a"},{"town":"縄手町末","koaza":"","lat":35.135492,"lng":136.099449,"version":"13.0b/18.0a"},{"town":"縄手町中","koaza":"","lat":35.136555,"lng":136.098678,"version":"13.0b/18.0a"},{"town":"縄手町元","koaza":"","lat":35.137798,"lng":136.097668,"version":"13.0b/18.0a"},{"town":"西宿町","koaza":"","lat":35.115373,"lng":136.125343,"version":"13.0b/18.0a"},{"town":"西末町","koaza":"","lat":35.134079,"lng":136.086831,"version":"13.0b/18.0a"},{"town":"西畳屋町","koaza":"","lat":35.139423,"lng":136.093391,"version":"13.0b/18.0a"},{"town":"西庄町","koaza":"","lat":35.137213,"lng":136.111231,"version":"13.0b/18.0a"},{"town":"西本郷町","koaza":"","lat":35.121883,"lng":136.112002,"version":"13.0b/18.0a"},{"town":"西本郷町西","koaza":"","lat":35.122311,"lng":136.107767,"version":"13.0b/18.0a"},{"town":"西本郷町東","koaza":"","lat":35.123827,"lng":136.11005,"version":"13.0b/18.0a"},{"town":"西元町","koaza":"","lat":35.135542,"lng":136.085214,"version":"13.0b/18.0a"},{"town":"西生来町","koaza":"","lat":35.120125,"lng":136.144877,"version":"13.0b/18.0a"},{"town":"野田町","koaza":"","lat":35.120404,"lng":136.12167,"version":"13.0b/18.0a"},{"town":"野村町","koaza":"","lat":35.128643,"lng":136.033776,"version":"13.0b/18.0a"},{"town":"博労町上","koaza":"","lat":35.137537,"lng":136.095115,"version":"13.0b/18.0a"},{"town":"博労町中","koaza":"","lat":35.138325,"lng":136.094772,"version":"13.0b/18.0a"},{"town":"博労町元","koaza":"","lat":35.139162,"lng":136.094144,"version":"13.0b/18.0a"},{"town":"八幡町","koaza":"","lat":35.136015,"lng":136.096666,"version":"13.0b/18.0a"},{"town":"東川町","koaza":"","lat":35.094976,"lng":136.107011,"version":"13.0b/18.0a"},{"town":"東畳屋町","koaza":"","lat":35.139796,"lng":136.09407,"version":"13.0b/18.0a"},{"town":"東町","koaza":"","lat":35.106887,"lng":136.089825,"version":"13.0b/18.0a"},{"town":"東横関町","koaza":"","lat":35.101048,"lng":136.100811,"version":"13.0b/18.0a"},{"town":"日杉町","koaza":"","lat":35.138884,"lng":136.082348,"version":"13.0b/18.0a"},{"town":"日吉野町","koaza":"","lat":35.115343,"lng":136.098087,"version":"13.0b/18.0a"},{"town":"船木町","koaza":"","lat":35.136785,"lng":136.078114,"version":"13.0b/18.0a"},{"town":"船町","koaza":"","lat":35.143605,"lng":136.09376,"version":"13.0b/18.0a"},{"town":"古川町","koaza":"","lat":35.107109,"lng":136.070667,"version":"13.0b/18.0a"},{"town":"堀上町","koaza":"","lat":35.119969,"lng":136.092557,"version":"13.0b/18.0a"},{"town":"本町一丁目","koaza":"","lat":35.139352,"lng":136.085936,"version":"13.0b/18.0a"},{"town":"本町二丁目","koaza":"","lat":35.13842,"lng":136.086689,"version":"13.0b/18.0a"},{"town":"本町三丁目","koaza":"","lat":35.137451,"lng":136.087481,"version":"13.0b/18.0a"},{"town":"本町四丁目","koaza":"","lat":35.136496,"lng":136.088241,"version":"13.0b/18.0a"},{"town":"本町五丁目","koaza":"","lat":35.135475,"lng":136.089144,"version":"13.0b/18.0a"},{"town":"牧町","koaza":"","lat":35.13689,"lng":136.054684,"version":"13.0b/18.0a"},{"town":"孫平治町一丁目","koaza":"","lat":35.138254,"lng":136.083392,"version":"13.0b/18.0a"},{"town":"孫平治町二丁目","koaza":"","lat":35.137012,"lng":136.084342,"version":"13.0b/18.0a"},{"town":"益田町","koaza":"","lat":35.115863,"lng":136.071845,"version":"13.0b/18.0a"},{"town":"馬淵町","koaza":"","lat":35.104036,"lng":136.108439,"version":"13.0b/18.0a"},{"town":"丸の内町","koaza":"","lat":35.111044,"lng":136.057181,"version":"13.0b/18.0a"},{"town":"円山町","koaza":"","lat":35.160423,"lng":136.097192,"version":"13.0b/18.0a"},{"town":"緑町一丁目","koaza":"","lat":35.105347,"lng":136.076277,"version":"13.0b/18.0a"},{"town":"緑町二丁目","koaza":"","lat":35.106895,"lng":136.075165,"version":"13.0b/18.0a"},{"town":"緑町三丁目","koaza":"","lat":35.108678,"lng":136.073542,"version":"13.0b/18.0a"},{"town":"緑町四丁目","koaza":"","lat":35.108818,"lng":136.072039,"version":"13.0b/18.0a"},{"town":"南津田町","koaza":"","lat":35.148697,"lng":136.077285,"version":"13.0b/18.0a"},{"town":"南本郷町一丁目","koaza":"","lat":35.118573,"lng":136.110676,"version":"13.0b/18.0a"},{"town":"南本郷町二丁目","koaza":"","lat":35.119196,"lng":136.11126,"version":"13.0b/18.0a"},{"town":"南本郷町三丁目","koaza":"","lat":35.11964,"lng":136.112035,"version":"13.0b/18.0a"},{"town":"宮内町","koaza":"","lat":35.141966,"lng":136.085336,"version":"13.0b/18.0a"},{"town":"武佐町","koaza":"","lat":35.114537,"lng":136.141353,"version":"13.0b/18.0a"},{"town":"元水茎町","koaza":"","lat":35.129834,"lng":136.052292,"version":"13.0b/18.0a"},{"town":"元玉屋町","koaza":"","lat":35.137567,"lng":136.085094,"version":"13.0b/18.0a"},{"town":"森尻町","koaza":"","lat":35.113316,"lng":136.077756,"version":"13.0b/18.0a"},{"town":"八木町","koaza":"","lat":35.121503,"lng":136.083787,"version":"13.0b/18.0a"},{"town":"薬師町","koaza":"","lat":35.141952,"lng":136.092472,"version":"13.0b/18.0a"},{"town":"柳町一丁目","koaza":"","lat":35.111719,"lng":136.072401,"version":"13.0b/18.0a"},{"town":"柳町二丁目","koaza":"","lat":35.11253,"lng":136.071618,"version":"13.0b/18.0a"},{"town":"柳町三丁目","koaza":"","lat":35.113297,"lng":136.070907,"version":"13.0b/18.0a"},{"town":"若葉町一丁目","koaza":"","lat":35.120108,"lng":136.113171,"version":"13.0b/18.0a"},{"town":"若葉町二丁目","koaza":"","lat":35.119589,"lng":136.115098,"version":"13.0b/18.0a"},{"town":"若葉町三丁目","koaza":"","lat":35.119004,"lng":136.114099,"version":"13.0b/18.0a"},{"town":"若葉町四丁目","koaza":"","lat":35.118413,"lng":136.113042,"version":"13.0b/18.0a"},{"town":"若葉町五丁目","koaza":"","lat":35.11801,"lng":136.111912,"version":"13.0b/18.0a"},{"town":"若宮町","koaza":"","lat":35.107184,"lng":136.098374,"version":"13.0b/18.0a"},{"town":"白鳥町","koaza":"大町","lat":35.12261,"lng":136.096269,"version":"13.0b/18.0a"},{"town":"上田町","koaza":"端間","lat":35.110515,"lng":136.116753,"version":"13.0b/18.0a"},{"town":"間之町","koaza":"","lat":35.13905,"lng":136.092612,"version":"14.0b/19.0a"},{"town":"赤尾町","koaza":"","lat":35.117965,"lng":136.079413,"version":"14.0b/19.0a"},{"town":"浅小井町","koaza":"","lat":35.146024,"lng":136.110698,"version":"14.0b/19.0a"},{"town":"安土町石寺","koaza":"","lat":35.137733,"lng":136.163642,"version":"14.0b/19.0a"},{"town":"安土町内野","koaza":"","lat":35.112786,"lng":136.160838,"version":"14.0b/19.0a"},{"town":"安土町上出","koaza":"","lat":35.132408,"lng":136.152406,"version":"14.0b/19.0a"},{"town":"安土町上豊浦","koaza":"","lat":35.139342,"lng":136.145875,"version":"14.0b/19.0a"},{"town":"安土町桑実寺","koaza":"","lat":35.143758,"lng":136.153854,"version":"14.0b/19.0a"},{"town":"安土町小中","koaza":"","lat":35.136717,"lng":136.136818,"version":"14.0b/19.0a"},{"town":"安土町香庄","koaza":"","lat":35.141753,"lng":136.123241,"version":"14.0b/19.0a"},{"town":"安土町慈恩寺","koaza":"","lat":35.136108,"lng":136.1295,"version":"14.0b/19.0a"},{"town":"安土町下豊浦","koaza":"","lat":35.154993,"lng":136.13501,"version":"14.0b/19.0a"},{"town":"安土町常楽寺","koaza":"","lat":35.15069,"lng":136.120146,"version":"14.0b/19.0a"},{"town":"安土町大中","koaza":"","lat":35.175415,"lng":136.120685,"version":"14.0b/19.0a"},{"town":"安土町中屋","koaza":"","lat":35.130424,"lng":136.135274,"version":"14.0b/19.0a"},{"town":"安土町西老蘇","koaza":"","lat":35.123283,"lng":136.153979,"version":"14.0b/19.0a"},{"town":"安土町東老蘇","koaza":"","lat":35.125455,"lng":136.169773,"version":"14.0b/19.0a"},{"town":"安土町宮津","koaza":"","lat":35.142521,"lng":136.14955,"version":"14.0b/19.0a"},{"town":"安養寺町","koaza":"","lat":35.098435,"lng":136.081043,"version":"14.0b/19.0a"},{"town":"生須町","koaza":"","lat":35.142579,"lng":136.093818,"version":"14.0b/19.0a"},{"town":"池田本町","koaza":"","lat":35.104959,"lng":136.083468,"version":"14.0b/19.0a"},{"town":"池田町一丁目","koaza":"","lat":35.13891,"lng":136.085112,"version":"14.0b/19.0a"},{"town":"池田町二丁目","koaza":"","lat":35.137985,"lng":136.085863,"version":"14.0b/19.0a"},{"town":"池田町三丁目","koaza":"","lat":35.137017,"lng":136.086672,"version":"14.0b/19.0a"},{"town":"池田町四丁目","koaza":"","lat":35.136054,"lng":136.087428,"version":"14.0b/19.0a"},{"town":"池田町五丁目","koaza":"","lat":35.134887,"lng":136.088371,"version":"14.0b/19.0a"},{"town":"為心町上","koaza":"","lat":35.136984,"lng":136.092498,"version":"14.0b/19.0a"},{"town":"為心町中","koaza":"","lat":35.138128,"lng":136.091514,"version":"14.0b/19.0a"},{"town":"為心町元","koaza":"","lat":35.139068,"lng":136.090813,"version":"14.0b/19.0a"},{"town":"板屋町","koaza":"","lat":35.133759,"lng":136.087482,"version":"14.0b/19.0a"},{"town":"市井町","koaza":"","lat":35.138314,"lng":136.099075,"version":"14.0b/19.0a"},{"town":"上田町","koaza":"","lat":35.113478,"lng":136.113587,"version":"14.0b/19.0a"},{"town":"上野町","koaza":"","lat":35.10078,"lng":136.072183,"version":"14.0b/19.0a"},{"town":"上畑町","koaza":"","lat":35.090946,"lng":136.114795,"version":"14.0b/19.0a"},{"town":"宇津呂町","koaza":"","lat":35.135245,"lng":136.092645,"version":"14.0b/19.0a"},{"town":"魚屋町上","koaza":"","lat":35.136619,"lng":136.091636,"version":"14.0b/19.0a"},{"town":"魚屋町中","koaza":"","lat":35.137784,"lng":136.090738,"version":"14.0b/19.0a"},{"town":"魚屋町元","koaza":"","lat":35.138687,"lng":136.090113,"version":"14.0b/19.0a"},{"town":"江頭町","koaza":"","lat":35.115491,"lng":136.05591,"version":"14.0b/19.0a"},{"town":"江南町","koaza":"","lat":35.140093,"lng":136.093389,"version":"14.0b/19.0a"},{"town":"大杉町","koaza":"","lat":35.139762,"lng":136.090708,"version":"14.0b/19.0a"},{"town":"大房町","koaza":"","lat":35.132556,"lng":136.073575,"version":"14.0b/19.0a"},{"town":"大森町","koaza":"","lat":35.111594,"lng":136.088853,"version":"14.0b/19.0a"},{"town":"沖島町","koaza":"","lat":35.184077,"lng":136.07947,"version":"14.0b/19.0a"},{"town":"長田町","koaza":"","lat":35.13218,"lng":136.121987,"version":"14.0b/19.0a"},{"town":"小田町","koaza":"","lat":35.117799,"lng":136.043435,"version":"14.0b/19.0a"},{"town":"音羽町","koaza":"","lat":35.134985,"lng":136.103266,"version":"14.0b/19.0a"},{"town":"小幡町上","koaza":"","lat":35.135792,"lng":136.089966,"version":"14.0b/19.0a"},{"town":"小幡町中","koaza":"","lat":35.136942,"lng":136.089067,"version":"14.0b/19.0a"},{"town":"鍵之手町","koaza":"","lat":35.138384,"lng":136.096573,"version":"14.0b/19.0a"},{"town":"鍛治屋町","koaza":"","lat":35.140481,"lng":136.094062,"version":"14.0b/19.0a"},{"town":"加茂町","koaza":"","lat":35.124706,"lng":136.066933,"version":"14.0b/19.0a"},{"town":"川原町一丁目","koaza":"","lat":35.104365,"lng":136.078372,"version":"14.0b/19.0a"},{"town":"川原町二丁目","koaza":"","lat":35.104982,"lng":136.079505,"version":"14.0b/19.0a"},{"town":"北末町","koaza":"","lat":35.134673,"lng":136.087419,"version":"14.0b/19.0a"},{"town":"北津田町","koaza":"","lat":35.166041,"lng":136.080752,"version":"14.0b/19.0a"},{"town":"北之庄町","koaza":"","lat":35.149416,"lng":136.094877,"version":"14.0b/19.0a"},{"town":"北元町","koaza":"","lat":35.136003,"lng":136.086361,"version":"14.0b/19.0a"},{"town":"倉橋部町","koaza":"","lat":35.093151,"lng":136.123475,"version":"14.0b/19.0a"},{"town":"御所内町","koaza":"","lat":35.123528,"lng":136.128808,"version":"14.0b/19.0a"},{"town":"小船木町","koaza":"","lat":35.129698,"lng":136.079516,"version":"14.0b/19.0a"},{"town":"金剛寺町","koaza":"","lat":35.124866,"lng":136.117268,"version":"14.0b/19.0a"},{"town":"佐久間町","koaza":"","lat":35.138559,"lng":136.084309,"version":"14.0b/19.0a"},{"town":"桜宮町","koaza":"","lat":35.129809,"lng":136.095428,"version":"14.0b/19.0a"},{"town":"佐波江町","koaza":"","lat":35.143129,"lng":136.022375,"version":"14.0b/19.0a"},{"town":"慈恩寺町上","koaza":"","lat":35.13807,"lng":136.095859,"version":"14.0b/19.0a"},{"town":"慈恩寺町中","koaza":"","lat":35.138731,"lng":136.095388,"version":"14.0b/19.0a"},{"town":"慈恩寺町元","koaza":"","lat":35.139516,"lng":136.094847,"version":"14.0b/19.0a"},{"town":"篠原町一丁目","koaza":"","lat":35.099155,"lng":136.075778,"version":"14.0b/19.0a"},{"town":"篠原町二丁目","koaza":"","lat":35.09997,"lng":136.076767,"version":"14.0b/19.0a"},{"town":"篠原町三丁目","koaza":"","lat":35.100543,"lng":136.077721,"version":"14.0b/19.0a"},{"town":"島町","koaza":"","lat":35.17438,"lng":136.082058,"version":"14.0b/19.0a"},{"town":"十王町","koaza":"","lat":35.109968,"lng":136.05259,"version":"14.0b/19.0a"},{"town":"正神町","koaza":"","lat":35.137899,"lng":136.088326,"version":"14.0b/19.0a"},{"town":"浄土寺町","koaza":"","lat":35.087512,"lng":136.132284,"version":"14.0b/19.0a"},{"town":"白王町","koaza":"","lat":35.184578,"lng":136.093312,"version":"14.0b/19.0a"},{"town":"白鳥町","koaza":"","lat":35.121297,"lng":136.096603,"version":"14.0b/19.0a"},{"town":"新左衛門町","koaza":"","lat":35.141083,"lng":136.093626,"version":"14.0b/19.0a"},{"town":"新栄町","koaza":"","lat":35.13398,"lng":136.085736,"version":"14.0b/19.0a"},{"town":"新巻町","koaza":"","lat":35.079032,"lng":136.138444,"version":"14.0b/19.0a"},{"town":"新町一丁目","koaza":"","lat":35.139455,"lng":136.088215,"version":"14.0b/19.0a"},{"town":"新町二丁目","koaza":"","lat":35.138367,"lng":136.089105,"version":"14.0b/19.0a"},{"town":"新町三丁目","koaza":"","lat":35.13738,"lng":136.089901,"version":"14.0b/19.0a"},{"town":"新町四丁目","koaza":"","lat":35.136245,"lng":136.090779,"version":"14.0b/19.0a"},{"town":"水茎町","koaza":"","lat":35.131558,"lng":136.040765,"version":"14.0b/19.0a"},{"town":"末広町","koaza":"","lat":35.111301,"lng":136.150462,"version":"14.0b/19.0a"},{"town":"杉森町","koaza":"","lat":35.127747,"lng":136.121425,"version":"14.0b/19.0a"},{"town":"仲屋町上","koaza":"","lat":35.137375,"lng":136.093333,"version":"14.0b/19.0a"},{"town":"仲屋町中","koaza":"","lat":35.138502,"lng":136.092356,"version":"14.0b/19.0a"},{"town":"仲屋町元","koaza":"","lat":35.13939,"lng":136.091761,"version":"14.0b/19.0a"},{"town":"千僧供町","koaza":"","lat":35.106145,"lng":136.115294,"version":"14.0b/19.0a"},{"town":"大工町","koaza":"","lat":35.141351,"lng":136.092765,"version":"14.0b/19.0a"},{"town":"大中町","koaza":"","lat":35.182471,"lng":136.107777,"version":"14.0b/19.0a"},{"town":"鷹飼町","koaza":"","lat":35.118141,"lng":136.105084,"version":"14.0b/19.0a"},{"town":"鷹飼町北一丁目","koaza":"","lat":35.128569,"lng":136.107759,"version":"14.0b/19.0a"},{"town":"鷹飼町北二丁目","koaza":"","lat":35.126652,"lng":136.1057,"version":"14.0b/19.0a"},{"town":"鷹飼町北三丁目","koaza":"","lat":35.130563,"lng":136.105366,"version":"14.0b/19.0a"},{"town":"鷹飼町北四丁目","koaza":"","lat":35.127605,"lng":136.103539,"version":"14.0b/19.0a"},{"town":"鷹飼町東一丁目","koaza":"","lat":35.125531,"lng":136.108471,"version":"14.0b/19.0a"},{"town":"鷹飼町東二丁目","koaza":"","lat":35.124742,"lng":136.105829,"version":"14.0b/19.0a"},{"town":"鷹飼町南一丁目","koaza":"","lat":35.120084,"lng":136.107201,"version":"14.0b/19.0a"},{"town":"鷹飼町南三丁目","koaza":"","lat":35.121863,"lng":136.103323,"version":"14.0b/19.0a"},{"town":"鷹飼町南四丁目","koaza":"","lat":35.120487,"lng":136.101135,"version":"14.0b/19.0a"},{"town":"多賀町","koaza":"","lat":35.142291,"lng":136.098309,"version":"14.0b/19.0a"},{"town":"竹町","koaza":"","lat":35.101535,"lng":136.09278,"version":"14.0b/19.0a"},{"town":"田中江町","koaza":"","lat":35.119577,"lng":136.059386,"version":"14.0b/19.0a"},{"town":"玉木町一丁目","koaza":"","lat":35.139718,"lng":136.086838,"version":"14.0b/19.0a"},{"town":"玉木町二丁目","koaza":"","lat":35.138852,"lng":136.087514,"version":"14.0b/19.0a"},{"town":"玉屋町","koaza":"","lat":35.140307,"lng":136.09247,"version":"14.0b/19.0a"},{"town":"長光寺町","koaza":"","lat":35.109684,"lng":136.1326,"version":"14.0b/19.0a"},{"town":"長福寺町","koaza":"","lat":35.107717,"lng":136.125043,"version":"14.0b/19.0a"},{"town":"長命寺町","koaza":"","lat":35.163799,"lng":136.06227,"version":"14.0b/19.0a"},{"town":"津田町","koaza":"","lat":35.155642,"lng":136.072785,"version":"14.0b/19.0a"},{"town":"土田町","koaza":"","lat":35.126925,"lng":136.088486,"version":"14.0b/19.0a"},{"town":"鉄炮町","koaza":"","lat":35.142854,"lng":136.093101,"version":"14.0b/19.0a"},{"town":"出町","koaza":"","lat":35.131825,"lng":136.09938,"version":"14.0b/19.0a"},{"town":"友定町","koaza":"","lat":35.119224,"lng":136.131294,"version":"14.0b/19.0a"},{"town":"中小森町","koaza":"","lat":35.113821,"lng":136.084745,"version":"14.0b/19.0a"},{"town":"中之庄町","koaza":"","lat":35.164445,"lng":136.072337,"version":"14.0b/19.0a"},{"town":"永原町上","koaza":"","lat":35.137723,"lng":136.094097,"version":"14.0b/19.0a"},{"town":"永原町中","koaza":"","lat":35.138814,"lng":136.093465,"version":"14.0b/19.0a"},{"town":"永原町元","koaza":"","lat":35.139756,"lng":136.092532,"version":"14.0b/19.0a"},{"town":"中村町","koaza":"","lat":35.128215,"lng":136.093711,"version":"14.0b/19.0a"},{"town":"縄手町末","koaza":"","lat":35.135492,"lng":136.099449,"version":"14.0b/19.0a"},{"town":"縄手町中","koaza":"","lat":35.136555,"lng":136.098678,"version":"14.0b/19.0a"},{"town":"縄手町元","koaza":"","lat":35.137798,"lng":136.097668,"version":"14.0b/19.0a"},{"town":"西宿町","koaza":"","lat":35.115373,"lng":136.125343,"version":"14.0b/19.0a"},{"town":"西末町","koaza":"","lat":35.134079,"lng":136.086831,"version":"14.0b/19.0a"},{"town":"西畳屋町","koaza":"","lat":35.139423,"lng":136.093391,"version":"14.0b/19.0a"},{"town":"西庄町","koaza":"","lat":35.137213,"lng":136.111231,"version":"14.0b/19.0a"},{"town":"西本郷町","koaza":"","lat":35.121883,"lng":136.112002,"version":"14.0b/19.0a"},{"town":"西本郷町西","koaza":"","lat":35.122311,"lng":136.107767,"version":"14.0b/19.0a"},{"town":"西本郷町東","koaza":"","lat":35.123827,"lng":136.11005,"version":"14.0b/19.0a"},{"town":"西元町","koaza":"","lat":35.135542,"lng":136.085214,"version":"14.0b/19.0a"},{"town":"西生来町","koaza":"","lat":35.120125,"lng":136.144877,"version":"14.0b/19.0a"},{"town":"野田町","koaza":"","lat":35.120404,"lng":136.12167,"version":"14.0b/19.0a"},{"town":"野村町","koaza":"","lat":35.128643,"lng":136.033776,"version":"14.0b/19.0a"},{"town":"博労町上","koaza":"","lat":35.137537,"lng":136.095115,"version":"14.0b/19.0a"},{"town":"博労町中","koaza":"","lat":35.138325,"lng":136.094772,"version":"14.0b/19.0a"},{"town":"博労町元","koaza":"","lat":35.139162,"lng":136.094144,"version":"14.0b/19.0a"},{"town":"八幡町","koaza":"","lat":35.136015,"lng":136.096666,"version":"14.0b/19.0a"},{"town":"東川町","koaza":"","lat":35.094976,"lng":136.107011,"version":"14.0b/19.0a"},{"town":"東畳屋町","koaza":"","lat":35.139796,"lng":136.09407,"version":"14.0b/19.0a"},{"town":"東町","koaza":"","lat":35.106887,"lng":136.089825,"version":"14.0b/19.0a"},{"town":"東横関町","koaza":"","lat":35.101048,"lng":136.100811,"version":"14.0b/19.0a"},{"town":"日杉町","koaza":"","lat":35.138884,"lng":136.082348,"version":"14.0b/19.0a"},{"town":"日吉野町","koaza":"","lat":35.115343,"lng":136.098087,"version":"14.0b/19.0a"},{"town":"船木町","koaza":"","lat":35.136785,"lng":136.078114,"version":"14.0b/19.0a"},{"town":"船町","koaza":"","lat":35.143605,"lng":136.09376,"version":"14.0b/19.0a"},{"town":"古川町","koaza":"","lat":35.107109,"lng":136.070667,"version":"14.0b/19.0a"},{"town":"堀上町","koaza":"","lat":35.119969,"lng":136.092557,"version":"14.0b/19.0a"},{"town":"本町一丁目","koaza":"","lat":35.139352,"lng":136.085936,"version":"14.0b/19.0a"},{"town":"本町二丁目","koaza":"","lat":35.13842,"lng":136.086689,"version":"14.0b/19.0a"},{"town":"本町三丁目","koaza":"","lat":35.137451,"lng":136.087481,"version":"14.0b/19.0a"},{"town":"本町四丁目","koaza":"","lat":35.136496,"lng":136.088241,"version":"14.0b/19.0a"},{"town":"本町五丁目","koaza":"","lat":35.135475,"lng":136.089144,"version":"14.0b/19.0a"},{"town":"牧町","koaza":"","lat":35.13689,"lng":136.054684,"version":"14.0b/19.0a"},{"town":"孫平治町一丁目","koaza":"","lat":35.138254,"lng":136.083392,"version":"14.0b/19.0a"},{"town":"孫平治町二丁目","koaza":"","lat":35.137012,"lng":136.084342,"version":"14.0b/19.0a"},{"town":"益田町","koaza":"","lat":35.115863,"lng":136.071845,"version":"14.0b/19.0a"},{"town":"馬淵町","koaza":"","lat":35.104036,"lng":136.108439,"version":"14.0b/19.0a"},{"town":"丸の内町","koaza":"","lat":35.111044,"lng":136.057181,"version":"14.0b/19.0a"},{"town":"円山町","koaza":"","lat":35.160423,"lng":136.097192,"version":"14.0b/19.0a"},{"town":"緑町一丁目","koaza":"","lat":35.105347,"lng":136.076277,"version":"14.0b/19.0a"},{"town":"緑町二丁目","koaza":"","lat":35.106895,"lng":136.075165,"version":"14.0b/19.0a"},{"town":"緑町三丁目","koaza":"","lat":35.108678,"lng":136.073542,"version":"14.0b/19.0a"},{"town":"緑町四丁目","koaza":"","lat":35.108818,"lng":136.072039,"version":"14.0b/19.0a"},{"town":"南津田町","koaza":"","lat":35.148697,"lng":136.077285,"version":"14.0b/19.0a"},{"town":"南本郷町一丁目","koaza":"","lat":35.118573,"lng":136.110676,"version":"14.0b/19.0a"},{"town":"南本郷町二丁目","koaza":"","lat":35.119196,"lng":136.11126,"version":"14.0b/19.0a"},{"town":"南本郷町三丁目","koaza":"","lat":35.11964,"lng":136.112035,"version":"14.0b/19.0a"},{"town":"宮内町","koaza":"","lat":35.141966,"lng":136.085336,"version":"14.0b/19.0a"},{"town":"武佐町","koaza":"","lat":35.114537,"lng":136.141353,"version":"14.0b/19.0a"},{"town":"元水茎町","koaza":"","lat":35.129834,"lng":136.052292,"version":"14.0b/19.0a"},{"town":"元玉屋町","koaza":"","lat":35.137567,"lng":136.085094,"version":"14.0b/19.0a"},{"town":"森尻町","koaza":"","lat":35.113316,"lng":136.077756,"version":"14.0b/19.0a"},{"town":"八木町","koaza":"","lat":35.121503,"lng":136.083787,"version":"14.0b/19.0a"},{"town":"薬師町","koaza":"","lat":35.141952,"lng":136.092472,"version":"14.0b/19.0a"},{"town":"柳町一丁目","koaza":"","lat":35.111719,"lng":136.072401,"version":"14.0b/19.0a"},{"town":"柳町二丁目","koaza":"","lat":35.11253,"lng":136.071618,"version":"14.0b/19.0a"},{"town":"柳町三丁目","koaza":"","lat":35.113297,"lng":136.070907,"version":"14.0b/19.0a"},{"town":"若葉町一丁目","koaza":"","lat":35.120108,"lng":136.113171,"version":"14.0b/19.0a"},{"town":"若葉町二丁目","koaza":"","lat":35.119589,"lng":136.115098,"version":"14.0b/19.0a"},{"town":"若葉町三丁目","koaza":"","lat":35.119004,"lng":136.114099,"version":"14.0b/19.0a"},{"town":"若葉町四丁目","koaza":"","lat":35.118413,"lng":136.113042,"version":"14.0b/19.0a"},{"town":"若葉町五丁目","koaza":"","lat":35.11801,"lng":136.111912,"version":"14.0b/19.0a"},{"town":"若宮町","koaza":"","lat":35.107184,"lng":136.098374,"version":"14.0b/19.0a"},{"town":"白鳥町","koaza":"大町","lat":35.12261,"lng":136.096269,"version":"14.0b/19.0a"},{"town":"上田町","koaza":"端間","lat":35.110515,"lng":136.116753,"version":"14.0b/19.0a"}]